"학원명","학원주소","lon","lat"
"나라음악학원","서울특별시 강동구 고덕로27길 29 (암사동)",127.1377237,37.5561027
"YBM바른보습학원","서울특별시 강동구 구천면로42길 38 , 3층 (천호동)",127.136074,37.5456691
"빈음악학원","서울특별시 강동구 동남로49길 60-4 , 3층 (둔촌동, 헤어이슈)",127.1466445,37.532853
"하얀음악학원","서울특별시 강동구 천중로51길 56 , 2층 (길동)",127.1449175,37.5432267
"학우속셈학원","서울특별시 송파구 백제고분로42길 35 (송파동)",127.1061795,37.5086756
"모짜르트음악학원","서울특별시 송파구 오금로31가길 13 , 3층 (방이동)",127.1225447,37.5070701
"선화음악학원","서울특별시 송파구 백제고분로46길 26 , 3층 (송파동)",127.1136337,37.5074928
"신화창조미술학원","서울특별시 송파구 가락로 151 , 6층 (송파동)",127.1175211,37.5072111
"희가원무용학원","서울특별시 송파구 양재대로72길 8 , 4층 (오금동)",127.1276745,37.509467
"윤선생영어숲상일보습학원","서울특별시 강동구 상일로11길 63 , 상가205,206,208,209,210호 (상일동,고덕주공아파트)",127.1669237,37.5522344
"신수지음악학원","서울특별시 강동구 동남로81길 44 , 2층 일부 (고덕동)",127.154494,37.5599822
"TTE미술학원","서울특별시 강동구 양재대로136길 24 , 3층 (명일동, 한양빌딩)",127.1553401,37.5519077
"소진음악학원","서울특별시 송파구 양재대로64길  , 가락아파트42-506 (가락동)",127.1203961,37.4950933
"동화나라미술학원","서울특별시 강동구 구천면로100길 11 , 3층 (상일동)",127.1717121,37.5503648
"글로리아음악학원","서울특별시 강동구 천중로15길 36 , 2층 (천호동)",127.1236423,37.5459136
"대지보습학원","서울특별시 강동구 양재대로 1330 , 둔촌종합상가 314,318,319,321,324호 (둔촌동)",127.136231,37.527657
"하나미술학원","서울특별시 강동구 양재대로 1626 , 고덕빌딩504호 (명일동)",127.1545916,37.5538729
"두리미술학원","서울특별시 송파구 동남로8길 26 (문정동)",127.1260536,37.4893813
"담비피아노학원","서울특별시 송파구 백제고분로20길 13 (잠실동)",127.0859794,37.5034796
"연당서예학원","서울특별시 강동구 명일로 243 (길동)",127.1466661,37.5403227
"엠제이서울무용학원","서울특별시 송파구 동남로18길 45 , 2층일부 (가락동)",127.1348016,37.4928022
"홍파피아노학원","서울특별시 강동구 상일로11길 25 , 고덕주공바상가215,216호 (상일동)",127.1706987,37.5522472
"수음악학원","서울특별시 강동구 구천면로 278 ,  동아하이빌상가201호 (천호동)",127.1343993,37.5447069
"권혜경음악학원","서울특별시 송파구 도곡로64길 8 , (2층) (잠실동)",127.0788634,37.5051138
"현대신웅변학원","서울특별시 강동구 상암로39길 24 , 2층 (천호동)",127.1403754,37.546952
"비발디음악학원","서울특별시 강동구 고덕로20길 15 , 2층 (암사동)",127.1339949,37.5539102
"아뜰리에작은화가들미술학원","서울특별시 송파구 가락로28길 15 (송파동)",127.1170014,37.5063853
"미파음악학원","서울특별시 송파구 오금로31길 19 , 3층 (방이동)",127.1219307,37.5076341
"은파음악학원","서울특별시 송파구 송이로33길 10 , 2층 (문정동)",127.1332622,37.4879333
"모란미술학원","서울특별시 송파구 석촌호수로 133 , 주공4단지상가320호 (잠실동)",127.069113,37.483822
"제이와이보습학원","서울특별시 송파구 가락로39길 8 , 2층 (방이동 158-17)",127.1182662,37.5118535
"칸타빌레음악학원","서울특별시 송파구 새말로17길 15  2층 (문정동)",127.1304101,37.4863958
"홍익서예학원","서울특별시 송파구 동남로20길 9 (가락동)",127.1335433,37.49649
"미래보습학원","서울특별시 강동구 동남로67길 30 , 2층 (명일동)",127.1542048,37.5488234
"예고은미술학원","서울특별시 강동구 성안로25길 55 , 3층 (천호동)",127.1296914,37.5261073
"예고은음악학원","서울특별시 강동구 성안로25길 55 , 3층 (천호동)",127.1296914,37.5261073
"강동세계로보습학원","서울특별시 강동구 명일로 276 , 2층 (길동)",127.1479204,37.5431637
"프라임솔리스트음악학원","서울특별시 송파구 가락로36길 9 , 2층 (방이동)",127.1191516,37.5096624
"김수연음악학원","서울특별시 송파구 백제고분로46길 32-36 , 2층 (송파동)",127.112983,37.5059958
"세미피아노학원","서울특별시 송파구 백제고분로42길 20 , 2층 (송파동)",127.110383,37.5048283
"짐머만음악학원","서울특별시 강동구 동남로81길 66 , 2층 (고덕동)",127.153284,37.559387
"이레음악학원","서울특별시 강동구 구천면로 440 (명일동)",127.1500409,37.5502209
"예시각미술학원","서울특별시 송파구 오금로46길 44 (가락동)",127.1336981,37.4944392
"김소연음악학원","서울특별시 송파구 한가람로  ,  우성4차아파트 우성상가2층 (잠실본동)",127.0829611,37.5027667
"예그린음악학원","서울특별시 강동구 구천면로47가길 14 , 2층 (암사동)",127.1339735,37.5492083
"이지스보습학원","서울특별시 송파구 거마로 7 , 3층 (거여동, OK 빌딩)",127.1444558,37.4939781
"김정록무용학원","서울특별시 송파구 한가람로  , 3층 (풍납동)",127.1134887,37.5327384
"명문음악학원","서울특별시 강동구 암사길 60 (암사동)",127.1360664,37.551825
"산성보습학원","서울특별시 송파구 성내천로 254 , 2층 (마천동)",127.1598069,37.4968446
"까치음악학원","서울특별시 강동구 양재대로 1330 , 종합상가315호 (둔촌동,주공아파트)",127.142042,37.523972
"케임브리지영어보습학원","서울특별시 강동구 상일로 127 , 2층 전체 (고덕동)",127.1708754,37.5584648
"SSEN쎈영어보습학원","서울특별시 강동구 동남로75길 13-25 , 5층 (명일동)",127.1555377,37.5541563
"나라엠보습학원","서울특별시 송파구 백제고분로22길 30 , 3층 (삼전동)",127.0881506,37.5012708
"죽림서예학원","서울특별시 송파구 마천로  , 프라자상가 202호 (거여동)",127.1491076,37.4954308
"석정속셈학원","서울특별시 강동구 구천면로46길 4 (천호동)",127.1362421,37.5479869
"송파해정보습학원","서울특별시 송파구 오금로36길 63 ,  2층 (가락동)",127.1218427,37.49854
"대신보습학원","서울특별시 송파구 오금로46길 37 , 3층 (가락동)",127.1338805,37.4944209
"민병철어학학원","서울특별시 송파구 백제고분로 365 , 태문빌딩 4층 (석촌동)",127.1062921,37.5053224
"엠비씨방송아카데미학원","서울특별시 송파구 백제고분로9길 10 , 1,2,3,4층 (잠실동)",127.080224,37.5089827
"다원색미술학원","서울특별시 송파구 마천로7가길 5 , 2층 (오금동)",127.1276386,37.5088568
"지수학사랑보습학원","서울특별시 송파구 거마로 83 , 2층 (마천동)",127.1473341,37.5003261
"정도보습학원","서울특별시 강동구 명일로 244 , 2층1호 (길동)",127.1470957,37.5403609
"풍납현대음악학원","서울특별시 송파구 토성로19길 7 , 3층 (풍납동)",127.1126179,37.5310018
"그루터기속셈학원","서울특별시 송파구 성내천로 158 (마천동)",127.1521087,37.4997568
"이튼스쿨보습학원","서울특별시 송파구 오금로34길 49-1 , 2층 (가락동)",127.122327,37.4994879
"엠아이티수학보습학원","서울특별시 송파구 오금로32길 50 , 2,3층 (송파동)",127.1174619,37.5026387
"가을미술학원","서울특별시 강동구 양재대로 1590 , 1층일부 (명일동)",127.1500409,37.5502209
"한아름보습학원","서울특별시 송파구 위례성대로22길 8 , 2층 (오금동)",127.1309732,37.5095265
"백향목보습학원","서울특별시 송파구 오금로 422 , 3층 (가락동)",127.1251764,37.5032169
"가온음악학원","서울특별시 송파구 백제고분로15길  , 2층 (잠실본동)",127.0843184,37.5060673
"강동하늘소리음악학원","서울특별시 강동구 진황도로27길 29 , 2층 (천호동)",127.132033,37.5397078
"서울과학보습학원","서울특별시 송파구 마천로 31 , 3층 (방이동)",127.1244049,37.5094302
"천호대성보습학원","서울특별시 강동구 양재대로123길 9 ,  (3층) (천호동)",127.1413897,37.5432768
"가락이지음악학원","서울특별시 송파구 가락로 82 , 3층일부(308호) (석촌동)",127.1035697,37.503517
"하늘연음악학원","서울특별시 강동구 명일로 261 , (2층) (길동)",127.1472025,37.541907
"한솔속셈학원","서울특별시 송파구 백제고분로41길 19-1 (송파동)",127.1082289,37.5075377
"마천성문속셈학원","서울특별시 송파구 거마로 74 , 3층 (마천동)",127.1473835,37.4991623
"신동아피아노학원","서울특별시 강동구 천중로 264 ,  신동아아파트상가2층 (길동)",127.1381235,37.531707
"필보습학원","서울특별시 송파구 성내천로8길 3 , 2층 (오금동)",127.1360643,37.5021671
"예인음악학원","서울특별시 강동구 구천면로42길 28 , 2,3층 (천호동)",127.135597,37.5459197
"예종피아노음악학원","서울특별시 강동구 구천면로16길 33 , 2층 (천호동)",127.1215455,37.5404989
"천호연세속셈학원","서울특별시 강동구 구천면로62길 24 (천호동)",127.1391563,37.549048
"뉴멘토보습학원","서울특별시 송파구 동남로20길 22 , 3층 (가락동)",127.1342832,37.4955826
"제이유에스티원보습학원","서울특별시 강동구 성내로 69 , (4층) (성내동)",127.127819,37.5278613
"서울라이프음악학원","서울특별시 송파구 올림픽로35길 112 , 2동 407호 (신천동, 장미아파트B상가)",127.1015754,37.5190781
"동부진학속셈학원","서울특별시 강동구 명일로 189 ,  2,3층 (길동)",127.1451607,37.5355984
"예음음악학원","서울특별시 송파구 오금로 ,  나상가 2층 (가락동,가락아파트)",127.1265404,37.4944907
"수신보습학원","서울특별시 송파구 문정로11길 24 , 2층 (가락동)",127.123956,37.4862779
"엄지미술학원","서울특별시 강동구 고덕로83길  , 3층 (고덕동)",127.1694886,37.5603324
"오늘미술학원","서울특별시 송파구 송파대로 370 ,  3,4층  (송파동)",127.113255,37.5069016
"마천수지음악학원","서울특별시 송파구 성내천로 230 ,  2,3층 (마천동)",127.1585181,37.4985204
"최영숙무용학원","서울특별시 송파구 양재대로  , 4층 (오금동)",127.1318961,37.5096342
"송파줄리어드음악학원","서울특별시 송파구 새말로6길 7 , 2층 (문정동)",127.1261464,37.4820952
"와이비엠시사닷컴송파잠실이씨씨어학학원","서울특별시 송파구 오금로 235 , 4층 (방이동 227-4외4필지,동양증권)",127.1199018,37.5067947
"우주미술학원","서울특별시 송파구 백제고분로50길 42 , 2층 (방이동)",127.1190449,37.5127747
"성우음악학원","서울특별시 송파구 올림픽로4길 42 , 상가2동3층 301호 (잠실동)",127.0729819,37.5068555
"그레이스음악학원","서울특별시 송파구 송파대로32길 8 , 가락우성상가3층(7,8호) (가락동)",127.1177959,37.4965473
"위례음악학원","서울특별시 강동구 양재대로  (둔촌동)",127.136248,37.527664
"영란음악학원","서울특별시 강동구 명일로16길 25 , 2층 (길동)",127.1475273,37.5372356
"하모니음악학원","서울특별시 송파구 백제고분로32길 12 , 2층 (삼전동)",127.09489,37.5012803
"서광음악학원","서울특별시 송파구 가락로 169 , 3층 (송파동)",127.1119989,37.5096323
"예윤음악학원","서울특별시 송파구 동남로18길 44 , 3층 (가락동)",127.1336195,37.4919492
"천년의미소미술학원","서울특별시 강동구 양재대로 1478 , 5층 (길동)",127.1528376,37.5415268
"이레실용음악학원","서울특별시 강동구 고덕로 95 , 2층 (암사동)",127.1358228,37.5548841
"베르디음악학원","서울특별시 송파구 오금로 432 , 3층 303호 (가락동)",127.1157128,37.4952783
"선화피아노학원","서울특별시 강동구 양재대로116길 41 , 2층 (길동)",127.1426989,37.5382395
"가나미술학원","서울특별시 강동구 천중로12길 23-40 , (1,2층) (천호동)",127.1283227,37.5433955
"마루보습학원","서울특별시 강동구 동남로75길 13-7 , 401호 (명일동, 배재빌딩)",127.1555359,37.5539562
"별난보습학원","서울특별시 송파구 삼전로12길 6 , 2층 (삼전동, 삼창빌딩)",127.0906269,37.506322
"경희무용학원","서울특별시 강동구 고덕로27길 28 , 상가 310,311,312,313,314호 (암사동,현대홈타운)",127.1380327,37.5559112
"세종보습학원","서울특별시 송파구 오금로 538 , 2층 (거여동)",127.1442354,37.4984349
"소리나무음악학원","서울특별시 송파구 한가람로14길 13 , 2층 (풍납동)",127.1153013,37.5360146
"이엠(EM)영수학원","서울특별시 강동구 상암로14길 51 , 2층 (천호동)",127.1253249,37.5508656
"명문실용음악학원","서울특별시 송파구 백제고분로32길 17 , 3층 (삼전동)",127.0950871,37.5006907
"예논미술학원","서울특별시 강동구 상암로3길 12 , 2층 (암사동)",127.1269042,37.5509151
"하나부기학원","서울특별시 송파구 백제고분로40길 5-20 , 4층 (석촌동)",127.1061927,37.5039596
"무한미술학원","서울특별시 송파구 마천로5길 4 ,  3층일부 (오금동)",127.1267199,37.5086869
"송파에스엘피어학학원","서울특별시 송파구 마천로 6 , 1~3층 (방이동)",127.1216492,37.5100441
"클릭전원미술학원","서울특별시 송파구 송파대로37길 8 , 2층,4층일부 (석촌동)",127.1107646,37.500024
"김태영수학보습학원","서울특별시 송파구 위례성대로22길 16 , 4층 (오금동)",127.1306059,37.5089138
"지케이아이어학학원","서울특별시 송파구 강동대로3길 23 , 4층 (풍납동)",127.1154174,37.5287737
"어린음악대방이엘원음악학원","서울특별시 송파구 백제고분로50길 35 , 2층 (방이동)",127.1186593,37.5131467
"RKS보습학원","서울특별시 송파구 백제고분로48길 18 , 2층 (방이동)",127.1151177,37.5110388
"암사참좋은학원","서울특별시 강동구 천중로17길 59 , 2층 (천호동)",127.1311534,37.5474405
"강동뉴스터디보습학원","서울특별시 강동구 명일로 212 ,  (3층) (길동)",127.1461621,37.5374834
"백향목2관보습학원","서울특별시 송파구 동남로20길 24 , 2층 (가락동)",127.1344783,37.4953372
"강동티에스이(TSE)영어학원","서울특별시 강동구 동남로73길 26 , 명일씨티코아 303호, 304호 (명일동)",127.1547657,37.553266
"젤쎈수학보습학원","서울특별시 송파구 중대로16길 19-10 , 3층 (가락동)",127.1265098,37.4951713
"수도민속무용학원","서울특별시 강동구 풍성로56길  , (4층 403호) (성내동)",127.1345473,37.5281282
"김시형보습학원","서울특별시 강동구 양재대로 1383 ,  (4층) (성내동)",127.134277,37.523561
"아이짱보습학원","서울특별시 강동구 동남로65길 25-15 , 삼익맨션상가동3층일부 (명일동)",127.1545833,37.546969
"선화예술음악학원","서울특별시 강동구 동남로81길 20 , 3층일부 301호 (고덕동)",127.1555644,37.5605179
"신우암독서실","서울특별시 송파구 오금로32길 50 , 4,5층 (송파동)",127.1174619,37.5026387
"정광독서실","서울특별시 강동구 동남로81길 20 , 4층 (고덕동)",127.1555644,37.5605179
"장함보습학원","서울특별시 강동구 동남로81길 20 ,  (2층일부) (고덕동)",127.1555644,37.5605179
"샘독서실","서울특별시 송파구 오금로46길 5 , 4층 (가락동)",127.1364461,37.4965148
"거여독서실","서울특별시 송파구 오금로 519 , 5층 (거여동)",127.1420176,37.4990279
"강동민병철어학학원","서울특별시 강동구 천호대로 997 , 5층 (천호동)",127.137426,37.5441292
"최경실음악학원","서울특별시 강동구 동남로82길 123 (고덕동)",127.1638887,37.5603753
"한샘독서실","서울특별시 송파구 오금로31길 11 ,  3,4,5층 (방이동)",127.1215255,37.5069886
"늘하늘음악학원","서울특별시 송파구 가락로 176 , 3층일부 (송파동)",127.1119305,37.504609
"삼전뮤엠영어보습학원","서울특별시 송파구 백제고분로28길 24 , (2층) (삼전동)",127.0913811,37.5009533
"삼전엘림에듀보습학원","서울특별시 송파구 백제고분로 228 , 2층 (삼전동)",127.091107,37.5068657
"삼익이화음악학원","서울특별시 강동구 명일로 293 , 2층 (길동, 삼익파크)",127.1463797,37.5449133
"현대보습학원","서울특별시 송파구 오금로35길 17 , (현대A상가2층 203,205호) (오금동)",127.1260413,37.5043544
"탑아인스2관보습학원","서울특별시 송파구 양재대로72길 8 , 3층 (오금동)",127.1276745,37.509467
"케이투제이민족사관보습학원","서울특별시 송파구 가락로 86 , 4층 (석촌동)",127.0978335,37.5053594
"신동일보습학원","서울특별시 강동구 천호대로176길 33 ,  A동 2층 (성내동)",127.1360899,37.5329166
"서울한신보습학원","서울특별시 송파구 양재대로62길 6 ,  2,3층 (가락동)",127.1177519,37.4989438
"더제네시스학원","서울특별시 강동구 명일로 106 , 2층 (둔촌동)",127.142593,37.5285119
"영웅독서실","서울특별시 강동구 구천면로 167-11 , 3층  (천호동)",127.1339731,37.5397563
"잠실수와식보습학원","서울특별시 송파구 올림픽로4길 42 ,  3층304,305호 (잠실동)",127.0729819,37.5068555
"륜이음악학원","서울특별시 강동구 명일로 38 , 둔촌다상가 3층 (둔촌동)",127.1388295,37.5268861
"패스영어보습학원","서울특별시 강동구 고덕로62길 27 , 3층 (명일동)",127.1538145,37.5537151
"탑독서실","서울특별시 송파구 송이로 171 , 6층 (가락동)",127.1260932,37.4920037
"종로간호조무사학원","서울특별시 강동구 올림픽로 630 ,  (3층일부) (성내동)",127.1287651,37.5302922
"새서라벌음악학원","서울특별시 송파구 삼전로7길 18 ,  (2층) (잠실동)",127.0866819,37.5056908
"정근용영어보습학원","서울특별시 송파구 위례성대로22길 24 , 2층 (오금동)",127.1302654,37.5083328
"프링키파투스학원","서울특별시 강동구 구천면로 355 , 2층 (암사동)",127.1380149,37.5503822
"숙명음악학원","서울특별시 강동구 올림픽로98가길 28 ,  (3층) (암사동)",127.1314297,37.5505511
"가락일대일보습학원","서울특별시 송파구 중대로9길 45 ,  (3층) (가락동)",127.1187564,37.4971943
"미래건축학원","서울특별시 송파구 송파대로 414 ,  (2층) (송파동)",127.1113643,37.5005683
"그리새미술학원","서울특별시 강동구 천호대로187길 53-18 ,  (3층) (길동)",127.1427733,37.5365858
"오렌지보습학원","서울특별시 강동구 명일로 210 ,  (3층) (길동)",127.1460832,37.537263
"잠실5단지독서실","서울특별시 송파구 송파대로 567 , (1,2층) (잠실동)",127.0817308,37.5201423
"영재독서실","서울특별시 강동구 양재대로128길 47 , 3층 (명일동)",127.1454636,37.5444525
"다울글샘보습학원","서울특별시 송파구 성내천로 261 ,  (4층) (마천동)",127.1454486,37.5026237
"월드보습학원","서울특별시 강동구 천중로 212 ,  (2층) (길동)",127.1436822,37.5406164
"김영성인고시학원","서울특별시 송파구 오금로11길 7 ,  (3층일부,4층일부) (방이동)",127.1079524,37.5145269
"동서울컴퓨터아트학원","서울특별시 강동구 천호대로151길 36 , DSA빌딩2,3,4층 (천호동)",127.123539,37.5405903
"청람독서실","서울특별시 송파구 가락로 167 , 2층 (송파동)",127.1099557,37.507002
"스마트컴퓨터학원","서울특별시 송파구 동남로 274 , 3층일부 (오금동)",127.1278734,37.5029895
"새삼성음악학원","서울특별시 송파구 양산로 29 ,  (5층) (거여동)",127.1435516,37.4917558
"뉴예그린음악학원","서울특별시 송파구 백제고분로22길 40 , 2층 (삼전동)",127.0878788,37.5005578
"이현보습학원","서울특별시 강동구 명일로 171 ,  (4층) (둔촌동)",127.1445842,37.5340687
"대연보습학원","서울특별시 송파구 오금로 196 ,  (4층) (송파동)",127.1142263,37.5091282
"가락스터디뱅크독서실","서울특별시 송파구 양재대로62길 19 ,  (4층) (가락동)",127.118987,37.4980682
"송파연세보습학원","서울특별시 송파구 가락로16길 3-12 ,  (2층) (석촌동)",127.1082725,37.5008342
"풍납청산보습학원","서울특별시 송파구 한가람로 448 , 301호일부 304호 (풍납동)",127.1134887,37.5327384
"풍납엘리트보습학원","서울특별시 송파구 풍성로 41 ,  (2,3층) (풍납동)",127.1170064,37.5343866
"능통독서실","서울특별시 송파구 백제고분로32길 7 ,  2,3층 (삼전동)",127.0952488,37.501629
"동부웹컴퓨터학원","서울특별시 강동구 양재대로 1330 , 3층 (둔촌동)",127.142042,37.523972
"구주이배입시학원","서울특별시 송파구 위례성대로 74 , (1,2층일부,3,4층일부,5,6층) (방이동)",127.1201025,37.5144126
"알파영수보습학원","서울특별시 강동구 천중로 7 ,  (2층) (천호동)",127.1228023,37.5460335
"이지보습학원","서울특별시 강동구 양재대로134길 51 , (2층) (명일동)",127.1464924,37.5478209
"호성미술학원","서울특별시 강동구 올림픽로  ,  (2층) (성내동)",127.1287651,37.5302922
"대건정보처리학원","서울특별시 강동구 상암로 210 4층 (명일동)",127.1551475,37.5527344
"이편한독서실","서울특별시 강동구 천호대로199길 15 ,  (3층) (길동)",127.1477009,37.5371963
"송파홍익가족미술학원","서울특별시 송파구 오금로57길 8 ,  (2층) (거여동,상록빌딩)",127.1427245,37.4946674
"신이화음악학원","서울특별시 송파구 오금로57길 8 , (3층) (거여동)",127.1427245,37.4946674
"송파스카이에듀입시학원","서울특별시 송파구 백제고분로 498 , 2층 일부, 3층,4층 (방이동)",127.1152655,37.5146171
"고득점수학보습학원","서울특별시 송파구 중대로25길 16 ,  (2층) (오금동)",127.1276152,37.5036809
"비젼독서실","서울특별시 강동구 동남로67길 22 ,  (2,3층) (명일동)",127.1546597,37.5488284
"혜성음악학원","서울특별시 강동구 천호대로187길 59 , 3층 (길동)",127.1428609,37.5368441
"프라임독서실","서울특별시 강동구 동남로81길 100 , 3층 (고덕동)",127.1516931,37.5589485
"미래엔탑학원","서울특별시 송파구 오금로44길 48 , (3층) (가락동)",127.1324654,37.4942574
"비젼음악학원","서울특별시 송파구 송이로 17길 40 2층(가락동)",127.1242633,37.5005421
"시각과인식미술학원","서울특별시 강동구 양재대로 1503 , (4층) (길동)",127.1502792,37.5424203
"가락예음음악학원","서울특별시 송파구 송이로14길 3 , (3층) (가락동)",127.1156037,37.5034934
"공달보습학원","서울특별시 송파구 양재대로71길 4-12 ,  (5, 6층) (방이동)",127.1263736,37.5107432
"씨알보습학원","서울특별시 송파구 중대로 202 ,  7번지 2층 (가락동)",127.1267138,37.4997934
"세림음악학원","서울특별시 송파구 올림픽로35길 104 , 장미B상가1동407호 (신천동)",127.1015754,37.5190781
"세종아트무용학원","서울특별시 강동구 양재대로 1329 , 4층 (성내동)",127.1287651,37.5302922
"프로메테우스영어수학보습학원","서울특별시 송파구 동남로 211 , 3층 (가락동, 정이비인후과)",127.1312282,37.4963108
"최용훈국어보습학원","서울특별시 송파구 위례성대로16길 11 , 11번지 2층 일부 (방이동)",127.1249719,37.5116357
"명문올림피아드정보처리학원","서울특별시 송파구 백제고분로 154 , 3층 (잠실동)",127.0842945,37.5061273
"청림보습학원","서울특별시 송파구 위례성대로18길 31-12 ,  3층 (방이동)",127.1253821,37.5092465
"에듀원독서실","서울특별시 강동구 고덕로 254 , 5층 (명일동)",127.1421829,37.5531581
"윤선생독서실","서울특별시 강동구 천호대로162길 54 , 3층 (성내동)",127.1277575,37.5344088
"이은재6관어학학원","서울특별시 송파구 양재대로 1160 , 5층 (오금동)",127.1330369,37.5088947
"이차함수보습학원","서울특별시 송파구 삼전로 82 , 3층 (삼전동, 청성빌딩)",127.0895715,37.5056554
"서울기술이용학원","서울특별시 송파구 백제고분로 465 , 4층 2호 (방이동)",127.1130402,37.5121495
"새롬독서실","서울특별시 강동구 풍성로 171 , 3층 (성내동)",127.1310109,37.5304727
"미래와사람들고등부종합학원","서울특별시 강동구 양재대로 1543 , 2층일부,3~4층,6층 (천호동, 진주빌딩)",127.1418503,37.5434703
"송파지디에이어학학원","서울특별시 강동구 성안로 9 , 2,3층 (성내동)",127.1289632,37.5248089
"2호선보습학원","서울특별시 강동구 양재대로 1335 , 2층일부, 4층일부 (성내동)",127.1287651,37.5302922
"넘버스수학보습학원","서울특별시 강동구 구천면로 656 , 4층전체 (상일동)",127.1646653,37.5511064
"새샘독서실","서울특별시 송파구 송파대로 , 장미비상가4층 (신천동)",127.1015754,37.5190781
"어썸팩토리풍납독서실","서울특별시 송파구 토성로 38-6 , 4층 (풍납동)",127.1128425,37.5292392
"핌미술학원","서울특별시 강동구 양재대로 1313 ,  5층 (성내동)",127.1277354,37.5373749
"우리아이들미술학원","서울특별시 송파구 백제고분로31길 28 , 2층 (삼전동)",127.0958056,37.5050699
"예인피아노학원","서울특별시 강동구 암사길 34 , 3층 (암사동)",127.1328937,37.5516603
"예담미술학원","서울특별시 송파구 올림픽로 119 , 4B15호 (잠실동, 잠실파인애플상가)",127.0841274,37.5120434
"서울아카데미학원","서울특별시 강동구 구천면로 504 ,  3층 (명일동)",127.1552025,37.5541782
"교민보습학원","서울특별시 송파구 동남로 159 ,  (3층) (가락동)",127.1278705,37.4926205
"뉴영재독서실","서울특별시 강동구 양재대로 1329 ,  (4층) (성내동)",127.1287651,37.5302922
"이보영토킹클럽가락어학학원","서울특별시 송파구 송이로23길 52-42 ,  2층 (가락동)",127.1280243,37.4971864
"솔리스트음악학원","서울특별시 강동구 동남로67길 52 , (1,2,3층) (명일동)",127.152909,37.5488204
"수비니겨보습학원","서울특별시 송파구 백제고분로 161 ,  (3층) (잠실동)",127.0842945,37.5061273
"미래국어보습학원","서울특별시 송파구 마천로7길 5 , 4층 일부 (오금동)",127.1277235,37.50856
"임혜정무용학원","서울특별시 강동구 동남로75길 13-7 , 5층(502호) (명일동)",127.1555,37.5538875
"진학보습학원","서울특별시 강동구 양재대로 1330 , 주공아파트종합상가 303호 (둔촌동)",127.1412158,37.5253118
"쎈수학러닝센터더올림보습학원","서울특별시 강동구 진황도로 162 , 3층,4층 (둔촌동)",127.1417175,37.5316547
"에꼴드쉐프제과학원","서울특별시 강동구 양재대로 1488 (길동)",127.1405837,37.5385711
"진주이화음악학원","서울특별시 송파구 올림픽로33길 16 , 3층7.8.9호 (신천동)",127.0995,37.5200705
"리처드신보습학원","서울특별시 송파구 동남로 202 , 501호 (가락동)",127.131064,37.4953563
"필립보습학원","서울특별시 송파구 백제고분로41길 40 ,  (3층) (송파동)",127.1061706,37.5091342
"르송미술학원","서울특별시 강동구 양재대로121길 13 ,  (2층) (천호동)",127.1407155,37.5423646
"한솔요리학원","서울특별시 강동구 천호대로 995 , (5층) (천호동)",127.137426,37.5441292
"필립스보습학원","서울특별시 송파구 백제고분로 126 ,  4층 (잠실동)",127.0842945,37.5061273
"상아탑독서실","서울특별시 송파구 토성로 65 , 3층(301호) (풍납동)",127.1173294,37.5288709
"강남조리제과학원","서울특별시 송파구 백제고분로 354 , 3층 (석촌동)",127.0979671,37.5057235
"예스인보습학원","서울특별시 강동구 명일로 263 , (2,3층) (길동)",127.147276,37.5421094
"셀공독서실","서울특별시 송파구 동남로 202 , (6층601,602호) (가락동)",127.131064,37.4953563
"아카데미독서실","서울특별시 송파구 가락로 58 , 3층 (석촌동)",127.1010821,37.5043921
"가우디미술학원","서울특별시 송파구 송파대로 366 , 정림빌딩 4층 (송파동)",127.1116886,37.5006861
"예일영재미술학원","서울특별시 강동구 양재대로 1305 , (5층) (성내동)",127.1277354,37.5373749
"로드브릿지영수학원","서울특별시 송파구 백제고분로 132 , 4층 (잠실동, 정방빌딩)",127.078989,37.5104879
"하늘음악학원","서울특별시 송파구 백제고분로27길 6-21 , 2층 (삼전동)",127.0938673,37.5032683
"성모간호조무사학원","서울특별시 송파구 송파대로 448 , 5층 (송파동)",127.1078201,37.5050171
"백두대간보습학원","서울특별시 강동구 양재대로 1355 , 3층일부(3층15호) (성내동)",127.1287651,37.5302922
"강동원더랜드어학학원","서울특별시 강동구 동남로75길 13-21 , (5층) (명일동)",127.155457,37.5532835
"예솔미술학원","서울특별시 송파구 가락로11길 32 , 2층 (석촌동)",127.1038606,37.503012
"쌍용독서실","서울특별시 송파구 동남로 189 , 3층 (가락동,가락쌍용A관리동)",127.128207,37.49563
"아리쌤수학보습학원","서울특별시 송파구 백제고분로46길 39 , 2층 (송파동)",127.1152017,37.5069892
"새하늘음악학원","서울특별시 송파구 중대로38길 26 , 3층일부 (오금동)",127.1351643,37.5061639
"강동한솔보습학원","서울특별시 강동구 풍성로 130 ,  (2층) (성내동)",127.1265216,37.5314235
"오케이영어보습학원","서울특별시 강동구 구천면로 512 , (2,3층) (명일동)",127.1459449,37.5499715
"참영어참수학보습학원","서울특별시 강동구 풍성로 247 , 2층 (둔촌동)",127.1391981,37.5281809
"웅비독서실","서울특별시 송파구 삼전로4길 22 ,  4층 (삼전동)",127.0886055,37.5015293
"고수수학보습학원","서울특별시 강동구 동남로67길 36 , 2,3층 (명일동)",127.1538041,37.5488259
"둔촌스터디뱅크독서실","서울특별시 강동구 명일로 165 , 3층 (둔촌동)",127.1444072,37.5337115
"정수학보습학원","서울특별시 강동구 양재대로81길 39 ,  5층일부(501호) (성내동,이노빌딩)",127.131928,37.523154
"신뮤즈음악학원","서울특별시 송파구 송파대로32길 8 , 2,3층 (가락동)",127.1177959,37.4965473
"훼밀리미세스장어학보습학원","서울특별시 송파구 충민로2길 28 , 외 1(501,502,503호,504호일부) (장지동)",127.1273388,37.4772734
"천호지(G)1230보습학원","서울특별시 강동구 천중로15나길 16 , 2층,1층일부 (천호동)",127.1291848,37.5464267
"소르본역사논술보습학원","서울특별시 송파구 석촌호수로 106 , 5층 (잠실동)",127.088642,37.5076442
"인포컴퓨터학원","서울특별시 강동구 양재대로 1466 , 5층 (길동)",127.1528376,37.5415268
"서정무용학원","서울특별시 송파구 오금로 400 , 4층 (가락동)",127.1249129,37.502932
"브레그마보습학원","서울특별시 강동구 구천면로 494-1 , 2층 (명일동)",127.1459449,37.5499715
"명일독서실","서울특별시 강동구 구천면로 438 , 5층 (명일동,명일빌딩)",127.1551471,37.5540951
"골든벨독서실","서울특별시 송파구 가락로28길 11 , 4층 (송파동)",127.1171151,37.5060574
"에듀윈독서실","서울특별시 강동구 동남로65길 25-15 , 삼익맨션상가3층 (명일동)",127.1545833,37.546969
"보체다모레음악학원","서울특별시 송파구 가락로11길 27 , 2층 (석촌동)",127.1036796,37.5027286
"진샘수학보습학원","서울특별시 송파구 풍성로 57  3층 (풍납동)",127.1188521,37.5338858
"비비드음악학원","서울특별시 송파구 가락로 275  2층 (방이동)",127.1194037,37.5124675
"제1지케이아이어학학원","서울특별시 송파구 토성로 58  4층 (풍납동)",127.1162034,37.5289914
"성내클라임독서실","서울특별시 강동구 양재대로 1349  4층 (성내동)",127.1287651,37.5302922
"영신독서실","서울특별시 송파구 성내천로 208 ,  (6층) (마천동)",127.144443,37.5025335
"풍납한국유피아이보습학원","서울특별시 송파구 풍성로15길 10  1층101층 (풍납동)",127.1168891,37.5352192
"현대컴퓨터학원","서울특별시 송파구 가락로 146 , 2층 (송파동)",127.11628,37.5067621
"황금비례미술학원","서울특별시 강동구 동남로71길 20  3층 (명일동)",127.1550799,37.5519004
"장미독서실","서울특별시 송파구 올림픽로35길 104 , 장미비상가2동,3층(309호) (신천동)",127.1015754,37.5190781
"대한전기학원","서울특별시 송파구 올림픽로32길 22-23  5층 (방이동)",127.1083294,37.5134512
"명문미용패션전문학원","서울특별시 강동구 올림픽로 805 , 1층,2층,3층 (암사동, 명문빌딩)",127.1282113,37.5529557
"화가손미술학원","서울특별시 송파구 올림픽로 130 , 3층 (잠실동)",127.0696275,37.5175895
"대성독서실","서울특별시 송파구 가락로 183 , 3층 (송파동,한양아파트상가)",127.1145253,37.5051721
"예랑음악학원","서울특별시 송파구 송이로33길 19 ,  2,3층 (문정동)",127.1338383,37.4886701
"버클리독서실","서울특별시 강동구 상암로51길 54 , 상가동 303,304,306 (명일동,명일엘지아파트)",127.144014,37.55131
"뉴아이비독서실","서울특별시 송파구 중대로 60-6 ,  (5,6층) (문정동)",127.1156174,37.4912103
"새예음음악학원","서울특별시 송파구 성내천로 313 , 2,3층 (마천동)",127.154121,37.4945135
"선사현대독서실","서울특별시 강동구 상암로 18 , 3층 (암사동)",127.1256001,37.5506532
"피플음악학원","서울특별시 강동구 동남로71길 37 , 2층 (명일동,고덕현대아파트)",127.1534806,37.550401
"엠에스보습학원","서울특별시 송파구 백제고분로 148 , 3층 (잠실동)",127.0842945,37.5061273
"리얼아이매쓰(REAL-I-MATH)보습학원","서울특별시 강동구 동남로71길 14 , 5층 일부 (명일동, 한양빌딩)",127.1553401,37.5519077
"에듀링교육보습학원","서울특별시 송파구 송이로 4 , 3층 (송파동)",127.1142263,37.5091282
"청명보습학원","서울특별시 강동구 명일로 166 , 3층일부 (둔촌동,의성빌딩)",127.1447914,37.5336558
"수현재보습학원","서울특별시 강동구 양재대로 1377 , 4층 (성내동)",127.1362456,37.5291279
"가교독서실","서울특별시 송파구 동남로20길 24 , 4층 (가락동)",127.1344783,37.4953372
"면학독서실","서울특별시 송파구 올림픽로4길 17 , 아세아선수촌상가 315~316,319 (잠실동,아시아선수촌아파트 중심상가)",127.0770796,37.5077545
"가락연세보습학원","서울특별시 송파구 중대로9길 51 , 3층 (가락동,부성빌딩)",127.119111,37.4974267
"가나통역학원","서울특별시 송파구 송파대로 451 , 4층 (석촌동)",127.0978335,37.5053594
"신청산보습학원","서울특별시 송파구 송이로 91 3층(가락동)",127.1209394,37.4980359
"알바트로스독서실","서울특별시 강동구 양재대로 1655 , 2층 (명일동)",127.1523953,37.5547123
"송파그린섬미술학원","서울특별시 송파구 송파대로 372 , 3층 (송파동)",127.1119989,37.5096323
"강남수학보습학원","서울특별시 강동구 고덕로62길 48 , 2층 204호 (명일동,신동아아파트 상가)",127.1521215,37.5536234
"잠실해법보습학원","서울특별시 송파구 백제고분로31길 33 , (2층) (삼전동)",127.095593,37.5056324
"오금서울음악학원","서울특별시 송파구 오금로35길 44 , 2층 (오금동)",127.1292244,37.5064266
"웰컴독서실","서울특별시 송파구 풍성로6길 15 , 2층 (풍납동,신동아아파트)",127.114596,37.533458
"오금고려보습학원","서울특별시 송파구 마천로8길 7 , 3층 (오금동,성원빌딩)",127.1376224,37.5024622
"1인독서실","서울특별시 강동구 진황도로 206 , 2층 (둔촌동)",127.1437104,37.527956
"영인보습학원","서울특별시 송파구 백제고분로 173 , 3층 (잠실동,조양빌딩)",127.0858773,37.5080161
"송파새롬고시학원","서울특별시 송파구 송파대로 372 (송파동)",127.1113762,37.5010901
"대지투보습학원","서울특별시 강동구 양재대로89가길 56-1 , 6층 (성내동)",127.1338947,37.5241261
"로얄독서실","서울특별시 강동구 동남로82길 97 ,  3,4층 (고덕동)",127.162424,37.560483
"머스트(MUST)독서실","서울특별시 강동구 양재대로 1554 , (3층) (길동)",127.1497705,37.5437664
"이룸1인독서실","서울특별시 강동구 동남로71길 20 , 6층 (명일동)",127.1550799,37.5519004
"두토수학학원","서울특별시 송파구 마천로 20 , 3층 (방이동,창암빌딩)",127.1231237,37.5096277
"신우보습학원","서울특별시 송파구 가락로 183 , 한양아파트상가 3층 (송파동,한양아파트상가)",127.1145253,37.5051721
"상일하버드독서실","서울특별시 강동구 구천면로 666 (상일동)",127.1719898,37.5508239
"홍문보습학원","서울특별시 송파구 백제고분로 126 , 2층 (잠실동)",127.0842945,37.5061273
"우암독서실","서울특별시 송파구 오금로35길 38 , 4층 (오금동)",127.12895,37.5059975
"영인EFL보습학원","서울특별시 송파구 백제고분로 15길4 2층(잠실동)",127.0846883,37.5056628
"주양보습학원","서울특별시 강동구 고덕로62길 55 , 6009호 (명일동,주양쇼핑)",127.1534256,37.552376
"아임실용음악학원","서울특별시 강동구 양재대로 1367 , 3층 (성내동)",127.1359081,37.5282758
"블루스카이독서실","서울특별시 강동구 풍성로65길 5 , 삼보빌딩6층 (둔촌동,앵거스소고기전문점)",127.1392059,37.5283918
"뉴열린음악학원","서울특별시 강동구 천호대로199길 19 , 2층 (길동)",127.1477754,37.5374068
"솔빛영재보습학원","서울특별시 송파구 올림픽로12길 60 , 3층 (잠실동,송보빌딩)",127.0998736,37.5039657
"윤경희피아노음악학원","서울특별시 강동구 양재대로91길 62 (성내동,동아1차아파트)",127.1329277,37.5287922
"눈높이러닝센터성내강동보습학원","서울특별시 강동구 풍성로 135 , 3층 (성내동)",127.1272061,37.531525
"수도컴퓨터학원","서울특별시 송파구 마천로26길 3 , 3층 (오금동)",127.1393505,37.5025028
"삼성독서실","서울특별시 강동구 풍성로 135 , 4,5층 (성내동)",127.1272061,37.531525
"행운독서실","서울특별시 송파구 백제고분로50길 29 , 2층 (방이동)",127.1179217,37.5134494
"연세피아노음악학원","서울특별시 송파구 백제고분로28길 14 , (2층) (삼전동)",127.0917621,37.5018113
"제이에스스카이(JsSky)보습학원","서울특별시 송파구 송이로36길 62-18  2층 (문정동)",127.1269224,37.4841076
"래미안보습학원","서울특별시 송파구 송이로 239  창원빌딩2층 (문정동)",127.1317345,37.4880194
"필팍보습학원","서울특별시 강동구 구천면로 498-1 , 2층 (명일동)",127.1500409,37.5502209
"씨앤씨미술학원","서울특별시 송파구 양재대로 1164 , 703호 (오금동)",127.1290675,37.5093501
"신은혜음악학원","서울특별시 강동구 성안로25길 6 , 2층 201,205~107호 (천호동, 삼성아파트)",127.134955,37.53793
"릴리예술음악학원","서울특별시 강동구 양재대로134길 11 , 2층 (명일동)",127.1443372,37.5477611
"거원보습학원","서울특별시 송파구 양산로2길 38 , 2층 일부 (거여동)",127.146477,37.4884845
"이에스에이보습학원","서울특별시 강동구 양재대로 1365 , 503호 (성내동, 심포니타워)",127.1360202,37.5280392
"디자인티쓰리(T3)미술학원","서울특별시 송파구 송파대로 373 , 2층,3층 (석촌동)",127.0974472,37.5054988
"단비영어학원","서울특별시 강동구 동남로71길 38 ,  4층 404,405호 (명일동)",127.1540691,37.5520193
"뉴지성보습학원","서울특별시 송파구 삼학사로 31 (삼전동,그나라빌딩)",127.0964821,37.4999914
"나노디지털정보처리학원","서울특별시 송파구 송이로17길 13 ,  2층 (가락동)",127.1225992,37.4987465
"이아이이(EIE)둔촌보습학원","서울특별시 강동구 풍성로67길 65 , 2층 (둔촌동)",127.1422919,37.5300127
"오에쓰에쓰(O.S.S)영어중국어강동어학학원","서울특별시 강동구 천호옛길 63 , 2층, 3층일부 (성내동)",127.1240364,37.5347642
"이씨와이(ECY)영어학원","서울특별시 강동구 올림픽로 580  2층 (성내동)",127.1218731,37.5333192
"드림독서실","서울특별시 강동구 성내로3길 45 , 2층 (성내동)",127.1236157,37.5318462
"가락성신속셈학원","서울특별시 송파구 송파대로 375 (석촌동)",127.1035697,37.503517
"하이레벨독서실","서울특별시 강동구 명일로 171 (둔촌동)",127.1445842,37.5340687
"천호한솔보습학원","서울특별시 강동구 구천면로34길 45 , 2,3층 (천호동,고분철물전기)",127.1336788,37.5424997
"마천왕수학보습학원","서울특별시 송파구 마천로 258-1 , 2층 (거여동,거여빌딩)",127.1457094,37.4982996
"상록수보습학원","서울특별시 송파구 위례성대로 178 , 3층 (오금동,올림픽빌딩)",127.1306785,37.5102111
"암사스터디뱅크독서실","서울특별시 강동구 고덕로 85 , 3층 (암사동,교촌치킨)",127.1347323,37.5549557
"문명기영어학원","서울특별시 강동구 동남로75길 13-15 , 6층 (명일동,성은빌딩)",127.1554804,37.5536229
"제니스독서실","서울특별시 송파구 양산로 12 , 3층(311~314,320~322호) (거여동, 세신거여훼밀리타운)",127.143585,37.4899242
"한빛속셈학원","서울특별시 송파구 중대로34길 5-14 (오금동)",127.1334023,37.5063483
"엘씨씨어학학원","서울특별시 송파구 토성로 38-6  상가203호 (풍납동)",127.1128425,37.5292392
"강남대성송파보습학원","서울특별시 송파구 송파대로22길 5-5 , (1층,2층일부,3층,4층) (문정동)",127.1222042,37.4875651
"송파종로엠보습학원","서울특별시 송파구 중대로 156 , 2층,3층 (가락동)",127.1247921,37.4959353
"이와스어학학원","서울특별시 송파구 중대로 58 , 3층(301-304호) (문정동)",127.1153371,37.4911956
"오세용고등부영어보습학원","서울특별시 송파구 동남로18길 8 , (2층) (가락동)",127.131486,37.4950476
"파스텔음악학원","서울특별시 송파구 백제고분로32길 10 (삼전동)",127.0900447,37.5045617
"다솔학원(보습)","서울특별시 강동구 고덕로38길 47 (명일동)",127.1426466,37.552706
"석촌프라임독서실","서울특별시 송파구 가락로11길 8 , 3층 (석촌동)",127.104857,37.5010211
"이지어학학원","서울특별시 강동구 양재대로 1550 , 2층 (길동,은호빌딩)",127.1425652,37.5439016
"영재넷보습학원","서울특별시 송파구 백제고분로27길 15 , 2층 (삼전동, 정진빌딩)",127.0929521,37.5045002
"연세EM보습학원","서울특별시 강동구 천중로15가길 4 ,  2층일부 (천호동)",127.1286805,37.545421
"예인미술피아노학원","서울특별시 강동구 상암로 411 (상일동)",127.1646653,37.5511064
"한수학전문보습학원","서울특별시 강동구 양재대로128길 42 , 2층 (길동)",127.1450831,37.544384
"미래수보습학원","서울특별시 강동구 양재대로 1311 , 6층 (성내동,신화빌딩)",127.1287651,37.5302922
"송파예뜨락미술학원","서울특별시 송파구 양재대로 1160 , 3층 (오금동,용진빌딩)",127.1398168,37.4991571
"명일김덕영음악학원","서울특별시 강동구 동남로65길  , 3층 (명일동)",126.9204192,37.551736
"ESC어학학원","서울특별시 송파구 백제고분로 235 , 4층 (삼전동)",127.0906397,37.5063242
"강남프라이드케이피아이(KPI)어학학원","서울특별시 강동구 강동대로 155 , 1,2,3,4,5층 (성내동)",127.1242882,37.5261025
"이은재3관어학학원","서울특별시 송파구 위례성대로 180 , (2층일부) (오금동)",127.1309588,37.5100914
"글로벌한경공부의신보습학원","서울특별시 강동구 동남로71길 24 , (6층) (명일동)",127.1547638,37.5519297
"이은재보습학원","서울특별시 송파구 양재대로 1164 , 5층 503호 (오금동)",127.1290675,37.5093501
"투엠보습학원","서울특별시 송파구 오금로35길 10 , 2층 (오금동)",127.1270262,37.5040406
"수학애반하다학원","서울특별시 송파구 위례성대로20길 27 , 3층 (오금동)",127.1273619,37.5089241
"제이엠어학학원","서울특별시 송파구 백제고분로36길 28  5번지3층 (석촌동)",127.1007717,37.5032066
"하바어학학원","서울특별시 송파구 양재대로72길 17 , 201호 (오금동, 현대백조아파트 상가1동)",127.1290675,37.5093501
"티움보습학원","서울특별시 송파구 오금로 202 , 2층 (송파동)",127.1099557,37.507002
"엠지엠(MZM)학원","서울특별시 강동구 양재대로 1313 ,  6층일부 (성내동)",127.1287651,37.5302922
"폴심포니음악학원","서울특별시 강동구 구천면로 431-6 , (2,3층) (명일동)",127.1459449,37.5499715
"뉴스터디보습학원","서울특별시 송파구 오금로46길 41 , 4층 (가락동)",127.1334331,37.4940906
"이병태수학보습학원","서울특별시 강동구 동남로75길 27 , (4층) (명일동)",127.154581,37.5538846
"비바체음악학원","서울특별시 송파구 송이로23길 52-42 , 3층 (가락동)",127.1270433,37.498201
"웨일즈어학학원","서울특별시 송파구 거마로 74 , 2층 (마천동)",127.1473835,37.4991623
"예당음악학원","서울특별시 송파구 동남로18길 9 , (2층 202,205호) (가락동)",127.1324576,37.4957107
"김샘보습학원","서울특별시 송파구 강동대로9길 18 , (5층) (풍납동)",127.1167246,37.5277752
"해피한진학보습학원","서울특별시 송파구 중대로 24 ,  올림픽훼밀리타운 아파트상가(1) 3층 302호 (문정동)",127.1187913,37.4896023
"일대일보습학원","서울특별시 송파구 가락로 139-1 , (2층) (송파동)",127.1111505,37.5023841
"와우보습학원","서울특별시 송파구 거마로3길 21 , 2층 (거여동)",127.1424765,37.4947936
"탑엘리트보습학원","서울특별시 강동구 구천면로 508 ,  (2,3층) (명일동)",127.151342,37.546318
"디딤돌넷보습학원","서울특별시 송파구 가락로 244 , (4층) (방이동)",127.1181728,37.5097939
"퍼스트예일보습학원","서울특별시 송파구 오금로25길 24 , (2층) (방이동)",127.1208113,37.5065499
"주영음악학원","서울특별시 송파구 백제고분로48길 30 , 2층 (방이동)",127.1162294,37.5105741
"베스트보습학원","서울특별시 송파구 오금로31길 15-6  2층 (방이동)",127.1216695,37.5075348
"대진지앤비보습학원","서울특별시 송파구 가락로11길 12 , (1층일부,2층) (석촌동)",127.1046459,37.5013691
"깊은셈수학학원","서울특별시 송파구 동남로9길 31-1 , (2층) (가락동)",127.1266822,37.4949302
"한우리보습학원","서울특별시 송파구 동남로18길 44 (가락동)",127.1336195,37.4919492
"LinemusicJazzandPiano음악학원","서울특별시 강동구 양재대로124길 25 , 2층 (길동)",127.1435492,37.5429456
"민하보습학원","서울특별시 강동구 고덕로27길 27 , 2층 (암사동)",127.1377172,37.5559846
"스카이해냄보습학원","서울특별시 강동구 동남로71길 20  4층 (명일동)",127.1550799,37.5519004
"새롬고시학원","서울특별시 강동구 양재대로 1618 , 4층 (명일동)",127.1551475,37.5527344
"하나보습학원","서울특별시 강동구 상암로 11 , 선사현대A상가 2층 214호 (암사동)",127.1256829,37.552482
"맥엘리트보습학원","서울특별시 송파구 백제고분로32길 21 , 3층 (삼전동)",127.0950621,37.5005148
"아람음악학원","서울특별시 강동구 풍성로 161 , 2층 (성내동)",127.1299667,37.5307569
"EM에듀보습학원","서울특별시 강동구 상암로3길 46 , 2층 (암사동)",127.1273924,37.5524289
"선사음악학원","서울특별시 강동구 상암로 11 , 선사현대A상가101동312,313호 (암사동)",127.1280386,37.5520115
"와이비엠시사닷컴강동이씨씨어학학원","서울특별시 강동구 동남로75길 27  5층 (명일동)",127.154581,37.5538846
"윤수정음악학원","서울특별시 강동구 천호옛길 63 , 3층일부 (성내동)",127.1240364,37.5347642
"음악나라음악학원","서울특별시 강동구 양재대로96길 79 , 신동아A상가 2층 (둔촌동)",127.1417805,37.5291205
"명문독서실","서울특별시 강동구 상암로 213 , 2,3층 (명일동)",127.151342,37.546318
"하은음악학원","서울특별시 강동구 성내로6가길 89 , 2층일부 (성내동)",127.1267816,37.5262993
"대정보습학원","서울특별시 강동구 천호대로187길 38 , 2층 (길동)",127.1428515,37.5358799
"신사랑음악학원","서울특별시 송파구 백제고분로42길 26-1 , 2층 (송파동)",127.1109102,37.5043403
"솔바당수학보습학원","서울특별시 송파구 백제고분로 279 , 2층 (석촌동)",127.1067799,37.5020412
"성내솔로몬독서실","서울특별시 강동구 양재대로 1319 , 6층 (성내동)",127.1287651,37.5302922
"대한논리강동보습학원","서울특별시 강동구 구천면로 418 , 3층 (명일동)",127.1552025,37.5541782
"올리음악학원","서울특별시 송파구 동남로 240 , 2층 (가락동)",127.1339228,37.497611
"엘씨음악학원","서울특별시 강동구 상암로3길 82 , 2층 (암사동)",127.1280034,37.5539985
"유니온미술학원","서울특별시 강동구 양재대로 1579 , 4층 (천호동)",127.1428215,37.5465058
"이은재4관어학학원","서울특별시 송파구 양재대로 1164 , 3층 3호 (오금동)",127.1310809,37.510286
"홍익가족미술학원","서울특별시 송파구 삼학사로19길 20 , 1층~3층 (삼전동,신잠실 홍익미술학원)",127.0956634,37.5042984
"신명문보습학원","서울특별시 강동구 천중로16길 17 , 3층 (천호동)",127.1233738,37.5456431
"송파청어람보습학원","서울특별시 송파구 백제고분로28길 16 , 4층 (삼전동)",127.0916509,37.5016492
"F스터디보습학원","서울특별시 강동구 상암로3길 18 , 3층 (암사동)",127.1270055,37.5512565
"라임독서실","서울특별시 강동구 상암로 257 , 4층 (명일동)",127.1551475,37.5527344
"아람미술학원","서울특별시 강동구 풍성로 161 , 4층 (성내동)",127.1299667,37.5307569
"고려미술음악보습학원","서울특별시 강동구 상일로 33 , 3,4층 (상일동)",127.1726958,37.5501411
"애니툰만화학원","서울특별시 송파구 송파대로 379 (석촌동)",127.1035697,37.503517
"봄사진학원","서울특별시 송파구 중대로 60-6 (문정동,공간빌딩)",127.1156527,37.4912131
"이함보습학원","서울특별시 강동구 고덕로 256 , 1101호일부,1302호일부 (명일동, 명성프라자)",127.1500409,37.5502209
"효림음악학원","서울특별시 송파구 성내천로 212 , 5층 (마천동)",127.1481564,37.5018143
"이선생독서실","서울특별시 송파구 가락로16길 4 , 3층 (석촌동)",127.1084345,37.5009057
"이영미수학보습학원","서울특별시 강동구 고덕로 256 ,  명성프라자 403호 (명일동)",127.1540692,37.5546089
"구자임보습학원","서울특별시 송파구 백제고분로40길 37 , 4층 (석촌동, 대천)",127.1082297,37.5016701
"빨간펜수학의달인프린스턴보습학원","서울특별시 강동구 구천면로 370 , 217-132 상가 202호 (천호동)",127.1256452,37.5439937
"페르마보습학원","서울특별시 송파구 마천로 27 , 2층,3층 (방이동, 유장빌딩)",127.1240849,37.5096144
"바다가보이는교실보습학원","서울특별시 강동구 양재대로 1377 ,  209호 (성내동)",127.1300854,37.5339772
"서영보습학원","서울특별시 송파구 마천로15길 9-1 , 2층 (오금동)",127.1348549,37.5055354
"윤선생영어숲문정남부보습학원","서울특별시 송파구 새말로 138-1 , 3층 (문정동)",127.1294046,37.4833032
"제이유에스티원독서실","서울특별시 강동구 성내로 69 , 4층 (성내동)",127.127819,37.5278613
"수재보습학원","서울특별시 송파구 새말로 124  2층 (문정동)",127.1279233,37.4827246
"미세스장어학보습학원","서울특별시 송파구 위례성대로 158 , 대림아파트상가 1공구 201호 (오금동)",127.1291211,37.5103481
"윤선생영어숲삼전보습학원","서울특별시 송파구 백제고분로28길 10 , 2층 (삼전동)",127.0919253,37.502155
"강동드림보습학원","서울특별시 강동구 성안로 199 ,  2층 (천호동)",127.1367316,37.5406559
"해정보습학원","서울특별시 송파구 오금로36길 63 ,  3층 (가락동)",127.1218427,37.49854
"천호하나보습학원","서울특별시 강동구 성안로25길 6 ,  삼성아파트상가 303호 (천호동)",127.134955,37.53793
"올림픽프라임보습학원","서울특별시 송파구 양재대로 1222 , 올림픽상가 3층 36-1호 (방이동)",127.1320277,37.515932
"샤론미술학원","서울특별시 송파구 풍성로23길 41 , 2층 (풍납동)",127.1205583,37.5370685
"한솔플러스수학보습학원","서울특별시 강동구 구천면로13길 26 ,  (3층) (천호동)",127.122914,37.5429716
"에브라임보습학원","서울특별시 강동구 양재대로134길 11 , 1층 (명일동)",127.1443372,37.5477611
"리틀팍스어학학원","서울특별시 강동구 동남로71길 23 , 224호, 225호, 226호 (명일동, 한양아파트)",127.1551501,37.5503962
"지혜의숲사고력보습학원","서울특별시 송파구 마천로 76 , (3층) (오금동)",127.1306806,37.510183
"다른보습학원","서울특별시 강동구 동남로71길 24 , 7층 (명일동, NX2빌딩-신한은행)",127.1547583,37.5519287
"천사간호학원","서울특별시 송파구 올림픽로 116 , 11층 (잠실동)",127.0746455,37.5113612
"두림학원","서울특별시 송파구 백제고분로21길 10 ,  2층 (삼전동)",127.0901559,37.5047139
"정찬영어보습학원","서울특별시 송파구 마천로8길 5 , 5층 (오금동)",127.1276367,37.50727
"올인(ALL IN)영어보습학원","서울특별시 강동구 양재대로 1327 , 4층일부 (성내동,삼정빌딩)",127.1287651,37.5302922
"초이스애견미용학원","서울특별시 송파구 송파대로 385 , 3,4층 (석촌동)",127.0979837,37.5055632
"디딤돌미술학원","서울특별시 송파구 삼전로 96 ,  1~4층 (삼전동)",127.0904816,37.5067663
"오영보습학원","서울특별시 송파구 양재대로 72길 8 5층(오금동)",127.1276745,37.509467
"아르떼음악학원","서울특별시 송파구 오금로 370 , 2층 (가락동)",127.1247076,37.5038495
"원수학보습학원","서울특별시 송파구 위례성대로 114 , 201호 (방이동, 대양코아아타워)",127.1242929,37.512821
"창의로열림보습학원","서울특별시 송파구 양재대로 1222 ,  3층 317호,318호,320호,336-1호 일부 (방이동)",127.1215351,37.5164031
"아이젠왕수학보습학원","서울특별시 송파구 가락로36길 7 , 2층 (방이동)",127.1189097,37.5097462
"더로이보습학원","서울특별시 송파구 풍성로14길 17 ,  2층 (풍납동)",127.1161068,37.5328589
"우리들보습학원","서울특별시 강동구 양재대로 1665 , 3층 (명일동)",127.1552025,37.5541782
"박용대수학보습학원","서울특별시 강동구 구천면로 428 ,  3층 308호 (명일동)",127.1461512,37.550153
"암사한얼보습학원","서울특별시 강동구 올림픽로 820 , 3층 (암사동)",127.1292084,37.5540272
"새예진음악학원","서울특별시 강동구 천중로17길 12 (천호동)",127.1306141,37.5453524
"선사보습학원","서울특별시 강동구 상암로 11 , 311호 (암사동, 선사현대아파트)",127.127573,37.550686
"잭스학원","서울특별시 송파구 새말로12길 7 , 2층 (문정동)",127.1292971,37.482632
"정진수수학보습학원","서울특별시 강동구 동남로71길 14 , 2층일부 (명일동, 한양빌딩)",127.1553401,37.5519077
"비케이21번역학원","서울특별시 강동구 양재대로 1612 , 3층 (명일동)",127.1552025,37.5541782
"생각의탄생보습학원","서울특별시 송파구 오금로 247 , 3층 (방이동)",127.1123174,37.5102474
"대한논리가락보습학원","서울특별시 송파구 동남로 211 , 2층 (가락동)",127.1312282,37.4963108
"수미술학원","서울특별시 강동구 상암로5길 83 , 2층 (암사동)",127.1281759,37.5539592
"장수민수학보습학원","서울특별시 송파구 동남로18길 16 , 3층 (가락동)",127.1321286,37.4945288
"기영인농어학학원","서울특별시 송파구 중대로 269-1 ,  2,3,4층 (오금동)",127.1278734,37.5029895
"에듀패스독서실","서울특별시 송파구 올림픽로51길 40 ,  (3층) (풍납동)",127.1171181,37.5333593
"동서울본간호학원","서울특별시 강동구 천호대로 1027 , 4층 (천호동, 일동통상천호빌딩)",127.1262834,37.5381679
"해냄보습학원","서울특별시 송파구 오금로46길 32 , 2층 (가락동)",127.1340441,37.494942
"오세용어학학원","서울특별시 송파구 동남로 202 (가락동)",127.131064,37.4953563
"봉수학보습학원","서울특별시 송파구 백제고분로 170 , 7층 일부 (잠실동, 고광빌딩)",127.078989,37.5104879
"피아네트음악학원","서울특별시 강동구 양재대로91가길 65 , (1층) (성내동)",127.1332489,37.5252873
"반올림음악학원","서울특별시 송파구 오금로31가길 20 ,  대림가락상가 201호 (방이동)",127.120851,37.49759
"자기주도독서실","서울특별시 송파구 송이로 18 , 4층 (송파동)",127.1083724,37.5066981
"아랑독서실","서울특별시 강동구 구천면로 664 , 4층 (상일동)",127.1822411,37.5520709
"과학수학발전소보습학원","서울특별시 강동구 구천면로 514 , (2층) (명일동)",127.1523953,37.5547123
"잠실한길보습학원","서울특별시 송파구 백제고분로 12길 9 2층(잠실동)",127.081025,37.5052775
"참좋은보습학원","서울특별시 강동구 성안로 24 , (2층) (성내동)",127.1298994,37.5257376
"지키스트보습학원","서울특별시 송파구 마천로 83 ,  3층 일부 (오금동)",127.1278734,37.5029895
"대치개념의힘보습학원","서울특별시 강동구 동남로71길 20 , (5층) (명일동)",127.1550799,37.5519004
"최강국어보습학원","서울특별시 송파구 위례성대로22길 14  4층 (오금동)",127.1307071,37.5090713
"일교시국어논술보습학원","서울특별시 강동구 상암로 209 , (3층) (명일동)",127.1552025,37.5541782
"시온음악학원","서울특별시 강동구 천중로35길 27 (천호동)",127.1375443,37.5424045
"GnB영어선사보습학원","서울특별시 강동구 상암로 11 , (3층309호,310-1호) (암사동)",127.1256829,37.552482
"임윤희수학보습학원","서울특별시 강동구 동남로71길 20-9 , (4층) (명일동)",127.1547888,37.5523209
"시너지학원","서울특별시 강동구 동남로71길 38 , (3층) (명일동)",127.1540691,37.5520193
"디엠존연기학원","서울특별시 송파구 송파대로 392 , 5층 (송파동)",127.1078201,37.5050171
"국가대표수학보습학원","서울특별시 강동구 동남로71길 38 ,  (2층) (명일동)",127.1540691,37.5520193
"플러스영수보습학원","서울특별시 강동구 양재대로 1340 , (2층) (둔촌동)",127.1388295,37.5268861
"문정탑보습학원","서울특별시 송파구 송이로34길 61  3층 (문정동)",127.1269213,37.4843013
"장현수영어보습학원","서울특별시 송파구 오금로32길 30 , (4층) (송파동)",127.1190123,37.5037153
"플랜잇김라미영어2관보습학원","서울특별시 송파구 위례성대로20길 32  2층 (오금동)",127.1269475,37.5087579
"라인보습미술종합학원","서울특별시 강동구 천중로 264 , (2층 5~9호) (길동)",127.1391577,37.5390824
"예연음악학원","서울특별시 강동구 천중로50길 35 , (2층) (길동)",127.1426141,37.5392265
"진성보습학원","서울특별시 송파구 백제고분로48길 42 , (2층) (방이동)",127.1174144,37.510127
"JND보습학원","서울특별시 강동구 상암로 29 , 4층 (암사동)",127.126946,37.5505307
"더클래식스보습학원","서울특별시 송파구 송이로 202 , 4층 (문정동)",127.1281308,37.4897805
"우리말과소리영어보습학원","서울특별시 강동구 명일로 148 , (2층) (둔촌동)",127.1441255,37.5321245
"오금애플독서실","서울특별시 송파구 위례성대로22길 18  4층 (오금동)",127.1303421,37.5086478
"맥(Mac)실용음악학원","서울특별시 송파구 가락로 140 , 3층일부 (송파동,한흥빌딩)",127.1114583,37.5022117
"신골든벨독서실","서울특별시 강동구 동남로71길 38 ,  401~403호 (명일동)",127.1540691,37.5520193
"한우리논술독서교실보습학원","서울특별시 강동구 성내로9길 35 , (2층) (성내동)",127.1250701,37.5304459
"강남성모간호조무사학원","서울특별시 송파구 송파대로 410 , (4층) (송파동)",127.1124898,37.5028483
"글예원보습학원","서울특별시 강동구 올림픽로100길 22 , (2층) (암사동)",127.1295322,37.5520744
"기본과원칙보습학원","서울특별시 송파구 송이로 78 , 3층  (가락동)",127.1196298,37.4988975
"최강산맥보습학원","서울특별시 강동구 상암로3길 77 ,  광나루아파트상가 3층 (암사동)",127.1272053,37.5539835
"김종현수학보습학원","서울특별시 송파구 양재대로71길 28 , 2층 (방이동)",127.1240234,37.5112016
"뿌리깊은보습학원","서울특별시 송파구 백제고분로 162 , 3층 (잠실동)",127.0863634,37.5043539
"엠아이티보습학원","서울특별시 송파구 양산로 42 , 3층 (거여동)",127.1444762,37.4925906
"에이급수학보습학원","서울특별시 강동구 명일로10길 23 , (2층) (둔촌동)",127.1451988,37.5316665
"잉글리쉬스튜디오학원","서울특별시 송파구 위례성대로22길 14 , (3층) (오금동)",127.1307071,37.5090713
"장호준연기학원","서울특별시 강동구 구천면로 442 , A동 2층일부 (명일동)",127.1500409,37.5502209
"권도언수학보습학원","서울특별시 송파구 오금로31길 3 , 3층 (방이동)",127.1211406,37.5064343
"장선생보습학원","서울특별시 강동구 양재대로91길 77 , (2층) (성내동)",127.1318335,37.5287054
"상아음악학원","서울특별시 송파구 오금로 407 , 3층 (오금동)",127.1306806,37.510183
"메타인지창의보습학원","서울특별시 강동구 명일로 214 , 2층 (길동)",127.146214,37.5376965
"열쇠직업공예학원","서울특별시 강동구 상암로11길 8 , 2층 (암사동)",127.128841,37.5500086
"이코플러스보습학원","서울특별시 강동구 올림픽로 821 , (2층) (암사동)",127.1287667,37.5543439
"샛별음악학원","서울특별시 강동구 천중로17길 55 , (2층) (천호동)",127.1311128,37.5472347
"송파프라임보습학원","서울특별시 송파구 동남로8길 30 , 2층 (문정동)",127.1271163,37.4887242
"엠씨에이어학학원","서울특별시 송파구 성내천로 85 ,  3,4,5층 (오금동)",127.1278734,37.5029895
"탑학습능력개발보습학원","서울특별시 송파구 위례성대로20길 32 ,  2층일부 (오금동)",127.1269475,37.5087579
"송파최강수학보습학원","서울특별시 송파구 오금로36길 62 , 5층 (가락동)",127.1219007,37.498899
"잉글리쉬클리닉보습학원","서울특별시 강동구 양재대로95길 4 , (2층) (성내동)",127.1365599,37.5301331
"박현영어보습학원","서울특별시 강동구 상암로61길 32 , (2층) (명일동)",127.1527503,37.5480434
"신화창조성내보습학원","서울특별시 강동구 성안로 61 ,  4,5층 (성내동,토성빌딩)",127.1311036,37.5291146
"에디슨속셈학원","서울특별시 강동구  , 202호 (둔촌동,프라자상가)",127.1362685,37.5234109
"유베스트보습학원","서울특별시 송파구 양산로4길 13  2층202호 (거여동)",127.1447166,37.4899558
"더(THE)좋은보습학원","서울특별시 강동구 동남로65길 15 , (2층) (명일동)",127.1549986,37.5475784
"은나래속셈학원","서울특별시 강동구 동남로81길 16 , 3,4층 (고덕동)",127.1557401,37.5605922
"플러스보습학원","서울특별시 강동구 강동대로53길 44 , (2층) (성내동)",127.1323247,37.5246849
"이인섭보습학원","서울특별시 송파구 동남로 215 , 4층 (가락동)",127.1315385,37.4965618
"점프수학보습학원","서울특별시 송파구 송이로 22-1 , 2층 (송파동)",127.1119305,37.504609
"에듀탑보습학원","서울특별시 강동구 양재대로 1339 , 202호 (성내동)",127.1331218,37.5346042
"ENTOP영어보습학원","서울특별시 강동구 양재대로85길 16 , (3층) (성내동)",127.1337594,37.5245774
"개념원리오금보습학원","서울특별시 송파구 마천로 74  3층 (오금동)",127.1357786,37.504487
"느티나무보습학원","서울특별시 강동구 동남로67길 4 , (1층) (명일동)",127.155712,37.5488369
"에이블학원","서울특별시 강동구 동남로71길 32 , (11층) (명일동)",127.1544861,37.5519709
"성창경영어보습학원","서울특별시 강동구 양재대로 1335 , (4층) (성내동)",127.134277,37.523561
"JBS영어티매쓰수학보습학원","서울특별시 강동구 동남로75길 13-15 , 6층일부 (명일동)",127.1555023,37.5535812
"김문호수학보습학원","서울특별시 송파구 오금로 407 , 상아아파트상가3층305호 (오금동)",127.136456,37.4982404
"이보영토킹호크마보습학원","서울특별시 강동구 상암로 11 , 상가동 209호 및 212호 (암사동, 선사현대아파트)",127.127573,37.550686
"헬로마마통역학원","서울특별시 강동구 천호대로 1073 , (2층 2호,7호) (천호동)",127.1256452,37.5439937
"하이에듀독서실","서울특별시 송파구 오금로31길 16-7 , (3층일부,4층) (방이동)",127.1224611,37.5073533
"강동피케이(PK)독학관리학원","서울특별시 강동구 양재대로 1393 , 4층 (성내동)",127.1287651,37.5302922
"새숙명음악학원","서울특별시 송파구 문정로5길 17-19 , (4층일부) (문정동)",127.1277927,37.4873488
"잠실이러닝독서실","서울특별시 송파구 백제고분로18길 10 , (3층) (잠실동)",127.0844616,37.5042176
"석촌리딩뱅크독서실","서울특별시 송파구 가락로 114 , (4층) (석촌동)",127.0978335,37.5053594
"이슈논술보습학원","서울특별시 송파구 위례성대로20길 29  3층 (오금동)",127.1272615,37.5088008
"방이알프레드음악학원","서울특별시 송파구 가락로 252 , 2층 (방이동)",127.1185655,37.5103572
"SM명문보습학원","서울특별시 강동구 양재대로 1604 ,  2층일부 (명일동)",127.1500409,37.5502209
"그레이스보습학원","서울특별시 송파구 마천로 186 , 2층, 3층 (오금동)",127.1306806,37.510183
"이보영의토킹클럽스카이어학학원","서울특별시 송파구 오금로 516 , (3층,4층일부) (거여동)",127.1462058,37.4900434
"최탑보습학원","서울특별시 강동구 고덕로38길 54 , 3층 (명일동)",127.142455,37.5522203
"신대진보습학원","서울특별시 강동구 동남로49길 63 , 현대아파트상가동 201,207호 (둔촌동)",127.1467041,37.531931
"가우스수학보습학원","서울특별시 강동구 상암로3길 68 , 2층 (암사동)",127.127771,37.5533499
"이상현학습전략보습학원","서울특별시 송파구 동남로8길 11 , 3층 (문정동)",127.1258877,37.489937
"제디보습학원","서울특별시 송파구 송이로 29-1 , (2층) (송파동)",127.1134346,37.5031933
"이보영의토킹클럽송파보습학원","서울특별시 송파구 송이로 27 , (2층) (송파동)",127.1113643,37.5005683
"브레인영수논술학원","서울특별시 송파구 마천로 250 , (3층) (거여동)",127.1436598,37.4984271
"일공일수학보습학원","서울특별시 강동구 구천면로 660 , 3층 (상일동)",127.1821451,37.5468739
"케이투수학전문보습학원","서울특별시 송파구 오금로 36길 4-11 2층(가락동)",127.1251764,37.5032169
"강동청담어학학원","서울특별시 강동구 양재대로 1588 , 2,3층 (명일동)",127.1436574,37.547239
"청담어학학원","서울특별시 송파구 위례성대로 122 , 2~4층 (방이동, 카후나빌)",127.1249864,37.5125189
"꿈이자라는음악학원","서울특별시 송파구 강동대로9길 18 , (2층) (풍납동)",127.1167246,37.5277752
"에듀토피아보습학원","서울특별시 송파구 오금로 36길 4-11 3층(가락동)",127.1251764,37.5032169
"고등서강보습학원","서울특별시 송파구 오금로 505 , (6층602호) (거여동)",127.1432332,37.4969629
"시매쓰잠실직영보습학원","서울특별시 송파구 삼전로 85  3층 (잠실동)",127.0892483,37.5061567
"글샘보습학원","서울특별시 강동구 상암로 196 , 3층(1/2) (명일동)",127.149034,37.554598
"강남엘리트보습학원","서울특별시 강동구 천중로43길 34 , 2층 (천호동)",127.1268391,37.5454327
"오투독서실","서울특별시 강동구 성안로 180 , (6층) (길동)",127.1362922,37.5389254
"고등서강2보습학원","서울특별시 송파구 오금로 505 , (5층501호) (거여동)",127.1462058,37.4900434
"명일이헌수학보습학원","서울특별시 강동구 상암로 210 , 명일현대종합상가 3층(1호) (명일동)",127.1545738,37.5472149
"으뜸보습학원","서울특별시 강동구 동남로82길 91 ,  3층 (고덕동)",127.1621071,37.5605744
"애플잉글리쉬보습학원","서울특별시 강동구 올림픽로 793 (암사동,내호빌딩) 2층",127.1279275,37.5519837
"정웅독서실","서울특별시 강동구 상암로3길 8 , (5층) (암사동)",127.1325012,37.5482244
"늘예솔독서실","서울특별시 송파구 송이로 19 , (2층) (송파동)",127.1113643,37.5005683
"인트로만화학원","서울특별시 송파구 송파대로 389 ,  3층 (석촌동 295-5)",127.1095121,37.5020627
"토스영어보습학원","서울특별시 강동구 동남로65길 26-17 , 334-18외 2필지 성준빌딩 2층일부 201호",127.1543825,37.5485201
"어린음악대암사빈음악학원","서울특별시 강동구 상암로 11 , 101동202호 (암사동)",127.1256829,37.552482
"씨앤씨(CNC)보습학원","서울특별시 강동구 구천면로 492 , 2층 (명일동)",127.1523953,37.5547123
"조이플뮤직아카데미음악학원","서울특별시 강동구 구천면로13길 26 , 2층 (천호동)",127.122914,37.5429716
"케이제이수학보습학원","서울특별시 송파구 동남로 217 ,  3층일부 (가락동)",127.1317199,37.4967226
"대한논리잠실보습학원","서울특별시 송파구 올림픽로35길 104 ,  장미비상가1동(3층301호) (신천동)",127.1119989,37.5096323
"글사랑논술독서보습학원","서울특별시 강동구 천중로16길 34 , 2층 (천호동)",127.1287484,37.5434708
"그린독서실","서울특별시 강동구 풍성로 237 , 3층 (둔촌동)",127.1380499,37.5285636
"박준영논리속독학원","서울특별시 강동구 양재대로 1588 , 7층 (명일동)",127.143454,37.5458736
"줄리아드음악학원","서울특별시 강동구 천호옛12길 48 , (2층) (성내동)",127.1272173,37.5345418
"둔촌현대속셈학원","서울특별시 강동구 진황도로 209-11 (둔촌동)",127.1448567,37.5277435
"혜림실용음악학원","서울특별시 강동구 구천면로13길 6  2층 (천호동)",127.122331,37.5422212
"강동청맥보습학원","서울특별시 강동구 동남로71길 38 , 201,202호 (명일동)",127.1551472,37.5503733
"유피보습학원","서울특별시 강동구 양재대로83길 18 ,  3층전부 (성내동)",127.1332996,37.5235379
"피그말리온어학학원","서울특별시 송파구 양재대로71길 1-18 , (2층,3층) (방이동)",127.1258596,37.5094266
"한수독서실","서울특별시 송파구 백제고분로46길 18 , (3,4층) (송파동)",127.1130182,37.5078018
"강동필탑보습학원","서울특별시 강동구 풍성로 160  2층 (성내동)",127.1296027,37.5305317
"에이블큐브독서실","서울특별시 강동구 구천면로 424 , 402호, 403호 (명일동, 명일 메가타운)",127.145546,37.5503207
"강동씨앤에이보습학원","서울특별시 강동구 동남로71길 32  204호 (명일동)",127.1544861,37.5519709
"풀잎음악학원","서울특별시 강동구 천중로17길 52  101호 (천호동)",127.1312807,37.5470044
"안샘(AnSaem)학원","서울특별시 송파구 가락로 156 , (3층일부) (송파동)",127.1119305,37.504609
"엘리트GGE수학보습학원","서울특별시 강동구 성안로 183 ,  2층일부 (천호동)",127.1361681,37.5394796
"푸르넷빛보습학원","서울특별시 강동구 양재대로116길 37  2층 (길동)",127.1425014,37.5382904
"카이수학보습학원","서울특별시 송파구 오금로35길 18 , (3층일부) (오금동)",127.1273614,37.5044909
"고려e스쿨방이보습학원","서울특별시 송파구 백제고분로48길 27 , (3층일부) (방이동)",127.1160739,37.5109063
"북대어학학원","서울특별시 강동구 양재대로 1576 , 4층 (명일동)",127.1551475,37.5527344
"닥터정이클래스보습학원","서울특별시 송파구 올림픽로4길 42 , (3층일부) (잠실동)",127.0729819,37.5068555
"수와식보습학원","서울특별시 송파구 올림픽로4길 48 ,  3층 일부 306호, 312호 (잠실동)",127.0729819,37.5068555
"UP보습학원","서울특별시 강동구 명일로 375 , 408-1호,409~410호,415호(각호전체) (명일동, 삼익그린맨션)",127.1484933,37.5521991
"이보영의토킹클럽둔촌보습학원","서울특별시 강동구 양재대로 1330 , 306호 (둔촌동,주공아파트)",127.142042,37.523972
"정일보습학원","서울특별시 송파구 거마로8길 25 , (3층) (거여동)",127.1450013,37.4936486
"유스타보습학원","서울특별시 강동구 올림픽로 818 , 3층 (암사동)",127.1291434,37.5538718
"TQ수학학원","서울특별시 송파구 백제고분로42길 18 , 3층 (송파동, 선경빌딩)",127.1102173,37.5049694
"이보영의토킹클럽길동보습학원","서울특별시 강동구 명일로 212 , 4층 (길동,앙페르빌딩)",127.1461621,37.5374834
"수독서실","서울특별시 강동구 고덕로 256 , 10층1002호 (명일동)",127.1484933,37.5521991
"예인미술학원","서울특별시 송파구 백제고분로18길 18 , (2층일부) (잠실동)",127.084133,37.5036221
"가드너물음가득아이미술학원","서울특별시 송파구 중대로 275-1 , 3층 (오금동)",127.1280123,37.5024898
"디딤돌보습학원","서울특별시 송파구 삼전로 96 , (1층일부) (삼전동)",127.0904816,37.5067663
"디딤돌음악학원","서울특별시 송파구 삼전로 96 , 3층 (삼전동)",127.0904816,37.5067663
"아트501미술학원","서울특별시 강동구 올림픽로 626 , 6층일부 (성내동)",127.1287651,37.5302922
"풍납뮤직아트슐레음악학원","서울특별시 송파구 올림픽로47길 13 , 2층 (풍납동)",127.1172968,37.5280841
"천동보습학원","서울특별시 강동구 성안로 158-1 , 2층 (길동)",127.1355084,37.5370284
"포인트정석속독학원","서울특별시 송파구 동남로 240 , 6층일부 (가락동)",127.1339228,37.497611
"탑플러스보습학원","서울특별시 강동구 동남로81길 64 , 2.3층 (고덕동)",127.1534169,37.559451
"강동연세음악학원","서울특별시 강동구 성안로3길 19 , 2층 (성내동)",127.1285219,37.5257887
"예음필음악학원","서울특별시 강동구 명일로 375 , 4층 405.406호 (명일동,삼익그린맨션상가동)",127.1484933,37.5521991
"레스마보습학원","서울특별시 송파구 올림픽로 342 , 9층일부 (방이동)",127.1215351,37.5164031
"관통수학보습학원","서울특별시 강동구 고덕로 256  명성프라자605호 (명일동)",127.1540692,37.5546089
"강동청어람수학보습학원","서울특별시 강동구 고덕로 256 , 601.602호 (명일동,명성프라자)",127.1474254,37.5484241
"MTOP박성일수학보습학원","서울특별시 강동구 고덕로 256 , 501호.502호 (명일동,명성프라자)",127.1525636,37.547843
"IL영어n수학보습학원","서울특별시 강동구 천호대로193길 36 , 2층일부 (길동)",127.1451611,37.5366571
"가나안어학학원","서울특별시 강동구 천중로 184 , 2층 (길동)",127.1405139,37.5408052
"스프링아이보습학원","서울특별시 강동구 구천면로 428 , 3층일부 301호일부 (명일동,센트로빌)",127.1500409,37.5502209
"AI미술학원","서울특별시 송파구 석촌호수로12길 28 , 2층일부 (잠실동)",127.083267,37.5087658
"송파모범독서실","서울특별시 송파구 올림픽로33길 16 , 2층(201호) (신천동,진주교육관)",127.0995,37.5200705
"늘푸른수보습학원","서울특별시 송파구 위례성대로 126 , 2.3.4층 (방이동)",127.1255935,37.5122629
"새예원음악학원","서울특별시 송파구 양산로4길 13 , 201호 (거여동)",127.1447166,37.4899558
"고창덕수학보습학원","서울특별시 강동구 양재대로 1339 , 2층 4호 (성내동)",127.1349952,37.5259147
"카이스트보습학원","서울특별시 송파구 마천로 20 , 4층일부 (방이동)",127.1230725,37.5096195
"홀리스틱영어보습학원","서울특별시 송파구 삼전로12길 9 , 4층 (삼전동)",127.0913125,37.5063348
"삼성영어삼전학원","서울특별시 송파구 백제고분로28길 20 , 3층 (삼전동)",127.0915104,37.5012985
"조은보습학원","서울특별시 강동구 동남로67길 38 , 2층 (명일동)",127.1536548,37.5488248
"메이플베어어학학원","서울특별시 송파구 오금로 189 , 1.2층 (방이동)",127.1215351,37.5164031
"O2오투보습학원","서울특별시 강동구 양재대로89길 17 , 2층 (성내동)",127.1343794,37.526531
"맞춤에듀보습학원","서울특별시 강동구 양재대로 1367  3층6호 (성내동)",127.1287651,37.5302922
"동양회계학원","서울특별시 송파구 송파대로38길 9 , 3층 (송파동)",127.1122376,37.501129
"동양컴퓨터학원","서울특별시 송파구 송파대로38길 9 , 2층 (송파동)",127.1122376,37.501129
"에듀빌독서실","서울특별시 송파구 백제고분로19길 27 , (2.3층) (잠실동)",127.0873887,37.5072858
"정주보습학원","서울특별시 강동구 동남로71길 38 , 3층303호 (명일동)",127.1540691,37.5520193
"송파에이스영어보습학원","서울특별시 송파구 위례성대로20길 8 ,  3층 301호,302호 (오금동)",127.1282023,37.510672
"최상위수학보습학원","서울특별시 송파구 오금로32길 30 , 3층일부 (송파동)",127.1190123,37.5037153
"케이스보습학원","서울특별시 강동구 양재대로85길 14 , 5층501호 (성내동)",127.1340053,37.5245441
"퍼스트클래스보습학원","서울특별시 강동구 동남로71길 38 , 3층304호 (명일동)",127.1540691,37.5520193
"잉그래머학원","서울특별시 송파구 마천로 94 , 2층 (오금동, 명성빌딩)",127.135678,37.504156
"구상수학보습학원","서울특별시 송파구 마천로8길 5 , 4층 (오금동)",127.1276367,37.50727
"동서울청솔보습학원","서울특별시 강동구 천호대로 997 , 4층 1호 일부 (천호동)",127.1256452,37.5439937
"제스트보습학원","서울특별시 강동구 성내로9길 35 , 3층 (성내동)",127.1250701,37.5304459
"시그마보습학원","서울특별시 송파구 오금로 46길 41 2층(가락동)",127.1334331,37.4940906
"강동잉큐영어보습학원","서울특별시 강동구 양재대로116길 46 , 2층 일부 (길동)",127.1428258,37.5380323
"제이엠케이(JMK)어학학원","서울특별시 강동구 동남로75길 13 , 3층 (명일동)",127.1555377,37.5541563
"뮤엠영어길동보습학원","서울특별시 강동구 명일로 219 , 2층 (길동)",127.1461058,37.5382543
"가온보습학원","서울특별시 강동구 동남로49길 63 , 204.205호 (둔촌동,현대아파트 상가)",127.1467041,37.531931
"엠(M)마스터영어보습학원","서울특별시 송파구 석촌호수로 112  3층 (잠실동)",127.0893142,37.5075277
"소리샘음악학원","서울특별시 강동구 구천면로 258  2층 (천호동)",127.1273121,37.5464093
"아트팰리움미술학원","서울특별시 송파구 중대로 24 , 3층 306,310호 (문정동,올림픽훼밀리타운(아파트) 302동)",127.1367055,37.5166826
"잉글리쉬무무천호제2학습관보습학원","서울특별시 강동구 천중로15길 20 , 3층 (천호동)",127.1236423,37.5459136
"네오영어보습학원","서울특별시 강동구 양재대로 1603 , 3층일부 (천호동)",127.1433344,37.5487585
"뮤엠영어가락2관보습학원","서울특별시 송파구 중대로20길 51 , 3층 (가락동)",127.1114077,37.4900317
"송파이룸보습학원","서울특별시 송파구 송파대로43길 17  2층 (석촌동)",127.1060087,37.5034563
"송파대성엔보습학원","서울특별시 송파구 백제고분로21길 35 , 3층전체, 4층일부 (삼전동, 창원빌딩)",127.0911546,37.506683
"비전수학과학학원","서울특별시 송파구 동남로9길 27  2층 (가락동)",127.1266987,37.4945852
"장샘수학보습학원","서울특별시 강동구 구천면로 424 , 504.505호일부 (명일동)",127.1500409,37.5502209
"최강아이비보습학원","서울특별시 강동구 구천면로 254 , 2층 (천호동)",127.1398707,37.5504012
"김연준영어보습학원","서울특별시 송파구 석촌호수로 106 , 2층 (잠실동,한경빌딩)",127.088642,37.5076442
"강수보습학원","서울특별시 송파구 위례성대로12길 19 , 3층 (방이동)",127.1221894,37.5119187
"용수학보습학원","서울특별시 강동구 동남로 877 , 205호 (명일동)",127.1547305,37.5468619
"일등공신수학학원","서울특별시 강동구 양재대로89가길 69 , 3층일부 (성내동)",127.1339246,37.5233965
"제일연세음악학원","서울특별시 송파구 송파대로37길 50 , 2층 (석촌동)",127.1066607,37.5001805
"신하버드독서실","서울특별시 송파구 위례성대로 192 , 3층 (오금동)",127.1322477,37.509553
"엠투엠보습학원","서울특별시 강동구 양재대로89가길 56 , 2층 (성내동)",127.1338947,37.5241261
"스크랜튼헤럴드영어학원","서울특별시 송파구 송파대로 36가길 15-22 2층(송파동)",127.1164979,37.5004635
"더원독서실","서울특별시 강동구 고덕로 104 , 3층 (암사동)",127.1367944,37.5544497
"뮤직팰리스음악학원","서울특별시 송파구 중대로 24 , 3층 훼미리상가 304호 (문정동)",127.1187913,37.4896023
"이앤엠보습학원","서울특별시 송파구 올림픽로 203 , 316호 (잠실동)",127.0830443,37.5046886
"리더스간호학원","서울특별시 강동구 천호대로 995 , 5층2호. 6층일부.3층일부 (천호동)",127.1256452,37.5439937
"이화간호조무사학원","서울특별시 송파구 송파대로 459  4층 (석촌동)",127.0978335,37.5053594
"알과영보습학원","서울특별시 송파구 마천로 26 , 2층.3층 (방이동)",127.1237267,37.5093955
"장원보습학원","서울특별시 송파구 백제고분로 385 , 4층일부 (송파동)",127.1119305,37.504609
"데카수학보습학원","서울특별시 송파구 송이로32길 26 , 3층 (문정동)",127.1271352,37.4877773
"뉴뱅크독서실","서울특별시 강동구 풍성로 138 , (2.3층일부) (성내동)",127.1273367,37.5311943
"오름수학보습학원","서울특별시 송파구 가락로 171 ,  3층 301호, 302호 (송파동)",127.1139803,37.504203
"지샘보습학원","서울특별시 송파구 오금로 212 , 3층 (송파동)",127.1119989,37.5096323
"와이씨엘(YCL)보습학원","서울특별시 송파구 백제고분로28길 18  2층 (삼전동)",127.0915774,37.5014684
"스카이클래스마천학원","서울특별시 송파구 마천로57길 4 , 4.5층 (마천동)",127.152056,37.4943185
"지능과학보습학원","서울특별시 송파구 위례성대로22길 14  5층 (오금동)",127.1307071,37.5090713
"뮤엠영어그레이스보습학원","서울특별시 송파구 토성로 26 , 602호 (풍납동)",127.1131626,37.5303868
"아이잼송파어학학원","서울특별시 송파구 마천로 83  6층 (오금동)",127.1331167,37.5060056
"열강보습학원","서울특별시 송파구 백제고분로 399 , 3층 (송파동)",127.1119989,37.5096323
"잉글리쉬무무거여보습학원","서울특별시 송파구 거마로 11 , 3층 (거여동, 창원빌딩)",127.1445947,37.4942935
"웅진씽크빅학습센터천호보습학원","서울특별시 강동구 구천면로 267 , 3층일부 (천호동)",127.1256452,37.5439937
"송파아너스보습학원","서울특별시 송파구 가락로 152 , 3층 (송파동)",127.1119989,37.5096323
"최정보습학원","서울특별시 강동구 고덕로 97 , 2.3층 (암사동)",127.135979,37.5548834
"잉글리쉬무무잠실제1학습관보습학원","서울특별시 송파구 신천로 45  장미비상가301호 (신천동)",127.102752,37.5198479
"CMS생각하는수학보습학원","서울특별시 송파구 중대로 170 , 1,2,3,4,5,6,7층 (가락동,국제빌딩)",127.1254253,37.4971032
"잠실브레인독서실","서울특별시 송파구 백제고분로19길 25 , (2.3층) (잠실동)",127.0873094,37.5071085
"오에스에스(OSS)영어수학보습학원","서울특별시 강동구 풍성로42길 13 , (1.2.3.4층) (성내동)",127.1272244,37.5307286
"박준영독서논술송파보습학원","서울특별시 송파구 오금로31길 20 , 3층일부 (방이동)",127.1221883,37.507472
"대입정보보습학원","서울특별시 강동구 양재대로89길 17 , 3층일부 (성내동)",127.1343794,37.526531
"올림픽위버지니어스종합(어학기타)학원","서울특별시 강동구 올림픽로 572 , 2층 (성내동)",127.1295886,37.5322309
"엘림음악학원","서울특별시 송파구 토성로 37 , 2층 (풍납동)",127.1154128,37.530784
"프라이드보습학원","서울특별시 송파구 위례성대로12길 9 , 2층 (방이동)",127.1227265,37.5128039
"시냅스어학학원","서울특별시 송파구 가락로 169 , 3.4층 (송파동)",127.1119305,37.504609
"엘에스케이어학학원","서울특별시 송파구 석촌호수로 135 , 3층 303호 (잠실동, 레이크팰리스)",127.0945775,37.5097575
"영렘브란트송파미술학원","서울특별시 송파구 석촌호수로 135 , 상가A동 401호 (잠실동,레이크팰리스)",127.0945775,37.5097575
"활미술학원","서울특별시 송파구 위례성대로 180 , 3-1외2필지3층 (오금동)",127.1309588,37.5100914
"베베궁미술학원","서울특별시 송파구 삼학사로 81 , 2.3층 (삼전동)",127.0968723,37.5044032
"풍납지엔비어학학원","서울특별시 송파구 한가람로16길 7 , 3층 (풍납동)",127.115612,37.5371027
"눈높이러닝센터성내풍납보습학원","서울특별시 송파구 풍성로20길 50 , 2층 (풍납동)",127.1144092,37.5310783
"잉글리쉬무무오금중앙학습관보습학원","서울특별시 송파구 동남로 282-1 , 2층 (오금동)",127.1278734,37.5029895
"대학당독서실","서울특별시 송파구 백제고분로31길 18 , (2.3층) (삼전동)",127.0956442,37.5041064
"올림픽독서실","서울특별시 송파구 양재대로 1178 , 2층(2층일부) (방이동,올림픽선수.기자촌아파트A씨상가)",127.1351556,37.5150053
"잉글리쉬무무마천제1학습관보습학원","서울특별시 송파구 거마로 73 , 3층 (마천동)",127.1469612,37.4995035
"팁탑(TipTop)보습학원","서울특별시 강동구 천호대로219길 104 , 2층 (상일동)",127.1707988,37.5503656
"늘한빛보습학원","서울특별시 송파구 백제고분로44길 60 , 2층 (송파동)",127.1130373,37.5041815
"킹스키즈어학학원","서울특별시 송파구 중대로 180 , 1.2.3.층 (가락동)",127.1257848,37.4978898
"씨알오픈독서실","서울특별시 송파구 중대로 202 , 1층 (가락동,씨알빌딩)",127.1267138,37.4997934
"BMH보습학원","서울특별시 강동구 올림픽로 820 , 4층일부 (암사동)",127.1292084,37.5540272
"스마트보습학원","서울특별시 송파구 마천로25길 6  2층 (오금동)",127.1400118,37.5033258
"클라투전원미술학원","서울특별시 송파구 송파대로 365 , 3층 (석촌동)",127.0979671,37.5057235
"태양독서실","서울특별시 송파구 마천로 33 , 5층 (방이동)",127.1245823,37.5093478
"상록음악학원","서울특별시 강동구 고덕로61길 34 , 상가(2층일부) (고덕동,고덕공무원아파트)",127.1546192,37.5569003
"솔로몬보습학원","서울특별시 송파구 백제고분로44길 5 , 1층 (송파동)",127.111321,37.5075602
"강동1관정상어학학원","서울특별시 강동구 동남로75길 13-7 , 7층 (명일동)",127.1555377,37.5541563
"박철영어어학학원","서울특별시 송파구 송이로32길 28 , 3층.4층 (문정동)",127.1270701,37.487548
"김인희무용학원","서울특별시 송파구 마천로 79  4층 (오금동)",127.134478,37.5050641
"지니어스보습학원","서울특별시 강동구 명일로 275 , 2층일부 (길동)",127.147576,37.543291
"유레카보습학원","서울특별시 강동구 양재대로 1339 , 305호 및 303호 전체 (성내동)",127.1287651,37.5302922
"루트연기학원","서울특별시 송파구 석촌호수로 12길 43 2층(잠실동)",127.0817812,37.5083668
"베이스캠프보습학원","서울특별시 송파구 백제고분로19길 28 , 3층 (잠실동)",127.0875863,37.5070305
"크리스챤쇼보미용학원","서울특별시 강동구 천호대로 1027 , 5층 (천호동)",127.137426,37.5441292
"고덕천년의미소미술학원","서울특별시 강동구 고덕로 256 , 503호 (명일동)",127.1525636,37.547843
"일등급보습학원","서울특별시 송파구 석촌호수로 106 , 4층 (잠실동)",127.088642,37.5076442
"어필보습학원","서울특별시 송파구 마천로8길 5  3층 (오금동)",127.1276367,37.50727
"예흠음악학원","서울특별시 송파구 석촌호수로 135 , 4층 415~421호 (잠실동, 레이크팰리스)",127.0945775,37.5097575
"E4U보습학원","서울특별시 강동구 상암로61길 46 , 2층 (명일동)",127.1527491,37.548648
"아이콘어학학원","서울특별시 송파구 올림픽로35길 112 , (408.409.410-1.410-2.411.412.413) (신천동,장미아파트 비상가 2동)",127.1015754,37.5190781
"매쓰업(MATH UP)보습학원","서울특별시 강동구 양재대로83길 18 , 3층 일부 (성내동)",127.1332996,37.5235379
"신수이수학클리닉보습학원","서울특별시 송파구 마천로 76  성암빌딩5층 (오금동)",127.1286692,37.5072839
"사랑보습학원","서울특별시 송파구 백제고분로42길 26-1 , 3층 (송파동)",127.1109102,37.5043403
"로고스보습학원","서울특별시 송파구 백제고분로27길 40 , 3층.4층일부 (삼전동)",127.0941064,37.5064175
"피플미술학원","서울특별시 송파구 삼전로 92 , 3.4층 (삼전동)",127.0902051,37.5064371
"티이에스(TES)영어보습학원","서울특별시 송파구 양재대로 1148 , 3층일부 (오금동)",127.1278734,37.5029895
"인재독서실","서울특별시 강동구 올림픽로 703 , (4.5층) (천호동)",127.1251818,37.5442229
"한양보습학원","서울특별시 강동구 올림픽로 703 , 2.3층 (천호동)",127.1251818,37.5442229
"비투비수학학원","서울특별시 송파구 석촌호수로 110 , 4층 (잠실동)",127.0890526,37.5075554
"Hart미술학원","서울특별시 송파구 오금로31길 17  3층 (방이동)",127.1218469,37.5074569
"명성수학보습학원","서울특별시 송파구 마천로 106  2층 (오금동)",127.1408828,37.5054803
"잉글리쉬무무암사제1학습관보습학원","서울특별시 강동구 상암로 20  2층201호 (암사동)",127.125792,37.5506014
"솔로몬전산회계학원","서울특별시 송파구 송파대로 468 , 3층 (송파동)",127.1119989,37.5096323
"튼튼영어마스터클럽잠실동보습학원","서울특별시 송파구 올림픽로12길 48 , 2층일부 (잠실동)",127.0834567,37.5074085
"유스실용음악학원","서울특별시 송파구 올림픽로12길 25 , 3층 (잠실동)",127.083401,37.5092832
"로얄로드보습학원","서울특별시 송파구 백제고분로18길 4 , 3층일부 (잠실동)",127.0847102,37.5047926
"뉴경진보습학원","서울특별시 송파구 가락로 176 , 4층일부 (송파동)",127.1119305,37.504609
"비알씨엠(BRCM)실용음악학원","서울특별시 송파구 가락로 270 , 2층일부 (방이동)",127.1194916,37.5119158
"하이매스보습학원","서울특별시 송파구 위례성대로16길 10 , 2층.3층 (방이동)",127.1246677,37.5119182
"명일이포유(E4You)보습학원","서울특별시 강동구 동남로71길 20-9 , 6층일부 (명일동)",127.1547888,37.5523209
"현암보습학원","서울특별시 강동구 천호대로219길 68 3층 (상일동)",127.1711249,37.54871
"에듀프로어학학원","서울특별시 송파구 마천로 35 , 5.6층 (방이동)",127.1248569,37.5092777
"제이와이석촌보습학원","서울특별시 송파구 가락로11길 13 , 2층.3층 (석촌동)",127.1043061,37.5015007
"이은재5관어학학원","서울특별시 송파구 양재대로 1160  4층 (오금동)",127.1318961,37.5096342
"문정베리타스보습학원","서울특별시 송파구 문정로 83 , 상가동 302호 (문정동,문정래미안아파트)",127.1303693,37.4905107
"잠실서울과학최강수학보습학원","서울특별시 송파구 삼전로 99 , 3층 (잠실동)",127.090121,37.5072158
"비상영수학원","서울특별시 송파구 송이로15길 10 , 2층 (가락동)",127.1208219,37.4994731
"비상구보습학원","서울특별시 송파구 위례성대로22길 18 , 3층일부 (오금동)",127.1303421,37.5086478
"M스칼라영어보습학원","서울특별시 송파구 토성로 36 , 3층 (풍납동)",127.1142035,37.5299126
"하늘나무보습학원","서울특별시 강동구 동남로71길 14 , 7층일부,8층전체 (명일동, 한양빌딩)",127.1553401,37.5519077
"해오름산소독서실","서울특별시 강동구 구천면로 376 , 4.5층 (천호동)",127.1256452,37.5439937
"캠브리지보습학원","서울특별시 송파구 송이로34길 59 , 2층 (문정동)",127.1168294,37.5021753
"강남처럼지도최강스카이보습학원","서울특별시 송파구 오금로 204 , 2층 (송파동)",127.1099557,37.507002
"노암보습학원","서울특별시 송파구 동남로26길 12-1 , 2층 (오금동)",127.1379626,37.5000581
"아트지온미술학원","서울특별시 송파구 마천로 76 , 2층일부 (오금동)",127.1278734,37.5029895
"큐맥스보습학원","서울특별시 강동구 올림픽로91길 36  2층 (암사동)",127.1247561,37.5484078
"이디어보습학원","서울특별시 강동구 양재대로116길 9  3층 (길동)",127.141008,37.5386697
"대성제넥스보습학원","서울특별시 송파구 새말로 138-1 , 2층 (문정동)",127.1292523,37.4831804
"메디아이잠실보험학원","서울특별시 송파구 올림픽로30길 6 , 3층 (방이동)",127.1077673,37.5151554
"에스디에이(SDA)킨더레스트어학보습학원","서울특별시 강동구 올림픽로 626 , 2.3층 (성내동)",127.1287651,37.5302922
"아이울타리보습학원","서울특별시 강동구 고덕로14길 67  2층 (암사동)",127.1312584,37.5517591
"우창음악학원","서울특별시 송파구 동남로24길 6 , 2층 (오금동)",127.1369367,37.4992856
"이엠씨(EMC)영어보습학원","서울특별시 송파구 마천로 20 , 4층 (방이동)",127.1230725,37.5096195
"올수보습학원","서울특별시 송파구 위례성대로22길 6  2층 (오금동)",127.1311074,37.5096653
"대치명강보습학원","서울특별시 강동구 동남로73길 31 , 3층일부 (명일동)",127.1544873,37.5525675
"대한논리속독잠실보습학원","서울특별시 송파구 삼전로 82  2층 (삼전동)",127.0895147,37.505637
"현대줄리어드음악학원","서울특별시 강동구 고덕로 140 , 401호일부 (암사동,현대 대림아파트)",127.127573,37.550686
"EMS보습학원","서울특별시 강동구 고덕로 256 , 8층일부 (명일동)",127.1500409,37.5502209
"앱스잉글리쉬영어학원","서울특별시 강동구 고덕로 140 , 4층일부 (암사동)",127.1407186,37.5544215
"박정은영어보습학원","서울특별시 강동구 양재대로89길 27 , 3층일부 (성내동)",127.1339748,37.5265929
"하늘소리음악학원","서울특별시 송파구 가락로 273 , 2층 (방이동)",127.1193179,37.5123533
"차일드유영어보습학원","서울특별시 강동구 동남로81길 78  2층 (고덕동)",127.1526379,37.5590688
"도쿠애견미용학원","서울특별시 송파구 가락로 141 , 2층 (송파동)",127.1144659,37.5086659
"에듀나인부동산학원","서울특별시 강동구 천호대로 1034 ,  3층 일부 (성내동)",127.1287651,37.5302922
"21세기명문보습학원","서울특별시 송파구 송파대로18길 20 , 4층일부 (문정동)",127.1257421,37.4849674
"늘푸른수2관보습학원","서울특별시 송파구 양재대로71길 20-29 (방이동,태산빌딩)",127.1253595,37.5120522
"오각뽕보습학원","서울특별시 강동구 올림픽로 727 , 2층일부 (천호동)",127.1258428,37.5462507
"상일좋은보습학원","서울특별시 강동구 구천면로 664 , 3층일부 (상일동)",127.1646653,37.5511064
"위드(with)잉글리쉬영어보습학원","서울특별시 송파구 가락로28길 15 , 3층일부 (송파동)",127.1176191,37.5058044
"아이블영어보습학원","서울특별시 송파구 마천로 74  2층201호 (오금동)",127.1359136,37.5044474
"윤선생영어숲가락보습학원","서울특별시 송파구 오금로 400 , 4층일부(402호.403호) (가락동)",127.1157128,37.4952783
"로티스장학어학보습학원","서울특별시 송파구 삼전로 81 , 2~7층 (잠실동)",127.0889553,37.5059715
"생각의지표보습학원","서울특별시 강동구 양재대로141길 14 , 2층 (명일동)",127.1431306,37.551243
"잉글리쉬무무방이제1학습관보습학원","서울특별시 송파구 백제고분로50길 35  4층 (방이동)",127.1186593,37.5131467
"한일외국어학원","서울특별시 강동구 천호대로 1006 , 5층일부 (성내동)",127.1287651,37.5302922
"잠실뮤엠영어보습학원","서울특별시 송파구 올림픽로12길 45 , 202호 (잠실동)",127.0838754,37.5074856
"일대일맞춤수학보습학원","서울특별시 송파구 석촌호수로 112  2층 (잠실동)",127.0893142,37.5075277
"포스트모던실용음악학원","서울특별시 강동구 구천면로 156  7층 (천호동)",127.1366603,37.5445813
"베베궁음악학원","서울특별시 송파구 양재대로66길 43  103호 (가락동)",127.1256152,37.4999241
"일대일코칭수학방이점보습학원","서울특별시 송파구 마천로 31 , 4층일부 (방이동)",127.1244049,37.5094302
"청명학전보습학원","서울특별시 송파구 마천로 14 , 4층 (방이동, 문성빌딩)",127.1258738,37.4958239
"경희언어논술보습학원","서울특별시 강동구 상암로51길 54 , 2층 (명일동)",127.1467895,37.5488601
"반짝반짝빛나는미술학원","서울특별시 송파구 석촌호수로 61 , 219,220,224,225,226호 (잠실동, 트리지움)",127.089127,37.5093771
"가베영재보습학원","서울특별시 송파구 올림픽로51길 61  1층 (풍납동)",127.1150557,37.5342981
"DNG실용음악학원","서울특별시 송파구 백제고분로 382 , 4층 (송파동)",127.1124898,37.5028483
"엠트랙수학보습학원","서울특별시 강동구 동남로71길 14 , 7층 일부 (명일동)",127.1553401,37.5519077
"아트샘미술학원","서울특별시 송파구 올림픽로 435 , 파크리오B상가 401호 (신천동, 파크리오)",127.1050113,37.5203318
"마티안보습학원","서울특별시 송파구 양재대로62길 15 , 4층 (가락동)",127.1187054,37.4983553
"이아이(EiE)잠실보습학원","서울특별시 송파구 삼전로 12길 10 2층(삼전동)",127.091198,37.5061699
"수이수학보습학원","서울특별시 송파구 오금로31길 16-6 , 3층 (방이동)",127.1222525,37.5072067
"송파종로입시학원","서울특별시 강동구 강동대로 215 , 2~5층 (성내동)",127.1301176,37.52351
"가락누리보습학원","서울특별시 송파구 동남로 189 , 501호,502호 (가락동, 가락쌍용아파트 28동)",127.128207,37.49563
"LCI어학학원","서울특별시 송파구 백제고분로 139 , B동 201호 202호 (잠실동,극동빌딩)",127.0842945,37.5061273
"선진보습학원","서울특별시 송파구 삼전로 91 , 3층 (잠실동)",127.089582,37.506617
"이승희수능영어보습학원","서울특별시 송파구 올림픽로35길 112 , 401.412호 (신천동,장미아파트 비상가 1동)",127.1015754,37.5190781
"현재어학학원","서울특별시 송파구 위례성대로12길 13 , 1~4층 (방이동)",127.1224799,37.5124156
"송파JJ보습학원","서울특별시 송파구 동남로 213  3층 (가락동)",127.1314098,37.4964509
"석촌예술미용학원","서울특별시 송파구 백제고분로 377  4층 (송파동)",127.1124898,37.5028483
"UP진수학보습학원","서울특별시 강동구 구천면로 510 , 3층 (명일동)",127.1552025,37.5541782
"잠실1관정상어학학원","서울특별시 송파구 한가람로  ,  대원빌딩5층 (잠실본동)",127.1092458,37.5330475
"둔촌지캠프보습학원","서울특별시 강동구 진황도로 167-7 , 3층 (둔촌동,정원빌딩)",127.1321222,37.5286255
"새반디미술학원","서울특별시 송파구 백제고분로 417 , 2층 (송파동,향우빌딩)",127.1105695,37.5082735
"눈높이러닝센터쌍용멘토보습학원","서울특별시 송파구 동남로9길 27  1층 (가락동)",127.1266987,37.4945852
"캐네디영어문정보습학원","서울특별시 송파구 송이로32길 8  3층 (문정동)",127.1278622,37.4892478
"SnJ보습학원","서울특별시 강동구 고덕로38길 26 , 2,3층 (명일동)",127.1425953,37.5534098
"잠실SKY독서실","서울특별시 송파구 석촌호수로 134  303호 (삼전동)",127.0919186,37.5070936
"한결보습학원","서울특별시 송파구 위례성대로22길 16 , 2층 (오금동,8빌딩)",127.1306059,37.5089138
"블레싱에스피씨보습학원","서울특별시 송파구 성내천로 212  5층 (마천동)",127.1481564,37.5018143
"문화공간음악학원","서울특별시 송파구 문정로4길 22 , 4층 일부 (문정동,동호빌딩)",127.1258648,37.4845232
"주현컴퓨터유통학원","서울특별시 송파구 새말로 167 , 3층일부,4층일부 (문정동, 이주빌딩)",127.131315,37.4853969
"제이코어수학보습학원","서울특별시 강동구 고덕로 256 , 11층 일부 (1102호) (명일동,명성프라자)",127.1500409,37.5502209
"아발론교육송파아이비어학학원","서울특별시 송파구 위례성대로 92 , (2층,3층) (방이동,태종빌딩)",127.1222281,37.5136373
"이현중국어논술보습학원","서울특별시 송파구 석촌호수로 106 , 3층 (잠실동,한경빌딩)",127.088642,37.5076442
"잉글리쉬무무고덕제1학습관보습학원","서울특별시 강동구 동남로81길 92 , 2층 (고덕동)",127.1521237,37.5589011
"에듀플렉스보습학원","서울특별시 송파구 백제고분로21길 27 , 3층일부 (삼전동)",127.0907609,37.506217
"통달학원","서울특별시 송파구 석촌호수로 94 , 2층일부 (잠실동,서원빌딩)",127.0941266,37.5064609
"GLA외국어번역학원","서울특별시 송파구 송파대로 455  3층 (석촌동)",127.0979671,37.5057235
"지성독서실","서울특별시 송파구 석촌호수로 68 , 에이동, (3층) (잠실동)",127.0856227,37.5101888
"베리타스독서실","서울특별시 송파구 동남로18길 45 , 4층 (가락동,용진빌딩)",127.1348016,37.4928022
"이엘에프(ELF)영어학원","서울특별시 송파구 마천로 90  3층 (오금동)",127.1306806,37.510183
"에스티피(STP)믿음수학보습학원","서울특별시 송파구 백제고분로27길 31 , 2층 (삼전동,덕포빌딩)",127.0935612,37.5058529
"이태영영어보습학원","서울특별시 송파구 송파대로 376 , 5층 (송파동,정우빌딩)",127.1130413,37.509572
"거여서강보습학원","서울특별시 송파구 양산로 12  5층 (거여동)",127.143585,37.4899242
"문정수독서실","서울특별시 송파구 송파대로27길 28 , 3층일부 (문정동,화남빌딩)",127.116157,37.4910026
"플러스수학영어보습학원","서울특별시 송파구 오금로 479 ,  3층 (거여동)",127.1436598,37.4984271
"마천GGE영어보습학원","서울특별시 송파구 마천로51길 8 , 2층201호 (마천동)",127.1509453,37.4957279
"아름다운예음악학원","서울특별시 송파구 송이로31길 4-18  2층 (문정동)",127.1324219,37.4877505
"엄영길영어보습학원","서울특별시 송파구 양재대로71길 4-16 , 2층 (방이동,유경빌딩)",127.1264289,37.5107943
"글로벌어학학원","서울특별시 강동구 올림픽로 658 , (4층일부) (천호동,오복빌딩-제일은행)",127.1243449,37.5399296
"에스엠에프보습학원","서울특별시 송파구 송이로 145  6층 (가락동)",127.1243897,37.4939779
"스누라이프러리독서실","서울특별시 송파구 중대로 302 , (2층) (오금동)",127.1291211,37.5103481
"벅스음악학원","서울특별시 송파구 풍성로14길 22 , 1층 (풍납동)",127.1155254,37.532941
"대현학원","서울특별시 강동구 고덕로 256 , 902호 (명일동,명성프라자)",127.1540692,37.5546089
"진미술학원","서울특별시 송파구 올림픽로33길 1 , 미성라이프상가3층일부 (신천동)",127.1140129,37.5294029
"키즈닥터놀이학원","서울특별시 송파구 가락로36길 8 , (2층) (방이동,시스니빌딩)",127.1187557,37.5095657
"혜미인미용학원","서울특별시 강동구 천호대로 1016 , 5층일부 (성내동,외환은행)",127.1239269,37.5398966
"서울뮤직타운실용음악학원","서울특별시 강동구 천호대로162길 11-24 , 2층 (성내동)",127.1287217,37.5363333
"강동쓰리제이에듀학원","서울특별시 강동구 동남로71길 32 ,  10층(1001호일부) (명일동,환타지아)",127.1544861,37.5519709
"JoyEnM보습학원","서울특별시 강동구 양재대로 1708 ,  아남상가에이동 3층(304,306,307호) (고덕동,아남아파트)",127.144932,37.5581214
"삼성성내보습학원","서울특별시 강동구 풍성로54길 27 , 3층 (성내동)",127.1335655,37.5282298
"EPA어학학원","서울특별시 강동구 고덕로 166 , 1~3층 (명일동)",127.1521215,37.5536234
"에이앤아이과학보습학원","서울특별시 강동구 동남로71길 20-9 , 5층 일부 (명일동, 파라빌딩)",127.1548138,37.5523453
"서울예술음악학원","서울특별시 송파구 동남로 284 , (2층) (오금동)",127.1291211,37.5103481
"기픈수학보습학원","서울특별시 송파구 양재대로71길 2-7 , (3층) (방이동,어부삼대)",127.1264835,37.5105314
"토마스잉글리쉬방이보습학원","서울특별시 송파구 오금로27길 41 , (3층) (방이동)",127.1202833,37.5095176
"BJJMUSIC실용음악학원","서울특별시 송파구 송파대로 413 , 4층 (석촌동)",127.0978335,37.5053594
"윤선생영어숲보습학원","서울특별시 강동구 명일로 104 , 3층 302호,304호 (둔촌동,신성둔촌미소지움)",127.1428157,37.527848
"Pim미술학원","서울특별시 강동구 양재대로 1484-1 , 4층 (길동)",127.1404398,37.5381889
"와이제이수학학원","서울특별시 송파구 오금로 210 , (4층) (송파동,신화빌딩)",127.1167939,37.5073985
"EWAS송파어학학원","서울특별시 송파구 중대로 187 , (2층) (가락동,가락빌딩)",127.1207909,37.4959071
"송파제과제빵학원","서울특별시 송파구 가락로16길 3-12  4층 (석촌동)",127.1092214,37.5011144
"명일실용음악학원","서울특별시 강동구 양재대로 1636 , 6층 (명일동,유한빌딩)",127.1500409,37.5502209
"우정아보습학원","서울특별시 강동구 동남로73길 26 , 3층(6,7,8호) (명일동,고덕복합빌딩)",127.1547657,37.553266
"보들리영어보습학원","서울특별시 강동구 성내로 77 , 5층일부 (성내동,리치프라자)",127.1284749,37.5274958
"제2씨알보습학원","서울특별시 송파구 중대로 202 , 5층 (가락동,씨알빌딩)",127.1266791,37.4997956
"제3씨알보습학원","서울특별시 송파구 중대로 202 , (3,4층) (가락동,씨알빌딩)",127.1267138,37.4997934
"루켄송파어학학원","서울특별시 송파구 가락로 171 , 4층일부 (송파동,송파빌딩)",127.112201,37.499739
"열정과의지보습학원","서울특별시 송파구 올림픽로35길 124 , 404~409호, 413호, 415호 일부 (신천동, 장미아파트 에이상가 2동)",127.1015754,37.5190781
"송파소마보습학원","서울특별시 송파구 위례성대로12길 7 , 3층 (방이동, 비바빌딩)",127.122818,37.5129329
"JC영어보습학원","서울특별시 강동구 구천면로 510 , 2층 (명일동)",127.1523953,37.5547123
"더네일아트미용학원","서울특별시 송파구 올림픽로35길 104 , 장미A상가4층(410,411.412호) (신천동,장미아파트 4동)",127.1015754,37.5190781
"서울음악예술학원","서울특별시 강동구 올림픽로91길 41-3 , 2층 (천호동)",127.1243736,37.5481148
"청어람보습학원","서울특별시 송파구 오금로36길 67 , 3층 (가락동,주현빌딩)",127.121482,37.49834
"WIZ고급수학보습학원","서울특별시 강동구 고덕로 256 , 7층 702호 (명일동,명성프라자)",127.1540692,37.5546089
"잠실리더앤리더보습학원","서울특별시 송파구 도곡로64길 6 , 201호 (잠실동)",127.0785732,37.5051656
"가온누리보습학원","서울특별시 송파구 동남로 278  3층 (오금동)",127.1306806,37.510183
"지잉글리쉬보습학원","서울특별시 강동구 동남로73길 26 , 3층( 302호) (명일동,고덕복합빌딩)",127.1547657,37.553266
"김기희언어보습학원","서울특별시 강동구 동남로73길 26 , 3층 305호 (명일동,고덕복합빌딩)",127.1547657,37.553266
"에듀포인트보습학원","서울특별시 송파구 새말로6길 46  1층4층 (문정동)",127.1298739,37.4832039
"청담클루빌보습학원","서울특별시 강동구 상암로 11 , 101-215 (암사동,선사현대아파트)",127.127573,37.550686
"더스터디보습학원","서울특별시 강동구 양재대로 1558 , 5층일부 (길동)",127.1461206,37.5392074
"MATHMECCA보습학원","서울특별시 강동구 동남로 877 , 2층 204호 (명일동,한화오벨리스크스위트)",127.1558137,37.5519842
"GT리그영어보습학원","서울특별시 송파구 오금로 214 , 2층 (송파동)",127.1099557,37.507002
"장학가락어학보습학원","서울특별시 송파구 동남로 225 , 3층 301호 (가락동)",127.1321303,37.4980961
"송파독립운동보습학원","서울특별시 송파구 중대로25길 10-1  4층 (오금동)",127.1279458,37.5034563
"WHATSUP보습학원","서울특별시 송파구 마천로 20 , 2층 (방이동,창암빌딩)",127.1231237,37.5096277
"지엠에이(GMA)개념원리국제수학보습학원","서울특별시 송파구 새말로 146-1  3층 (문정동)",127.1301142,37.4838356
"엘리트사관보습학원","서울특별시 송파구 송이로 238  3층 (문정동)",127.131291,37.4877656
"노강식최강수학보습학원","서울특별시 강동구 천호옛12길 52 , 2층 (성내동)",127.1273767,37.5345583
"정재현알토란보습학원","서울특별시 송파구 백제고분로 203 , 3층 일부 (삼전동, 문화빌딩)",127.0969041,37.5045167
"송파EMS보습학원","서울특별시 송파구 풍성로26길 31 , 1층 101호 (풍납동,송파현대힐스테이트)",127.1186235,37.5310694
"에이미킨디어학학원","서울특별시 송파구 백제고분로 160 , 2층 전체, 3층 일부 (잠실동)",127.0842945,37.5061273
"최적보습학원","서울특별시 송파구 중대로 56 , 2층 (문정동,국제빌딩)",127.115125,37.4911576
"비욘드어드밴스트통역학원","서울특별시 강동구 고덕로62길 55  주양쇼핑3058호 (명일동)",127.1534256,37.552376
"윤선생문정보습학원","서울특별시 송파구 송이로32길 4 , 3층 (문정동)",127.1167299,37.5022719
"삼전해법보습학원","서울특별시 송파구 백제고분로28길 22  3층 (삼전동)",127.0914584,37.5011143
"송파해오름독서실","서울특별시 송파구 위례성대로22길 24 , 4,5층 (오금동)",127.1302654,37.5083328
"제이제이(JJ)어학학원","서울특별시 강동구 성안로 61 , 6층일부, 7층 (성내동)",127.1311036,37.5291146
"엘리트잠실어학학원","서울특별시 송파구 석촌호수로 158 , 2층, 3층 (삼전동, 금한빌딩)",127.0945836,37.5067023
"늘푸른수고등보습학원","서울특별시 송파구 위례성대로 92 ,  4층 (방이동)",127.1222281,37.5136373
"청어람수보습학원","서울특별시 송파구 위례성대로 34 , 4,5층 (방이동,지산빌딩)",127.1160067,37.5157417
"위버지니어스종합(어학기타)학원","서울특별시 송파구 삼전로 100 , 5층 (삼전동,아카데미빌딩)",127.0906686,37.5069254
"송파구주이배수학보습학원","서울특별시 송파구 위례성대로 74 , 2층 (방이동,송파이투스학원)",127.1201238,37.5144048
"윤선생엘리트학원","서울특별시 송파구 백제고분로42길 18 , 201호 (송파동, 선경빌딩)",127.108153,37.5076277
"이관이현중보습학원","서울특별시 송파구 석촌호수로 110 , 3층 (잠실동)",127.0890526,37.5075554
"최강씨엠수학보습학원","서울특별시 강동구 양재대로89가길 69 , 302호 및 501호 (성내동)",127.1339246,37.5233965
"뉴연세음악학원","서울특별시 송파구 강동대로9길 12 , 3층 (풍납동)",127.1164674,37.5274237
"잠실유투엠(U2M)보습학원","서울특별시 송파구 삼전로 95 , 2.3층 (잠실동,태성빌딩)",127.0898492,37.5068774
"에듀플렉스문정로데오보습학원","서울특별시 송파구 송이로 163-1 , 2층일부 (가락동)",127.125619,37.4926201
"신수학과학중등관보습학원","서울특별시 송파구 석촌호수로 152  2층 (삼전동)",127.0938322,37.5068281
"이엠지영수학원","서울특별시 송파구 새말로 148  3층 (문정동)",127.1302221,37.4839832
"청심보습학원","서울특별시 송파구 백제고분로43길 4 ,  2층 201호 (송파동)",127.1100854,37.507987
"씽크보습학원","서울특별시 송파구 중대로 60 , 4층일부 (문정동,남광빌딩)",127.1155416,37.491352
"이아이이송파풍납어학학원","서울특별시 송파구 올림픽로47길 20  2층 (풍납동)",127.1168018,37.5285138
"노벨독서실","서울특별시 강동구 양재대로 1665 , 2층일부 (명일동)",127.1500409,37.5502209
"하늘교육잠일보습학원","서울특별시 송파구 올림픽로 119 , 잠실파인애플상가4B03,4B17호 (잠실동,잠실파인애플상가)",127.0841274,37.5120434
"뉴아르떼음악학원","서울특별시 강동구 양재대로 1532  2층 (길동)",127.1500017,37.5448295
"SDA삼육어학학원","서울특별시 강동구 올림픽로 626  5층 (성내동)",127.1277354,37.5373749
"올림픽일등보습학원","서울특별시 송파구 양재대로 1222  306호 (방이동)",127.1215351,37.5164031
"잉글리쉬무무장지제1학습관보습학원","서울특별시 송파구 새말로 142  2층 (문정동)",127.1296137,37.4835039
"구주이배보습학원","서울특별시 송파구 위례성대로 66 , 6층, 7층 (방이동 171-4)",127.119429,37.514683
"뉴엘리트보습학원","서울특별시 송파구 위례성대로18길 32  3층 (방이동)",127.1247104,37.5095235
"아발론랭콘송파어학학원","서울특별시 송파구 위례성대로 108 , 2층,3층,4층,5층,6층,7층 (방이동, 아발론랭콘)",127.123701,37.5130455
"뉴성신보습학원","서울특별시 송파구 올림픽로35길 112 , 304호, 305호 (신천동, 장미아파트 비상가 1동)",127.1015754,37.5190781
"잠실청담어학학원","서울특별시 송파구 석촌호수로 61 , 405,407,408,409호 (잠실동, 트리지움)",127.089127,37.5093771
"리틀쇼팽음악학원","서울특별시 송파구 올림픽로 119 , 5층 5B20호,5B21호 (잠실동,잠실파인애플상가)",127.0841274,37.5120434
"트리플S보습학원","서울특별시 송파구 가락로 31  3층 (석촌동)",127.0979671,37.5057235
"이앤디영·수1관학원","서울특별시 강동구 동남로71길 32 , 7층 703,704호 (명일동,환타지아)",127.1544861,37.5519709
"벨레아르띠미술학원","서울특별시 강동구 동남로73길 31 , 3층 일부 (명일동)",127.1544873,37.5525675
"디디보습학원","서울특별시 송파구 위례성대로12길 36  3층 (방이동)",127.1210445,37.5107704
"SI영어보습학원","서울특별시 송파구 올림픽로435 , 파크리오상가 B동 402호1 (파크리오상가 B동)",127.112974,37.520094
"남주희실용음악학원","서울특별시 송파구 송파대로 467  3층 (석촌동)",127.0979671,37.5057235
"창조의아침주니어미술학원","서울특별시 강동구 양재대로 1576 , 5층 (명일동,삼익빌딩)",127.1434817,37.5461514
"청솔J단과보습학원","서울특별시 강동구 양재대로 1606 , 3,4층 (명일동)",127.1500409,37.5502209
"열린사성보습학원","서울특별시 송파구 오금로 32길 42 401호(송파동)",127.1179874,37.5031508
"좋은배우연극학원","서울특별시 송파구 가락로 144  4층 (송파동)",127.1142515,37.507666
"해법영어마천보습학원","서울특별시 송파구 마천로57길 10  2층 (마천동)",127.1524485,37.4946115
"스탠튼영어보습학원","서울특별시 송파구 가락로 209 , 5층 (송파동,사이언스빌딩)",127.1127913,37.5096553
"칼로카수학보습학원","서울특별시 송파구 삼전로 12길 10 3층(삼전동)",127.091198,37.5061699
"잠실파워영어수학보습학원","서울특별시 송파구 백제고분로 159  5층 (잠실동)",127.0842945,37.5061273
"디딤돌수학이매쓰보습학원","서울특별시 강동구 구천면로 264 , 2층 (천호동)",127.1398707,37.5504012
"스테파니잉글리쉬영어보습학원","서울특별시 송파구 동남로18길 6  2층 (가락동)",127.131381,37.4951261
"아이엠(IM)보습학원","서울특별시 강동구 천중로 226  2층 (길동)",127.145303,37.5405822
"랭콘잉글리쉬남잠실키즈클럽어학학원","서울특별시 송파구 백제고분로27길 27  1층 (삼전동)",127.0934294,37.5055347
"와이지영어보습학원","서울특별시 송파구 송이로 86 , 2층 (가락동,상문빌딩)",127.1200687,37.4983512
"라임에듀보습학원","서울특별시 송파구 송파대로36길 26 , 2층 (송파동)",127.1147338,37.5010198
"요미요미송파잠실미술학원","서울특별시 송파구 올림픽로35길 104 , 장미에이상가 2동 307,308호 (신천동,장미아파트 4동)",127.1015754,37.5190781
"권지성음악학원","서울특별시 송파구 올림픽로 119 , 파인애플상가 5B02호,5B03호 (잠실동,잠실파인애플상가)",127.0841274,37.5120434
"셀라피아노학원","서울특별시 강동구 상암로 210 , 4층 (명일동)",127.1551475,37.5527344
"드리밍영어엑스원수학학원","서울특별시 송파구 올림픽로37길 109 , 408-1,409호 (신천동,잠현초등학교)",127.1048214,37.5223705
"잠실에이프릴어학학원","서울특별시 송파구 석촌호수로 156  4층 (삼전동)",127.0943371,37.5066031
"창작의샘보습학원","서울특별시 송파구 백제고분로 264  2층 (삼전동)",127.091107,37.5068657
"눈높이러닝센터성내성일보습학원","서울특별시 강동구 풍성로 194 , 2층(201호,202호) (성내동,둔촌역청구아파트)",127.1332054,37.5292366
"송파가우스수학과학보습학원","서울특별시 송파구 석촌호수로 140 ,  4층일부(402호) (삼전동)",127.0924588,37.5070374
"키드디자인아트팩토리미술학원","서울특별시 강동구 고덕로 133 , 506호 (암사동,강동 롯데캐슬퍼스트아파트)",127.141943,37.5563437
"밝음학원","서울특별시 강동구 양재대로 1365 , 401호 (성내동, 심포니타워)",127.1360202,37.5280392
"와이비엠잉글루보습학원","서울특별시 송파구 올림픽로 119 , 4층28호 (잠실동,잠실파인애플상가)",127.0841274,37.5120434
"가락뮤엠영어보습학원","서울특별시 송파구 동남로9길 33 , 2층 (가락동)",127.1266673,37.4950481
"윤선생영어숲풍납보습학원","서울특별시 송파구 토성로19길 7 , 2층 (풍납동,풍납빌딩)",127.1179014,37.5292085
"와우아뜰리에미술학원","서울특별시 송파구 올림픽로 119 ,  5B17, 5B19호 (잠실동)",127.0705426,37.5106622
"잉글리쉬무무마천제2학습관보습학원","서울특별시 송파구 마천로57길 5 , 4층 (마천동,마천빌딩)",127.1518944,37.4945021
"클레버올리버보습학원","서울특별시 강동구 고덕로 101 , 3층 (암사동,대암빌딩)",127.1367144,37.554905
"크라스플러스잠실독서실","서울특별시 송파구 석촌호수로 133 , 4층 (401,402,403,404호) (잠실동,레이크팰리스)",127.0945775,37.5097575
"윤선생영어숲거여보습학원","서울특별시 송파구 오금로 478 , 3층 (거여동,이화빌딩)",127.1340049,37.5086171
"하우투보습학원","서울특별시 송파구 새말로 149  3층 (문정동)",127.130001,37.4842321
"G1230풍납보습학원","서울특별시 송파구 토성로 36 , 2층 (풍납동)",127.1142035,37.5299126
"헤세드영어보습학원","서울특별시 송파구 석촌호수로 140  잠실레이크타워601호 (삼전동)",127.0924588,37.5070374
"장학스카이보습학원","서울특별시 송파구 석촌호수로 140  잠실레이크타워501호 (삼전동)",127.0924588,37.5070374
"고쓰(GOS)에듀보습학원","서울특별시 송파구 양재대로71길 14 , 4층 (방이동,우민빌딩)",127.1254322,37.5106678
"에반뮤직실용음악학원","서울특별시 송파구 송이로31길 24  2층 (문정동)",127.1333138,37.4895375
"씨앤씨어학원","서울특별시 송파구 오금로 45 , 301호 (신천동,영빌딩)",127.1129857,37.5110996
"송파1관정상어학학원","서울특별시 송파구 양재대로71길 1-14 , 2층,3층,4층 (방이동, 인수빌딩)",127.1258616,37.5096375
"오르투스(ORTUS)수학학원","서울특별시 송파구 위례성대로18길 32 ,  4층 (방이동)",127.1247104,37.5095235
"서울실용음악학원","서울특별시 송파구 위례성대로16길 25 , (4층) (방이동,금양빌딩)",127.1241866,37.5104946
"쉬즈네일미용학원","서울특별시 강동구 천호옛길 95  6층 (성내동)",127.1259738,37.5372573
"눈높이러닝센터송파제1보습학원","서울특별시 송파구 가락로28길 3-5 (송파동,석천빌딩)",127.1163466,37.5066002
"학명보습학원","서울특별시 강동구 천중로 207 , 3층 (길동)",127.1432697,37.5409613
"한가람음악학원","서울특별시 송파구 거마로 73 , 2층 (마천동,능인빌딩)",127.1469827,37.4995183
"신수학보습학원","서울특별시 송파구 가락로 59  3층 (석촌동)",127.0979671,37.5057235
"바른영재보습학원","서울특별시 송파구 백제고분로 250  2층 (삼전동)",127.091107,37.5068657
"방이에듀플렉스보습학원","서울특별시 송파구 마천로 99 , 3층 (오금동,동현빌딩)",127.130974,37.5063977
"피아노포르테에스(S)음악학원","서울특별시 송파구 송이로31길 20  3층 (문정동)",127.1330017,37.4892469
"베리타스수학보습학원","서울특별시 송파구 토성로 59  3층 (풍납동)",127.1167538,37.5291361
"윤선생영어방이보습학원","서울특별시 송파구 백제고분로50길 43 , 2층일부 (방이동,대영빌딩)",127.1194109,37.5129144
"이은재2관어학학원","서울특별시 송파구 위례성대로 180 , 2층, 4층, 5층 (오금동,아이에프빌딩)",127.1309588,37.5100914
"미래교육보습학원","서울특별시 송파구 양재대로71길 12 , 3층 (방이동 186-11,태방빌딩)",127.1256491,37.5105937
"아트잉글리쉬미술학원","서울특별시 송파구 마천로 351 , 2층일부 (마천동,사자빌딩)",127.1531768,37.4927692
"제이디음악학원","서울특별시 송파구 백제고분로 216  5층 (삼전동)",127.0898089,37.505815
"천재교육해법수학보습학원","서울특별시 송파구 석촌호수로 152  2층 (삼전동)",127.0938322,37.5068281
"헤바무용학원","서울특별시 송파구 삼학사로19길 28  4층 (삼전동)",127.0940765,37.5062695
"송파실용음악학원","서울특별시 송파구 오금로 479 , 4층 (거여동)",127.1427699,37.4989045
"콤파스영어청출어람쎈수학학원","서울특별시 강동구 구천면로 498-1 , 3층 (명일동)",127.1459449,37.5499715
"눈높이러닝센터천호암사보습학원","서울특별시 강동구 올림픽로98가길 47 , 2층 (암사동,중앙하이츠아파트)",127.1320751,37.5512494
"김용범국어논술노둣돌보습학원","서울특별시 송파구 위례성대로18길 31-14 , (6층일부) (방이동)",127.1255753,37.5091677
"눈높이러닝센터둔촌길동보습학원","서울특별시 강동구 양재대로116길 46 , 3층일부 (길동)",127.1428258,37.5380323
"레이첼영어(Rachel's English)보습학원","서울특별시 강동구 고덕로 256 , 802호 (명일동,명성프라자)",127.1540692,37.5546089
"송파에스이엠(SEM)학원","서울특별시 송파구 백제고분로32길 6-6 , 2층 (삼전동)",127.0950202,37.5020166
"레벨업영수보습학원","서울특별시 송파구 오금로32길 50 , 3층 (송파동)",127.1174619,37.5026387
"사성보습학원","서울특별시 송파구 오금로32길 42 (송파동,현대아파트 101동)",127.1181521,37.5033228
"스카이보습학원","서울특별시 강동구 구천면로 440 , 2층일부 (명일동)",127.1500409,37.5502209
"영어뱅크보습학원","서울특별시 강동구 양재대로 1319 , 4층일부 (404,405호) (성내동,경일빌딩)",127.1330757,37.5339956
"이앤엠수학보습학원","서울특별시 강동구 동남로75길 29 , 2층일부(202호) (명일동)",127.1545184,37.554122
"위드유대학편입학원","서울특별시 송파구 송파대로 422  2층1호 (송파동)",127.1090038,37.5031546
"마스터보습학원","서울특별시 송파구 오금로27길 45 , 2층 (방이동)",127.1205304,37.509952
"공간수학보습학원","서울특별시 강동구 동남로73길 26 , 3층12호 (명일동,고덕복합빌딩)",127.1547657,37.553266
"퍼스트에듀보습학원","서울특별시 송파구 문정로 33 , 2층 (문정동,태성빌딩)",127.1335398,37.4934076
"선수촌오륜독서실","서울특별시 송파구 강동대로 300 , 201,202,203호 (방이동,올림픽선수기자촌A지상가)",127.1351556,37.5150053
"아이멕스영어수학전문보습학원","서울특별시 강동구 양재대로 1383 , 2층 (성내동)",127.1287651,37.5302922
"이현정영어보습학원","서울특별시 송파구 올림픽로35길 104 , 장미에이상가2동(3-6,3-7,3-13호 각일부,3-14 (신천동,장미아파트 4동)",127.1015754,37.5190781
"윤선생영어숲강동중앙보습학원","서울특별시 강동구 풍성로 150 , 2층(성내동) (성내동,삼천리자전거)",127.128567,37.5308197
"케이키즈미술학원","서울특별시 강동구 상암로 8-1 , 2층 (암사동)",127.1245231,37.5512002
"눈높이러닝센터천마거여보습학원","서울특별시 송파구 오금로59길 3-28 , 2층 (거여동)",127.1437677,37.4937271
"대성키움보습학원","서울특별시 강동구 양재대로 1319 , 302호일부 (성내동,경일빌딩)",127.1330757,37.5339956
"W영어전문보습학원","서울특별시 강동구 천호대로 1194 , 2층일부 (둔촌동,아도빌딩)",127.144105,37.5272032
"엠플러스영수보습학원","서울특별시 강동구 동남로71길 19 , 203-208, 212호 (명일동,한양아파트)",127.1551472,37.5503733
"지스트보습학원","서울특별시 송파구 백제고분로27길 41 ,  2층 (삼전동)",127.0938843,37.5066357
"알파독서실","서울특별시 송파구 올림픽로35길 124 , 402~405호 (신천동, 장미아파트 에이상가 1동)",127.1015754,37.5190781
"프라임실용음악학원","서울특별시 송파구 중대로 207 , 2층 (가락동,대명빌딩)",127.1222632,37.4890746
"닥터정이클래스잠실신천보습학원","서울특별시 송파구 올림픽로35길 112 , 4층3호 (신천동, 장미아파트B상가2동)",127.0451662,37.5685015
"베리젬미술학원","서울특별시 송파구 삼학사로19길 28  2층 (삼전동)",127.0940765,37.5062695
"지식플러스보습학원","서울특별시 송파구 거마로22길 48 , 2층일부 (마천동)",127.1517162,37.4967579
"최상보습학원","서울특별시 강동구 고덕로 133 , 강동롯데캐슬퍼스트아파트상가동514호 (암사동)",127.140649,37.5566495
"리에스프레소커피학원","서울특별시 송파구 백제고분로 419 , 3층 (송파동,유진빌딩)",127.1100971,37.511405
"랜퍼스(LANPUS)키즈잉글리쉬어학학원","서울특별시 송파구 백제고분로 209  3층 (삼전동)",127.0902051,37.5064371
"팰릭스어셈블리보습학원","서울특별시 강동구 동남로75길 13 , 4층 일부 (명일동, 은현빌딩)",127.1555359,37.5541784
"하늘교육암사보습학원","서울특별시 강동구 고덕로 133 , 상가동 502호 (암사동,강동 롯데캐슬퍼스트아파트)",127.141943,37.5563437
"신나는중국어보습학원","서울특별시 송파구 석촌호수로 108  3층 (잠실동)",127.0888326,37.507597
"유투엠보습학원","서울특별시 강동구 상암로 167 , 2~4층 (천호동)",127.1409674,37.5461499
"윤선생영어숲천호보습학원","서울특별시 강동구 성안로 201 , 4층일부 (천호동)",127.1368783,37.5408913
"한터보습학원","서울특별시 강동구 동남로71길 14 , 4층일부 (명일동)",127.1553401,37.5519077
"지샘교육보습학원","서울특별시 송파구 백제고분로 169 , 2층 (잠실동,은혜빌딩)",127.0857108,37.5052387
"아름다운사람들미용학원","서울특별시 강동구 천호대로 1092  에스케이허브진208호 (성내동)",127.1287651,37.5302922
"한맥국어보습학원","서울특별시 송파구 양재대로71길 14 ,  3층 (방이동)",127.1254322,37.5106678
"GMA개념원리강동둔촌제1보습학원","서울특별시 강동구 양재대로 1329  3층 (성내동)",127.1348149,37.5251655
"대승보습학원","서울특별시 송파구 가락로 158 , 3층일부 (송파동)",127.1119305,37.504609
"이끌림수학보습학원","서울특별시 강동구 양재대로 1311 , 4층 (성내동)",127.134277,37.523561
"윤선생영어숲둔촌남부보습학원","서울특별시 강동구 양재대로 1330 , 둔촌아파트 종합상가 302호일부 (둔촌동,주공아파트)",127.1412158,37.5253118
"윤선생영어숲마천보습학원","서울특별시 송파구 마천로 323 , 2층 (마천동)",127.1448021,37.5025893
"핑크엠실용음악학원","서울특별시 강동구 올림픽로 686 , 2층 (천호동,오송빌딩)",127.1250917,37.5424463
"매직피플마술학원","서울특별시 송파구 백제고분로12길 11 , 2층 (잠실동,동승빌딩)",127.0809612,37.5050997
"눈높이러닝센터문정신가락보습학원","서울특별시 송파구 오금로44길 48 , 2층 (가락동)",127.1324654,37.4942574
"눈높이러닝센터문정장지보습학원","서울특별시 송파구 새말로 136 5층(문정동)",127.129101,37.4830577
"임선영국어보습학원","서울특별시 송파구 위례성대로20길 24 , 2층 (오금동)",127.1272418,37.5092278
"연우수학보습학원","서울특별시 송파구 석촌호수로 94 , 3층일부 (잠실동,서원빌딩)",127.0941266,37.5064609
"에이텐(A-10)수학보습학원","서울특별시 송파구 마천로8길 1  3층 (오금동)",127.127812,37.5074659
"깊은샘보습학원","서울특별시 강동구 양재대로87길 19 , 2층 (성내동)",127.1339524,37.5254961
"GMA개념원리수학가락보습학원","서울특별시 송파구 동남로18길 20 , 3층 (가락동)",127.1323263,37.4943564
"가락서강보습학원","서울특별시 송파구 오금로 410 , 6층일부 (가락동,미주빌딩)",127.1354203,37.4973985
"잉글리쉬무무잠실본동보습학원","서울특별시 송파구 올림픽로12길 60 , 4층 (잠실동,송보빌딩)",127.0998736,37.5039657
"토피아(TOPIA)어학학원","서울특별시 강동구 양재대로 1584 , (3층일부,4층일부) (명일동)",127.1500409,37.5502209
"윤선생영어숲가락남부보습학원","서울특별시 송파구 양재대로62길 11 , 2층일부 (가락동,대성빌딩)",127.1184876,37.4986096
"애니톡만화학원","서울특별시 강동구 양재대로 1579 , 5층일부 (천호동 한영빌딩)",127.1428215,37.5465058
"린수학학원","서울특별시 송파구 삼학사로19길 13  2층 (삼전동)",127.0956304,37.505812
"송파연세수보습학원","서울특별시 송파구 동남로 117 , 3층 (가락동)",127.1239406,37.4905019
"박정희과학보습학원","서울특별시 강동구 고덕로 256 , 1304호 (명일동,명성프라자)",127.1474254,37.5484241
"이덕재수학이미선국어학원","서울특별시 강동구 동남로71길 32 , 301호 (명일동,환타지아)",127.1544861,37.5519709
"윤선생영어숲고덕동부보습학원","서울특별시 강동구 아리수로93길 33-9  강일프라자602호 (강일동)",127.1731758,37.5656884
"와이즈비어학학원","서울특별시 송파구 오금로 492-1 , 2, 3, 4, 5층 (거여동 562-1,서강학원)",127.1450162,37.4931553
"타이피카커피학원","서울특별시 송파구 송파대로22길 5-13 (문정동,재경빌딩)",127.1219157,37.4880585
"N플러스간호학원","서울특별시 강동구 천호대로 997 , 5층1호일부 (천호동,신라빌딩)",127.1232895,37.5393463
"이지원무용학원","서울특별시 강동구 고덕로 106-1  4층 (암사동)",127.1370448,37.5544209
"윤선생영어숲길동보습학원","서울특별시 강동구 명일로 250 2층 (길동)",127.1473049,37.5409625
"박성한영어보습학원","서울특별시 강동구 고덕로38길 64 , 2층 (명일동)",127.142414,37.5516568
"W영어수학보습학원","서울특별시 송파구 마천로 111 (오금동,여산빌딩)",127.1415638,37.5030046
"잉글루보습학원","서울특별시 송파구 거마로 9 , 4층 (거여동)",127.1445349,37.4940886
"삼전음악학원","서울특별시 송파구 백제고분로32길 24  2층 (삼전동)",127.0947553,37.5003548
"신이정보습학원","서울특별시 강동구 양재대로 1317 , 202호,204호 (성내동,경일빌딩)",127.134339,37.5239591
"한예종라라라발레무용학원","서울특별시 송파구 올림픽로 119 , 4층 4B13 (잠실동,잠실파인애플상가)",127.0841274,37.5120434
"우정아중등보습학원","서울특별시 강동구 동남로73길 26 , 고덕복합빌딩3층 11호 (명일동)",127.1547657,37.553266
"KS특목보습학원","서울특별시 송파구 백제고분로21길 20 , 3층 301호 (삼전동)",127.0906193,37.5055816
"유피플러스(UP+)학원","서울특별시 송파구 올림픽로 435  파크리오B상가409호 (신천동)",127.112974,37.520094
"에듀모아보습학원","서울특별시 강동구 풍성로 150 , 2층 (성내동,삼천리자전거)",127.128567,37.5308197
"두드림수학보습학원","서울특별시 송파구 올림픽로 119 , 4층 B10,12호 (잠실동,잠실파인애플상가)",127.0841274,37.5120434
"베스트오브베스트보습학원","서울특별시 송파구 동남로8길 11 , 2층 (문정동)",127.1258877,37.489937
"팀플러스(Team Plus)독서실","서울특별시 강동구 풍성로 187 , 2층일부 (성내동)",127.1328447,37.5299987
"예담보습학원","서울특별시 강동구 동남로65길 6 , 2층 (명일동)",127.1556046,37.5477269
"에이스음악학원","서울특별시 송파구 송이로36길 55-1 (문정동)",127.1278184,37.4832879
"잠실뉴스터디보습학원","서울특별시 송파구 올림픽로35길 104 , 4층 419,423,424호 (신천동,장미아파트 4동)",127.1015754,37.5190781
"뉴파가니니음악학원","서울특별시 송파구 양산로4길 13 , 204호 일부, 205호 (거여동, 우토 파크빌딩)",127.1447166,37.4899558
"이지수학보습학원","서울특별시 송파구 위례성대로18길 31-14  3층 (방이동)",127.1255753,37.5091677
"눈높이러닝센터송파방이보습학원","서울특별시 송파구 가락로 269  2층 (방이동)",127.1191051,37.5119832
"제1그린섬미술학원","서울특별시 송파구 가락로 136 , 2층 (송파동,우일빌딩)",127.111125,37.5021284
"형설보습학원","서울특별시 강동구 명일로16길 25  3층 (길동)",127.1475273,37.5372356
"한진하음악학원","서울특별시 송파구 충민로2길 26  5층502호 (장지동)",127.127223,37.4775068
"송파확인영어보습학원","서울특별시 송파구 가락로 244 5층(방이동)",127.1181728,37.5097939
"끌레오네애니미술학원","서울특별시 강동구 구천면로 239 , 4층 (천호동,동광빌딩)",127.1305665,37.5419017
"시매쓰올림픽보습학원","서울특별시 송파구 위례성대로12길 18 , 2층 (방이동,제이에스빌딩)",127.1218102,37.5120357
"가우스보습학원","서울특별시 송파구 올림픽로35길 112 , 408, 409호 (신천동, 장미아파트비상가)",127.1015754,37.5190781
"한양검정고시학원","서울특별시 송파구 올림픽로 114 7층(잠실동)",127.1008205,37.5179041
"예림키즈놀이학원","서울특별시 송파구 오금로46길 66 , 2층 일부 (가락동,한샘빌딩)",127.1313609,37.4927616
"태환영어보습학원","서울특별시 강동구 동남로71길 20 , 7층 (명일동,청솔빌딩)",127.1550799,37.5519004
"진인영어학원","서울특별시 송파구 새말로17길 15  3층 (문정동)",127.1304101,37.4863958
"노블레스영어수학보습학원","서울특별시 강동구 고덕로 140 ,  현대대림아파트상가306호,307호 (암사동)",127.1407186,37.5544215
"CM수학보습학원","서울특별시 강동구 양재대로89가길 69 (성내동,크로바빌딩)",127.1339278,37.523404
"에코뮤직실용음악학원","서울특별시 강동구 구천면로 323 , 3층 일부 (암사동)",127.1353356,37.5483677
"광수학학원","서울특별시 송파구 가락로 206 , 3층 (송파동,장수빌딩)",127.1127913,37.5096553
"교학사영어보습학원","서울특별시 강동구 암사길 51 , 4층일부 (암사동)",127.135003,37.5519758
"영재보습학원","서울특별시 송파구 위례성대로18길 22  2층 (방이동)",127.12518,37.5102785
"미분과적분보습학원","서울특별시 송파구 위례성대로22길 6 , 3층 (오금동)",127.1311074,37.5096653
"YBM시사잉글루영어보습학원","서울특별시 강동구 고덕로 133 , 302호,303호,304호,305호 (암사동, 강동 롯데캐슬퍼스트아파트)",127.141943,37.5563437
"아이비티주니어보습학원","서울특별시 강동구 고덕로 140 , 상가 308-1호 (암사동,현대대림아파트)",127.127573,37.550686
"헤세드수학보습학원","서울특별시 강동구 양재대로 1607 (천호동,약봉빌딩)",127.1433879,37.5490319
"이매쓰보습학원","서울특별시 송파구 풍성로 69  3층 (풍납동)",127.1201498,37.5335081
"에듀탑독서실","서울특별시 송파구 석촌호수로 84 , 2층3호,2층5호,2층6호일부 (잠실동)",127.086663,37.50873
"샤론음악학원","서울특별시 강동구 상암로 12 , 202호 (암사동)",127.1251086,37.5508775
"한림서예학원","서울특별시 송파구 올림픽로 203 , 311호 (잠실동)",127.081025,37.5052775
"보슬미술학원","서울특별시 강동구 올림픽로112길 92 (암사동)",127.1333434,37.5634269
"한솔지니어스보습학원","서울특별시 강동구 양재대로91길 62 , 상가동 201호 (성내동, 동아1차아파트)",127.1329277,37.5287922
"잉글리쉬무무성내제1학습관보습학원","서울특별시 강동구 양재대로89길 36 , 2층 (성내동)",127.1335466,37.5269366
"퍼니매쓰보습학원","서울특별시 강동구 구천면로 508-1 , 2층 (명일동)",127.1500409,37.5502209
"방주음악학원","서울특별시 송파구 백제고분로18길 6 , 2층 (잠실동)",127.0846785,37.5046121
"45스타트레이닝실용음악학원","서울특별시 송파구 새말로8길 19  2층 (문정동)",127.1268607,37.4809525
"바퀴달린그림책플러스미술학원","서울특별시 송파구 위례성대로12길 4-5 , 1층일부 (방이동,세양빌딩)",126.9730562,37.5742161
"눈높이러닝센터천마마천보습학원","서울특별시 송파구 마천로41길 30 , 2층 (마천동)",127.1508297,37.4967516
"케이투알파보습학원","서울특별시 송파구 마천로7길 5  2층 (오금동)",127.1277235,37.50856
"케이투플러스보습학원","서울특별시 송파구 마천로7길 5  3층 (오금동)",127.1277235,37.50856
"그린오투(O2)독서실","서울특별시 송파구 토성로 59 , 3,4층일부 (풍납동,선일빌딩)",127.1167538,37.5291361
"눈높이러닝센터천호천일보습학원","서울특별시 강동구 양재대로123길 56 , 2층 (천호동,샘물미용실)",127.1389649,37.5440431
"이젠수학길동자이보습학원","서울특별시 강동구 천호대로199길 19  4층 (길동)",127.1477754,37.5374068
"메카영수보습학원","서울특별시 강동구 동남로81길 66 , 3층 (고덕동)",127.153284,37.559387
"김정아발레무용학원","서울특별시 강동구 올림픽로 816 , 2층 (암사동)",127.1290904,37.5536623
"란스플로리스트꽃꽂이학원","서울특별시 송파구 백제고분로42길 8 , 2층일부 (송파동)",127.1095271,37.5055679
"깨비수학학원","서울특별시 강동구 고덕로27길 19 , 2층일부 (암사동,용성빌딩)",127.137732,37.5556779
"탑수학보습학원","서울특별시 강동구 상암로5길 83 (암사동)",127.1281759,37.5539592
"둔촌뮤엠영어보습학원","서울특별시 강동구 명일로12길 10 , 2층일부 (둔촌동,초원슈퍼)",127.1452705,37.5336403
"송파뮤엠영어보습학원","서울특별시 송파구 송파대로42길 22 , 2층 (송파동)",127.1101588,37.505615
"가락제2삼성영어보습학원","서울특별시 송파구 송이로14길 12  2층 (가락동)",127.1181701,37.4989623
"YBM영어길동1센터보습학원","서울특별시 강동구 천호대로199길 19 , 3층 (길동)",127.1477754,37.5374068
"미술재미잠실미술학원","서울특별시 송파구 백제고분로 216 , 6층 (삼전동,청송빌딩)",127.1011537,37.5056833
"서울아이티컴퓨터학원","서울특별시 송파구 가락로 71 , 3층일부 (석촌동)",127.1035697,37.503517
"파라도음악세상음악학원","서울특별시 강동구 양재대로123길 37 , 2층 (천호동)",127.1397694,37.5436543
"탑아인스보습학원","서울특별시 송파구 위례성대로20길 22 (오금동,정남빌딩)",127.1273732,37.5094056
"씨뇨르방이태리조리학원","서울특별시 송파구 중대로9길 30 , 4층 (가락동,다보빌딩)",127.1188068,37.4957935
"김재한최강학원","서울특별시 송파구 마천로 307 , 3층 (마천동)",127.1521856,37.4938527
"신상목영어보습학원","서울특별시 강동구 동남로71길 14 (명일동,한양빌딩)",127.1553401,37.5519077
"튼튼영어마스터클럽가락보습학원","서울특별시 송파구 송이로14길 3 , 2층 일부 (가락동)",127.1191586,37.4991543
"송파문정청담어학학원","서울특별시 송파구 송이로 157 , 2,3층 (가락동,가윤웨딩뷔페)",127.1250929,37.4930281
"셀라음악학원","서울특별시 송파구 올림픽로 435 , 408호 (신천동, 파크리오)",127.1050113,37.5203318
"선사브레인보습학원","서울특별시 강동구 고덕로 54 , 2층1호 (암사동)",127.1311286,37.5545514
"이지논술보습학원","서울특별시 송파구 백제고분로 206 , 3층 (삼전동,경인빌딩)",127.0895086,37.503624
"금오음악학원","서울특별시 강동구 동남로81길 72 , 2층 (고덕동)",127.1529959,37.5592443
"주액터스연극학원","서울특별시 강동구 천호대로157길 14 , 903호,904호 (천호동,나비빌딩)",127.1272493,37.5382084
"샛별독서실","서울특별시 강동구 풍성로 204 , 2층 (성내동)",127.1343507,37.5291096
"송파헤드클래스보습학원","서울특별시 송파구 마천로7길 5  2층 (오금동)",127.1277235,37.50856
"GMI인재경영학원","서울특별시 송파구 올림픽로 342 , 8층일부 (방이동,형인타워)",127.1215351,37.5164031
"꿈마루독서실","서울특별시 강동구 양재대로130길 11 (명일동)",127.1445255,37.5458288
"아발론랭콘강동어학학원","서울특별시 강동구 양재대로 1661 , 3층 (명일동)",127.1552025,37.5541782
"아너스보습학원","서울특별시 송파구 가락로 148 , 3층 일부 (송파동)",127.1119305,37.504609
"써틴실용음악학원","서울특별시 송파구 백제고분로19길 3 , 3층 (잠실동,성산빌딩)",127.078989,37.5104879
"길한솔보습학원","서울특별시 강동구 천호대로187길 53 , 3층일부 (길동)",127.1427733,37.5365858
"춘원서예학원","서울특별시 송파구 오금로57길 6 , 2층 (거여동)",127.1425969,37.4945548
"강동구주이배수학보습학원","서울특별시 강동구 고덕로 133 , 503,323,324,330~333,321호 (암사동, 강동 롯데캐슬퍼스트아파트)",127.141943,37.5563437
"엠시성신보습학원","서울특별시 송파구 올림픽로 435  4층405호 (신천동)",127.1094588,37.5211214
"디자인챔피언미술학원","서울특별시 송파구 가락로18길 2 , 2층 (송파동)",127.110907,37.5019381
"삼성영어문정보습학원","서울특별시 송파구 송이로 202 , 3층일부 (문정동)",127.1281308,37.4897805
"숨연기학원","서울특별시 송파구 송파대로 447 , 4층 (석촌동)",127.0978335,37.5053594
"브래니악보습학원","서울특별시 송파구 마천로 10 , 4층 (방이동, 태영빌딩)",127.1438997,37.4989627
"엠존보습학원","서울특별시 송파구 마천로 70-16  2층 (오금동)",127.1348294,37.5038196
"어린이글쓰기학원","서울특별시 송파구 송이로32길 18 (문정동,에코타워)",127.1274345,37.4885561
"PI수학보습학원","서울특별시 강동구 양재대로89길 24 , 3층일부 (성내동)",127.1341387,37.5267968
"잉글리쉬메카보습학원","서울특별시 송파구 위례성대로16길 14 , 2층 (방이동, 청나빌딩)",127.1244437,37.5116273
"YPE건축학원","서울특별시 송파구 송파대로49길 4 , 4층 (석촌동,유라빌딩)",127.1038662,37.5079363
"삼성영어쎈수학러닝센터석촌보습학원","서울특별시 송파구 가락로11길 21 , 2층,3층일부 (석촌동)",127.1039595,37.5022108
"스카이독서실","서울특별시 송파구 위례성대로 178 , 4층 (오금동)",127.1306806,37.510183
"델타수학수리논술학원","서울특별시 강동구 고덕로62길 55 , 3층 3061호 (명일동,주양쇼핑)",127.1534256,37.552376
"대세보습학원","서울특별시 송파구 오금로 229  3층 (방이동)",127.1123174,37.5102474
"유스터디보습학원","서울특별시 송파구 가락로 268 , 2층,3층 (방이동)",127.1194076,37.511752
"이지로중국어보습학원","서울특별시 강동구 동남로71길 14 , 6층일부 (명일동,한양빌딩)",127.1553401,37.5519077
"송파컴퓨터전산회계학원","서울특별시 송파구 송파대로38길 2-9 , 202,203,204호 (송파동)",127.112434,37.5001123
"강남백우보습학원","서울특별시 송파구 송파대로 437 (석촌동",127.1035697,37.503517
"제이알(JR)빡쎈독서실","서울특별시 송파구 위례성대로22가길 16  2층 (오금동)",127.1328812,37.5089584
"재즈스퀘어실용음악학원","서울특별시 강동구 동남로71길 14 , 6층일부 (명일동,한양빌딩)",127.1553401,37.5519077
"강동스카이영어수학보습학원","서울특별시 강동구 고덕로 162 , 2층일부 (명일동)",127.1500409,37.5502209
"i에듀보습학원","서울특별시 송파구 올림픽로4길 42 ,  우성아파트상가2동 2층 (잠실동)",127.0733555,37.5064306
"리더스영어보습학원","서울특별시 강동구 양재대로 1584 , 4층 일부 (명일동, 동산빌딩)",127.1436254,37.5469675
"필로매스보습학원","서울특별시 송파구 백제고분로 235  3층 (삼전동)",127.0902051,37.5064371
"엘비디(LBD)댄스무용학원","서울특별시 송파구 석촌호수로 66 , 3층일부 (잠실동,동남빌딩)",127.0856036,37.5103626
"윤선생영어숲잠실보습학원","서울특별시 송파구 올림픽로35길 104 , 311호일부,312호일부,313호일부 (신천동,장미아파트 4동)",127.1015754,37.5190781
"이정영어보습학원","서울특별시 강동구 양재대로89가길 69 , 4층 (성내동,크로바빌딩)",127.1339278,37.523404
"꿈보습학원","서울특별시 송파구 오금로 520 , 3층 (거여동)",127.1436598,37.4984271
"조이매스창의력수학보습학원","서울특별시 송파구 올림픽로 435  파크리오B상가5층504호 (신천동)",127.112974,37.520094
"이지아이영재교육보습학원","서울특별시 송파구 위례성대로12길 11 , 2층 (방이동)",127.1225576,37.512545
"에이블어학학원","서울특별시 송파구 석촌호수로 135 , 상가A 5층일부(502,503호) (잠실동,레이크팰리스)",127.0945775,37.5097575
"플랜독서실","서울특별시 송파구 충민로2길 36  5층 (장지동)",127.1275847,37.4765454
"초아보습학원","서울특별시 송파구 동남로8길 13 ,  2층일부 (문정동)",127.1260592,37.4897796
"이영진선생님의정수학보습학원","서울특별시 송파구 위례성대로20길 32  3층 (오금동)",127.1269475,37.5087579
"아트앤하트송파장지미술학원","서울특별시 송파구 새말로 140  한송빌딩3층 (문정동)",127.1295127,37.4834366
"최재엽고등수학보습학원","서울특별시 송파구 올림픽로35길 112 , 402호 (신천동, 장미아파트)",127.1015754,37.5190781
"서강어학보습학원","서울특별시 송파구 거마로 51 ,  2층~4층전체,5층일부 (거여동)",127.1460451,37.4976172
"잠실매쓰펀학원","서울특별시 송파구 올림픽로35길 104 , 에이동 305호전체,306호314호일부 (신천동,장미아파트 4동)",127.1015754,37.5190781
"최강학원","서울특별시 송파구 새말로 140  201호 (문정동)",127.1294984,37.4834012
"강동남주희실용음악학원","서울특별시 강동구 양재대로 1589 , 5층 (천호동,동서울메디빌)",127.1429702,37.5474593
"아이앤비(i&B)음악학원","서울특별시 송파구 오금로44길 5  3층 (가락동)",127.1358701,37.4967386
"파란나라미술학원","서울특별시 송파구 풍성로14길 9 , 3층 (풍납동)",127.1165678,37.5334867
"쥬빌리프라임주니어(JUBILEEPRIME)어학학원","서울특별시 송파구 송이로34길 51 , 1층~4층 (문정동)",127.1279231,37.4844015
"이앤디영·수2관학원","서울특별시 강동구 동남로71길 32 , 501호 (명일동,환타지아)",127.1544861,37.5519709
"아이리드영어독서보습학원","서울특별시 송파구 삼전로 89 , 3층일부 (잠실동)",127.0894214,37.5065193
"청어람수고등관보습학원","서울특별시 송파구 위례성대로 52 (방이동)",127.1181059,37.5150961
"아이탑독서실","서울특별시 송파구 토성로 65 , 3층일부 (풍납동)",127.1173294,37.5288709
"비욘드어드밴스트어학학원","서울특별시 강동구 고덕로62길 55 , 3층 3059호. 3060호 (명일동,주양쇼핑)",127.1534256,37.552376
"뷰티서울미용학원","서울특별시 송파구 올림픽로35길 94 , 5층502호나503호 (신천동,)",127.0995,37.5200705
"와이비엠잠실러닝어학학원","서울특별시 송파구 삼전로 42 , 5층 6층 (삼전동)",127.0869512,37.5026176
"최강수학보습학원","서울특별시 강동구 명일로10길 7 (둔촌동)",127.1443384,37.5319089
"선사스터디뱅크독서실","서울특별시 강동구 올림픽로 793 , 3층일부.4층일부 (암사동)",127.1279048,37.5519713
"홍익미술학원","서울특별시 송파구 새말로8길 11  3층 (문정동)",127.1267499,37.4817356
"에듀이스트보습학원","서울특별시 강동구 명일로 212 , 2층 (길동)",127.1461621,37.5374834
"그레이프트리(Grape Tree)어학.놀이학원","서울특별시 강동구 명일로 271 , 2, 4층(어학), 3층(놀이) (길동 79)",127.1474756,37.5427659
"와이비엠잉글루영어보습학원","서울특별시 강동구 풍성로 136 , 상가동 304.305호 (성내동,삼성아파트)",127.1259006,37.5307363
"미술공간노란코끼리미술학원","서울특별시 송파구 올림픽로 435 ,  B동 505호일부 (신천동,파크리오상가)",127.1050113,37.5203318
"이엠에이(EMA)음악학원","서울특별시 송파구 동남로20길 25 ,  6층 (가락동)",127.134722,37.4955813
"와이비엠잉글루풍납보습학원","서울특별시 송파구 풍성로 46 ,   2층 (풍납동)",127.1174081,37.5339976
"비키키잉글리쉬(VIKIKIENGLISH)어학학원","서울특별시 강동구 강동대로 229 ,  2층 (성내동)",127.1316325,37.5228174
"이엔엠보습학원","서울특별시 송파구 토성로 33 ,  2 .3층 (풍납동)",127.1140737,37.5302657
"영선생드림영어보습학원","서울특별시 송파구 오금로32길 14 , 101동 2층 201호, 202호 (송파동,송파삼성래미안아파트)",127.1177657,37.504661
"학문의지향학원","서울특별시 송파구 중대로 304 2층(오금동)",127.1291211,37.5103481
"범블비미술학원","서울특별시 강동구 상암로 41 , 204호 (암사동,암사동양덱스빌암)",127.1281831,37.550138
"환희음악학원","서울특별시 강동구 아리수로93길 33 ,  6층1호 (강일동)",127.1735373,37.5658595
"푸른꿈피아노학원","서울특별시 송파구 백제고분로27길 11 ,  2층일부 (삼전동)",127.0927924,37.504144
"트리탑스잉글리쉬(TreeTopsEnglish)보습학원","서울특별시 송파구 오금로31길 16 ,  3층 (방이동)",127.1220249,37.5072212
"지앤비파크어학원","서울특별시 강동구 아리수로93길 33 , 602호 (강일동,베스트프라자)",127.1735373,37.5658595
"늘푸른수3관보습학원","서울특별시 송파구 위례성대로 92 ,   5층 (방이동,)",127.1222281,37.5136373
"와이즈키즈미술학원","서울특별시 송파구 송이로 18 ,  3층 (송파동,)",127.1161925,37.5002702
"딸기봐봐잠실어학학원","서울특별시 송파구 양재대로71길 4-27 , 2층 (방이동)",127.1265488,37.5115266
"무대광풍연기학원","서울특별시 송파구 가락로 153  2층 (송파동)",127.1099557,37.507002
"11월의약속보습학원","서울특별시 송파구 송이로31길 20  2층 (문정동)",127.1330017,37.4892469
"비엠아이(BMI)보습학원","서울특별시 송파구 풍성로 65  3층 (풍납동)",127.1197364,37.5336383
"헤르메스보습학원","서울특별시 강동구 천중로43길 72 ,  2층 (천호동)",127.1417861,37.5441321
"케이제트실용음악학원","서울특별시 송파구 동남로 117  3층 (가락동)",127.1239406,37.4905019
"송파사고력수학보습학원","서울특별시 송파구 가락로28길 11 ,  3층일부 (송파동)",127.1171151,37.5060574
"준미술학원","서울특별시 송파구 가락로 147  3층 (송파동)",127.1170541,37.5072986
"홍샘보습학원","서울특별시 강동구 암사길 37 ,  4층 (암사동)",127.1335862,37.5518726
"강일베스트독서실","서울특별시 강동구 아리수로93길 33 , 5층 (강일동)",127.1735373,37.5658595
"둔촌아이멕스영수보습학원","서울특별시 강동구 풍성로 245 , 2층 (둔촌동)",127.1390134,37.5282093
"뉴스마트독서실","서울특별시 강동구 동남로81길 32 ,  2층 3층 (고덕동)",127.1549307,37.5602016
"리라미술학원","서울특별시 강동구 상일로11길 25 ,  고덕주공아파트상가 사동2층 210,211,212호 (상일동)",127.1707281,37.552474
"튼튼영어마스터클럽상일보습학원","서울특별시 강동구 고덕로 390 ,  라동202 .203호 (상일동,고덕주공아파트복합상가)",127.1707281,37.552474
"이은재에스오에스(S.O.S Project)프로젝트어학학원","서울특별시 송파구 위례성대로 180 (오금동)",127.1309588,37.5100914
"톡앤팡미술학원","서울특별시 송파구 송파대로 378 , 6층 (송파동)",127.1167581,37.5041958
"스카이미술학원","서울특별시 강동구 양재대로 1589 ,  4층 (천호동)",127.1429702,37.5474593
"리틀소시에잠실미술학원","서울특별시 송파구 삼학사로 53 , 1필지4층일부 (삼전동)",127.0965961,37.5019827
"큰터보습학원","서울특별시 강동구 천중로17길 48 , 2층 (천호동)",127.1238849,37.5458784
"넥스트미술학원","서울특별시 송파구 송파대로 374 , 4층일부 (송파동)",127.1119305,37.504609
"키즈인아트미술학원","서울특별시 강동구 올림픽로91길 36 , 3층 (암사동)",127.1247561,37.5484078
"이준재언어논술보습학원","서울특별시 강동구 고덕로 133 , 롯데캐슬퍼스트아파트상가340-342호 (암사동)",127.141943,37.5563437
"서강독서실","서울특별시 송파구 거마로 51 , 5층일부 (거여동)",127.1460451,37.4976172
"그림숲미술학원","서울특별시 강동구 천중로15가길 1 , 3층 (천호동)",127.128635,37.5456306
"포스언어국어논술보습학원","서울특별시 강동구 양재대로 1330 , 외1필지주공아파트종합상가302호일부 (둔촌동)",127.1412158,37.5253118
"올림피아드독서실","서울특별시 송파구 삼전로 95 ,  4층일부 (잠실동)",127.0898316,37.5069289
"뮤직케이음악학원","서울특별시 송파구 삼전로 93 ,  2층 (잠실동)",127.0895773,37.5068143
"플랜잇김라미영어보습학원","서울특별시 송파구 위례성대로20길 32  3층 (오금동)",127.1269475,37.5087579
"일품독서실","서울특별시 송파구 위례성대로 184  4층 (오금동)",127.1312253,37.5098356
"해법영재보습학원","서울특별시 송파구 오금로 473  3층 (거여동)",127.1436598,37.4984271
"수학괴물보습학원","서울특별시 송파구 올림픽로 435  4층404호 (신천동)",127.109206,37.519219
"두드림연기뮤지컬학원","서울특별시 송파구 백제고분로41길 8 , 5층일부(501호) (송파동)",127.1085008,37.5069352
"이룸보습학원","서울특별시 송파구 백제고분로32길 6  2층 (삼전동)",127.0950202,37.5020166
"현대독서실","서울특별시 송파구 오금로36길 62  2층 (가락동)",127.1219007,37.498899
"씨엠에스보습학원","서울특별시 강동구 성안로 30 , 1층일부 (성내동)",127.1303173,37.5262867
"이사이퍼보습학원","서울특별시 송파구 삼학사로3길 39 , 302호 (삼전동)",127.0922957,37.4996781
"이수보습학원","서울특별시 송파구 올림픽로35길 104 , 2층201호202호 (신천동)",127.1015754,37.5190781
"지앤정단과보습학원","서울특별시 송파구 마천로 33  3층 (방이동)",127.1245823,37.5093478
"논리수학보습학원","서울특별시 송파구 올림픽로35길 104 , 3층311호 (신천동,장미비상가)",127.0446461,37.569165
"이지댄스무용학원","서울특별시 송파구 올림픽로12길 4  6층 (잠실동)",127.0827572,37.5112361
"개념원리수학보습학원","서울특별시 강동구 아리수로 427 , 중앙프라자 703호 (강일동)",127.1498654,37.5603879
"강일지일이삼공(G1230)보습학원","서울특별시 강동구 아리수로93길 33-9  강일프라자501호 (강일동)",127.1731758,37.5656884
"더선에듀보습학원","서울특별시 송파구 올림픽로 145 , 3A38호, 4B24호, 4B25호 (잠실동,리센츠)",127.0886646,37.5127117
"잠실프라임영어보습학원","서울특별시 송파구 석촌호수로 140  4층403호 (삼전동)",127.0924588,37.5070374
"프라임수학과학보습학원","서울특별시 강동구 아리수로93길 33-9  강일프라자601호 (강일동)",127.1731758,37.5656884
"신명실용음악학원","서울특별시 강동구 명일로 248 , 3층일부 (길동)",127.1472826,37.540738
"강동청산보습학원","서울특별시 강동구 양재대로 1518 , 2층 (길동)",127.1500017,37.5448295
"베이직클래스보습학원","서울특별시 송파구 올림픽로12길 48  301호 (잠실동)",127.0834567,37.5074085
"퍼팩트수학보습학원","서울특별시 강동구 양재대로 1603 , 5층일부 (천호동)",127.1433344,37.5487585
"아이쿤스트창작소미술학원","서울특별시 강동구 아리수로 427 , 중앙프라자 701호 (강일동)",127.1498654,37.5603879
"어린음악대자이온실용음악학원","서울특별시 강동구 아리수로93길 33-9  강일프라자802호 (강일동)",127.1731758,37.5656884
"김원장보습학원","서울특별시 송파구 새말로 148  2층 (문정동)",127.1302221,37.4839832
"조화형발레무용학원","서울특별시 송파구 올림픽로 119 ,  5층 5B18호 (잠실동,잠실파인애플상가)",127.0841274,37.5120434
"이챕터스영어리딩보습학원","서울특별시 강동구 고덕로 140 , 308-2호 (암사동,현대 대림아파트상가)",127.127573,37.550686
"비상보습학원","서울특별시 송파구 삼전로 92 , 5층일부 (삼전동)",127.0902051,37.5064371
"일대일플랜수학학원","서울특별시 송파구 가락로 208 , 3층305호 4층401호 (송파동,)",127.1119305,37.504609
"방과후독서실","서울특별시 송파구 오금로46길 68  3층 (가락동)",127.1311713,37.4925358
"메르센수학보습학원","서울특별시 강동구 동남로67길 38 , 3층 (명일동)",127.1536548,37.5488248
"도리미술학원","서울특별시 송파구 삼학사로 67  2층 (삼전동)",127.0967654,37.5033229
"뉴스마트보습학원","서울특별시 강동구 양재대로 1330 , 301호일부 (둔촌동,주공아파트종합상가)",127.1412158,37.5253118
"뮤엠영어강동보습학원","서울특별시 강동구 성내로9길 39 , 2층 (성내동)",127.1248722,37.53053
"장미열린보습학원","서울특별시 송파구 올림픽로35길 112 , 3층1호 (신천동,장미비상가 1동)",127.1015754,37.5190781
"문일지억두매쓰(Do Math)보습학원","서울특별시 송파구 오금로31길 15  5층 (방이동)",127.1217202,37.5072622
"강동청산고등부보습학원","서울특별시 강동구 양재대로 1517 , 2층 (천호동,남해빌딩)",127.140871,37.5412353
"최대치수학보습학원","서울특별시 송파구 위례성대로16길 11  2층 (방이동)",127.1249719,37.5116357
"삼성영어쎈수학러닝센터보습학원","서울특별시 송파구 성내천로 228-1 ,  3,4층 (마천동)",127.1566209,37.4922971
"바이닐실용음악학원","서울특별시 송파구 석촌호수로12길 53 ,  2.3층 (잠실동)",127.080501,37.508164
"영어리딩리더보습학원","서울특별시 송파구 오금로32길 28 ,  3층일부 (송파동)",127.1192395,37.5039152
"최선보습학원","서울특별시 강동구 상암로3길 8  2층 (암사동)",127.1268616,37.5507806
"예그린음악학원","서울특별시 강동구 상암로51길 61 , 3층일부(301호일부.302호) (명일동)",127.1462428,37.5488625
"주니퍼실용음악학원","서울특별시 송파구 석촌호수로 148  2층 (삼전동)",127.0933562,37.5069064
"북클럽스터디센터명일학원","서울특별시 강동구 상암로51길 61 , 2층일부(205호) (명일동,명일엘지아파트상가동)",127.1462428,37.5488625
"강일보습학원","서울특별시 강동구 아리수로93길 9 , 7층일부(702호703호) (강일동,골드프라자)",127.1743448,37.5652037
"아크로영어보습학원","서울특별시 강동구 동남로75길 13-25 ,  4층일부 (명일동)",127.1554565,37.5530312
"댄스엔스타일무용학원","서울특별시 송파구 동남로 167  태신빌딩5층 (가락동)",127.1285664,37.4929672
"고등서강독서실","서울특별시 송파구 오금로 500 , 외 1필지5.6층 (거여동)",127.1462058,37.4900434
"호로비츠음악학원","서울특별시 강동구 성내로3길 24  2층 (성내동)",127.1230541,37.5309139
"정철거마영어학원","서울특별시 송파구 성내천로 256-1 , 2층,3층일부 (마천동)",127.1530166,37.4976485
"천호청산보습학원","서울특별시 강동구 양재대로 1518 , (3,4층) (길동)",127.1408292,37.538845
"퍼스트스터디보습학원","서울특별시 강동구 양재대로 1584 ,  5층 일부 (명일동)",127.1500409,37.5502209
"메이저세븐(Major7)실용음악학원","서울특별시 송파구 백제고분로42길 4 ,  외1필지 4층일부 (송파동)",127.1096409,37.5059596
"수학의힘보습학원","서울특별시 강동구 양재대로 1584 , 5층일부 (명일동, 동산빌딩)",127.1436254,37.5469675
"아트뮤직슐레미술음악학원","서울특별시 강동구 진황도로 195  5층 (둔촌동)",127.1436269,37.528924
"쥬아트미술학원","서울특별시 송파구 오금로 407 ,  2층207호 (오금동)",127.136456,37.4982404
"명지연영어보습학원","서울특별시 강동구 동남로73길 26  3층310호 (명일동)",127.1547657,37.553266
"리케이온보습학원","서울특별시 송파구 오금로46길 25 , 5층일부 (가락동)",127.134788,37.4951619
"이은재8관보습학원","서울특별시 송파구 위례성대로 180 ,  8층 (오금동)",127.1309588,37.5100914
"최수진발레무용학원","서울특별시 강동구 아리수로 427 , 8층일부 802호 (강일동)",127.1498654,37.5603879
"김경희음악학원","서울특별시 송파구 백제고분로40길 11 , 2층 (석촌동)",127.106449,37.5036191
"핀스피치경영학원","서울특별시 송파구 올림픽로 100 ,   2층일부 (잠실동)",127.0842945,37.5061273
"김경아국어영어보습학원","서울특별시 강동구 고덕로 256 , 903호일부, 1001호 (명일동,명성프라자)",127.1500409,37.5502209
"트윈클무용학원","서울특별시 송파구 백제고분로50길 31 , 3층 (방이동,신일빌딩)",127.118177,37.5133819
"감실용음악학원","서울특별시 송파구 가락로 59 ,  4층 (석촌동)",127.0978335,37.5053594
"에이플러스미술학원","서울특별시 강동구 상암로 195 ,  (4층일부) (명일동)",127.1500409,37.5502209
"리틀쇼팽리센츠음악학원","서울특별시 송파구 한가람로 65 , 22-6 리센츠상가 3층 3A29호,3A30-1호,3A17호, 4층 4B07호",127.0869604,37.5119601
"타임실용음악학원","서울특별시 강동구 구천면로 405 ,  (3층일부) (명일동)",127.1500409,37.5502209
"봉에듀보습학원","서울특별시 송파구 위례성대로20길 33  4층 (오금동)",127.1271461,37.5085116
"행복한수학보습학원","서울특별시 송파구 위례성대로18길 24 , 3층 (방이동)",127.1143053,37.5164165
"브이아이피보습학원","서울특별시 송파구 오금로 190 , 3층 (송파동)",127.1119989,37.5096323
"학생이꿈꾸는세상보습학원","서울특별시 송파구 백제고분로 158 ,  3층 (잠실동)",127.0835957,37.5099127
"리드원오원보습학원","서울특별시 송파구 올림픽로 145 , 4층 4B08호 (잠실동,리센츠)",127.070073,37.5137734
"이앤윤플러스보습학원","서울특별시 송파구 오금로31길 15 , 2층 (방이동)",127.1217202,37.5072622
"디와이비최선어학학원","서울특별시 송파구 위례성대로 130 ,  1층~5층 (방이동)",127.1259435,37.5121232
"나비야놀자미술학원","서울특별시 송파구 올림픽로 145 , 3층일부(3A19호.3A20호) (잠실동,리센츠상가)",127.0869604,37.5119601
"한일보습학원","서울특별시 강동구 천호대로 1006 , 5층일부(에프506호.에프510호) (성내동,브라운스톤천호)",127.1237061,37.5380409
"한솔브레인학원","서울특별시 송파구 백제고분로 509 , 2층 (방이동,)",127.115159,37.5157813
"워릭프랭클린어학학원","서울특별시 송파구 백제고분로 170 , 3층일부.4층 (잠실동)",127.0842945,37.5061273
"현대에이스보습학원","서울특별시 송파구 마천로8길 15 ,  3층 (오금동)",127.1278887,37.5069015
"이챕터스(E-CHAPTERS)신천보습학원","서울특별시 송파구 올림픽로 119 , 5층 5B16호 (잠실동,잠실파인애플상가)",127.0841274,37.5120434
"엠비씨아카데미뷰티미용학원","서울특별시 강동구 천호대로157길 14 , 13층 (천호동,나비빌딩)",127.1271502,37.5382354
"마스터수학보습학원","서울특별시 송파구 마천로 35 ,  4층 (방이동)",127.1248569,37.5092777
"송파연세음악학원","서울특별시 송파구 백제고분로50길 41 ,  (2층일부) (방이동)",127.1191751,37.5129559
"연세영어보습학원","서울특별시 강동구 양재대로 1655 , (3층일부) (명일동)",127.1500409,37.5502209
"두두취미미술학원","서울특별시 송파구 백제고분로7길 32-19 (잠실동)",127.0827981,37.5099308
"위베스트영어보습학원","서울특별시 강동구 명일로 229 , 3층 (길동)",127.1463979,37.539235
"튼튼영어마스터클럽풍납보습학원","서울특별시 송파구 풍성로 48 , 3층 (풍납동)",127.1176438,37.533975
"글로벌퍼스트보습학원","서울특별시 송파구 양재대로71길 12 (방이동,태방빌딩)",127.1247895,37.511178
"하이든음악학원","서울특별시 강동구 명일로 172 , 2층일부(208호.209호) (둔촌동,푸르지오아파트상가동)",127.1467318,37.5340696
"강운수학보습학원","서울특별시 강동구 동남로71길 20-9 , (6층일부) (명일동)",127.1547888,37.5523209
"한맥논술보습학원","서울특별시 송파구 위례성대로18길 23 , 2층 (방이동)",127.1254734,37.5101455
"솔루션단과학원","서울특별시 송파구 토성로 52 ,  3층 일부 (풍납동)",127.1157145,37.5291959
"카펠라음악학원","서울특별시 송파구 백제고분로 328 ,  (2층) (석촌동)",127.0974409,37.5056519
"리더스메이트보습학원","서울특별시 송파구 올림픽로 119 , 4층 4B27호 (잠실동, 잠실파인애플상가)",127.0841274,37.5120434
"송파중앙무용학원","서울특별시 송파구 가락로 157 (송파동) 3층",127.1149081,37.5020627
"망고트리보습학원","서울특별시 송파구 올림픽로 435 , 5층 501-2호 (신천동)",127.1094588,37.5211214
"참조은보습학원","서울특별시 강동구 성안로 199 ,   (4층) (천호동)",127.1367316,37.5406559
"레마어학학원","서울특별시 송파구 위례성대로 202 ,  4층 (오금동)",127.1330148,37.5092369
"쌔니치보습학원","서울특별시 강동구 명일로 270 , (2층) (길동)",127.1477394,37.5425623
"윤선생영어숲고덕보습학원","서울특별시 강동구 고덕로62길 55 (명일동,주양쇼핑) 4층일부(4011호,4012호)",127.1534256,37.552376
"길동중앙피아노음악학원","서울특별시 강동구 천호대로193길 40 (길동,한림빌딩) 2층일부",127.1452318,37.536847
"파크리오이챕터스영어보습학원","서울특별시 송파구 올림픽로 435 (신천동,파크리오)상가B동 5층일부(502호)",127.112974,37.520094
"잠실청진보습학원","서울특별시 송파구 도곡로64길 24 , 2층 (잠실동)",127.0804537,37.5046469
"리딩플러스알파보습학원","서울특별시 송파구 동남로 217 , 4층일부 (가락동)",127.1317199,37.4967226
"미래독서실","서울특별시 강동구 천호대로 1194 , 2층일부, 3층일부 (둔촌동)",127.144105,37.5272032
"와이비엠잉글루문정제2보습학원","서울특별시 송파구 새말로 140 (문정동,한송빌딩)",127.1295127,37.4834366
"케이엘에이어학학원","서울특별시 송파구 강동대로3길 22 , 3층 (풍납동)",127.1154312,37.5281728
"퓨즈잠실실용음악학원","서울특별시 송파구 송파대로 451 , 3층 (석촌동)",127.0979671,37.5057235
"이엘패션디자인학원","서울특별시 강동구 올림픽로 688 (천호동,SHOW)",127.1251661,37.5426613
"디젤원미술학원","서울특별시 강동구 양재대로85길 15 , 4층 (성내동)",127.1338804,37.5242837
"제이스영어보습학원","서울특별시 송파구 동남로 194 , 3층 (가락동)",127.1306866,37.4947363
"리딩스타어학학원","서울특별시 송파구 석촌호수로 118 , 3층 (잠실동)",127.0900171,37.5073916
"한솔제과제빵학원","서울특별시 강동구 천호대로 995 (천호동,금복빌딩)",127.1256452,37.5439937
