"학원명","학원주소","lon","lat"
"서울간호학원","서울특별시 성북구 동소문로 113 , 4,5층 (동선동4가,태인빌딩)",127.0174094,37.5933933
"피플미술학원","서울특별시 성북구 동소문로22길 4 , 4층 (동선동1가)",127.0178362,37.5916313
"큰별음악학원","서울특별시 성북구 솔샘로4길 46   외 5필지 성신플라자 401호 4층 (정릉동)",127.0073678,37.6084254
"신글로리아음악학원","서울특별시 강북구 도봉로30길 34   2층 (미아동)",127.026935,37.6269767
"새서울음악학원","서울특별시 성북구 동소문로 298 , 3층 (하월곡동)",127.040531,37.6118768
"하얀나무미술학원","서울특별시 성북구 동소문로 122   2-3층 (동선동1가)",127.0172996,37.5923125
"학림독서실","서울특별시 성북구 한천로 592 , 2층 (석관동)",127.0616458,37.6121466
"샘독서실","서울특별시 강북구 삼각산로 110 , 2층 3층 (수유동)",127.0163285,37.640597
"숭덕독서실","서울특별시 성북구 정릉로31나길 4   2층 (정릉동)",127.0153193,37.6039869
"세영보습학원","서울특별시 성북구 동소문로20길 28-7   1층-4층 (동소문동5가)",127.0163051,37.5911292
"최선생중국어학원","서울특별시 강북구 솔샘로 199   2층 (미아동)",127.0147689,37.6203009
"슈베르트음악학원","서울특별시 강북구 한천로 981 , 3층 일부 (번동)",127.037216,37.6279206
"KEC보습학원","서울특별시 성북구 돌곶이로 186-1 (장위동)",127.0488662,37.6172982
"정석사관학원","서울특별시 성북구 아리랑로 117   3층 (정릉동)",127.0132933,37.6021796
"월드보습학원","서울특별시 성북구 돌곶이로 68 , 2층 일부 (석관동, 서울프라자)",127.0582742,37.609786
"백운음악학원","서울특별시 강북구 삼양로123길 1 , 3층 (수유동, 우리은행)",127.015417,37.6447584
"나무미술학원","서울특별시 성북구 장위로21다길 76 (장위동)",127.0468191,37.6168699
"으뜸보습학원","서울특별시 성북구 정릉로27길 25 (정릉동)",127.0132424,37.6049201
"안암보습학원","서울특별시 성북구 종암로19길 13   3층 (종암동)",127.0340422,37.5982002
"강북고려학원","서울특별시 강북구 삼각산로 90   2층 (수유동)",127.014083,37.6402394
"정음악학원","서울특별시 성북구 동소문로 88 , 3층 (동소문동5가)",127.0135727,37.5917408
"대일음악학원","서울특별시 성북구 보국문로16길 74   2층 (정릉동)",127.0104426,37.6129663
"왕월드컴퓨터학원","서울특별시 강북구 한천로 1088 , 3층 (수유동, 현진빌딩)",127.0226297,37.6431929
"스스로러닝센터종암예일학원","서울특별시 성북구 종암로5길 21 , 2층 (종암동)",127.0345557,37.5942191
"안선생보습학원","서울특별시 성북구 종암로 73 , 4층 일부 (종암동)",127.0349737,37.5968391
"제원속셈학원","서울특별시 성북구 성북로 17 (성북동1가)",127.0039089,37.5887961
"어린음악대성북원음악학원","서울특별시 강북구 도봉로33길 38   3층 (미아동)",127.0264618,37.621528
"강북세종학원","서울특별시 강북구 도봉로67길 35 , 4층 일부 좌측 (미아동,홍보빌딩)",127.0225015,37.6300513
"아이즈학원","서울특별시 성북구 서경로 55 , 4층 일부 (정릉동, 서륭빌딩)",127.0152147,37.608197
"글로리아음악학원","서울특별시 성북구 보문로29길 121 , 2층 (삼선동3가)",127.0122651,37.5852982
"에덴음악학원","서울특별시 강북구 삼양로49길 8 , 3층 (미아동, 고려학원)",127.0269077,37.6268335
"중앙영재보습학원","서울특별시 강북구 월계로37길 65   한진아파트 상가 2층 (번동)",127.0445725,37.6248067
"에델피아노음악학원","서울특별시 성북구 돌곶이로22가길 12   3층 (석관동)",127.0596086,37.6097669
"바로컴퓨터학원","서울특별시 강북구 삼양로118길 42 , 3층 (수유동)",127.0184086,37.6439733
"예지음악학원","서울특별시 강북구 인수봉로 132 , 2층 (수유동)",127.0138627,37.6315291
"NEW한솔보습학원","서울특별시 강북구 솔샘로47길 22   2층 (미아동)",127.0183805,37.6209626
"대성미용학원","서울특별시 성북구 도봉로 31 , 3층 (길음동)",127.0299196,37.6119369
"대광독서실","서울특별시 성북구 성북로2길 50 , 1층~3층 (동소문동1가)",127.008521,37.5898847
"샛별피아노학원","서울특별시 성북구 장위로48길 15 (장위동)",127.0557611,37.6147
"현대도배기술학원","서울특별시 강북구 도봉로53길 7 (미아동, 우원빌딩)",127.0253521,37.6267505
"칸타빌레음악학원","서울특별시 성북구 돌곶이로18길 14 (석관동)",127.0597607,37.6092059
"파란(보습)학원","서울특별시 성북구 정릉로52길 5   반석빌딩3층 (종암동)",127.0302173,37.6037498
"지영음악학원","서울특별시 성북구 아리랑로19길 20 (정릉동, 영신빌딩)",127.0122707,37.6025866
"한교위즈(wiz)어학원","서울특별시 강북구 도봉로71가길 11   2층 일부 (수유동)",127.0221713,37.6317362
"선화음악학원","서울특별시 강북구 한천로109길 47 , 2층 201호 (번동)",127.0416908,37.6274984
"리라미술학원","서울특별시 성북구 돌곶이로14길 12   2층 (석관동)",127.060416,37.6083425
"한올독서실","서울특별시 강북구 덕릉로40길 79   4층 (번동)",127.0335325,37.6343554
"스카이학원","서울특별시 강북구 노해로 96   2-4층 (수유동)",127.0231421,37.6438576
"탑플러스학원","서울특별시 강북구 오현로 22   2-3층 (미아동)",127.0269077,37.6268335
"라움음악학원","서울특별시 강북구 삼각산로 143-1   벽산아파트 상가B동 305호 (수유동)",127.0189389,37.6421703
"삼광보습학원","서울특별시 강북구 오패산로52길 35 , 2층, 3층 (미아동)",127.0320394,37.6244687
"박소정무용학원","서울특별시 강북구 한천로109길 57-15   3-4층 (번동)",127.0420225,37.6276029
"웅지독서실","서울특별시 강북구 오현로32길 4-8   동보프라자 5층 (번동)",127.0395223,37.628216
"신하버드독서실","서울특별시 강북구 도봉로13길 55   5층 (미아동)",127.0272877,37.6149535
"진무용학원","서울특별시 성북구 종암로 186   3층 (하월곡동)",127.0314391,37.6063828
"제일컴퓨터학원","서울특별시 성북구 정릉로31나길 8   1-2층 (정릉동)",127.0153188,37.6041139
"한신보습학원","서울특별시 성북구 동소문로 2 , 3층 (동소문동2가)",127.0070203,37.5885574
"돈암엘리트보습학원","서울특별시 성북구 동소문로 11 , 5층 (동소문동1가,세화빌딩)",127.0128821,37.5924212
"젠아이학원","서울특별시 강북구 삼양로 447 , 2층 (수유동)",127.0159155,37.6433056
"안암명문보습학원","서울특별시 성북구 안암로 95-3 , 2층전체 (안암동5가,우림빌딩)",127.0308316,37.5844223
"수유고려보습학원","서울특별시 강북구 한천로 1102   3층 (수유동)",127.0215096,37.6440072
"서정M학원","서울특별시 성북구 성북로8길 4   3층 (성북동)",127.0043319,37.5906171
"칸어학원","서울특별시 강북구 덕릉로 77   2-3층 (수유동)",127.022305,37.6347566
"하나보습학원","서울특별시 강북구 덕릉로 77   3층 (수유동)",127.022305,37.6347566
"새열린보습학원","서울특별시 강북구 한천로105길 33   3-4층 (번동)",127.0458356,37.6254884
"바른길학원","서울특별시 성북구 한천로 588 , 2층 (석관동)",127.061952,37.6118454
"수학나무학원","서울특별시 성북구 북악산로31길 39 (종암동)",127.0350495,37.5937145
"선광보습학원","서울특별시 강북구 덕릉로 148   2층 (번동)",127.0301735,37.634945
"한신이화음악학원","서울특별시 성북구 성북로4길 52   한신아파트 스카이플라자 동관 8층 1804호 (돈암동)",127.0109401,37.5942553
"서울탑보습학원","서울특별시 성북구 보문로 90-2 , 2층 (보문동4가)",127.0178481,37.5876272
"E.EDU[이.에듀]학원","서울특별시 강북구 인수봉로 288   2-3층 (수유동)",127.0109841,37.6443339
"금탑독서실","서울특별시 성북구 정릉로38마길 29   우성상가 제1동 401호 4층 (정릉동)",127.0155984,37.6009374
"수학사랑보습학원","서울특별시 강북구 솔매로 103 , 2층 (미아동)",127.0236543,37.6256683
"세종보습학원","서울특별시 성북구 솔샘로6길 46-9   외 2필지 1-2층 (정릉동)",127.0077141,37.6089536
"풀초롱웅변학원","서울특별시 성북구 돌곶이로22가길 12 , 4층 (석관동)",127.0596086,37.6097669
"예우전산세무회계학원","서울특별시 강북구 도봉로 129   동진빌딩 2층 (미아동)",127.027352,37.6239731
"대종학원","서울특별시 강북구 오현로 194   4-5층 (번동)",127.0398598,37.6288395
"염성훈수학학원","서울특별시 강북구 삼양로19길 206 , 6 (미아동,선경빌딩)",127.0179027,37.6155853
"신라보습학원","서울특별시 성북구 장위로38길 59   2층 (장위동)",127.0514119,37.6107492
"아주독서실","서울특별시 성북구 종암로9길 3   외 3필지 4층 (종암동)",127.0349468,37.5954135
"집현전독서실","서울특별시 강북구 도봉로53길 27   외 2필지 2-3층 (미아동)",127.0242353,37.6264624
"새연세음악학원","서울특별시 강북구 인수봉로77길 20   2-3층 (수유동)",127.0097297,37.6445117
"연세음악학원","서울특별시 강북구 오현로32길 30   2층일부 (번동)",127.0408025,37.6278615
"태고려보습학원","서울특별시 성북구 돌곶이로8가길 2   2-3층 (석관동)",127.061731,37.6069879
"스펀지영어수학학원","서울특별시 성북구 동소문로13길 4   4층 (동소문동6가)",127.0130521,37.5921491
"하얀나무인트로만화학원","서울특별시 성북구 보문로38길 11 , 314,315호 (동소문동5가,돈암 동일하이빌)",127.0145464,37.5915696
"메디칼간호조무사학원","서울특별시 강북구 도봉로 353   6-7층 (수유동)",127.0264291,37.6390985
"황제음악학원","서울특별시 성북구 동소문로34길 24 , 4층 403호, 404호 (돈암동, 돈암삼성아파트제B상가동)",127.0244944,37.5988123
"우등독서실","서울특별시 성북구 솔샘로4길 46   외 5필지 성신프라자 301호 302호 303호 3층 (정릉동)",127.0073678,37.6084254
"강북비상학원","서울특별시 강북구 인수봉로 132   3층 (수유동)",127.0138627,37.6315291
"송금천음악학원","서울특별시 성북구 한천로76길 73   외 2필지 중앙하이츠아파트 상가동 301호 302호 (석관동)",127.0665152,37.6116698
"한국아인스학원","서울특별시 성북구 보문로13길 24   2층 (보문동7가)",127.021576,37.5802006
"엠씨에이학원","서울특별시 성북구 보국문로 34   3-4층 (정릉동)",127.0105585,37.6074647
"투탑학원","서울특별시 성북구 아리랑로 89 , 301호 (돈암동,일신건영휴먼빌아파트)",127.01269,37.600683
"세현보습학원","서울특별시 성북구 성북로4길 52 한진A상가 417-1803 (돈암동)",127.0109401,37.5942553
"고려e학원","서울특별시 강북구 숭인로 3   3-4층 (미아동)",127.0224115,37.6114902
"씨알학당보습학원","서울특별시 성북구 화랑로48길 16  두산A주상가 201호2층 (석관동)",127.0687734,37.6126112
"소리샘음악학원","서울특별시 성북구 아리랑로7길 5   부성빌딩 2층 (동소문동7가)",127.014336,37.5973092
"스카이독서실","서울특별시 성북구 성북로4길 52   한진상가 417-1206 (돈암동)",127.0109401,37.5942553
"석계뉴플러스영어수학전문학원","서울특별시 성북구 한천로76다길 46 , 3층 전체 (석관동)",127.0652421,37.6130401
"쎄븐음악학원","서울특별시 성북구 화랑로5길 42   외 4필지 3층 (하월곡동)",127.0394652,37.6043904
"예진음악학원","서울특별시 성북구 보국문로30길 15   3층 (정릉동, 정릉대우아파트)",127.00341,37.6179734
"로코코피아노학원","서울특별시 성북구 인촌로 37   2층 (안암동2가)",127.0209157,37.5868309
"ECC성북어학학원","서울특별시 성북구 아리랑로 7   유담빌딩 2-3층 (동소문동6가)",127.0159738,37.5933295
"송현정미술학원","서울특별시 성북구 종암로24가길 53   SK아파트 상가 3층 (종암동)",127.0371572,37.6011427
"손선생보습학원","서울특별시 성북구 장위로38길 50-1   2층 (장위동)",127.0510542,37.6110014
"꿈나무음악학원","서울특별시 성북구 서경로 55   3층 (정릉동)",127.0152062,37.608183
"한솔독서실","서울특별시 강북구 삼양로 577   2-3층 (우이동)",127.0126504,37.6543925
"와이에이치학원","서울특별시 강북구 삼각산로 132   4층 (수유동)",127.0189941,37.6408138
"ECC석계어학학원","서울특별시 성북구 화랑로 254   대성프라자 3층 (석관동)",127.057766,37.6109475
"마루지학원","서울특별시 성북구 종암로 120 , 5층일부 (종암동,금강빌딩)",127.0342408,37.6008372
"뮤직스토리음악학원","서울특별시 강북구 도봉로 209   5층 (미아동)",127.0257236,37.6264891
"지혜보습학원","서울특별시 성북구 오패산로3길 133 , 2~3층 (하월곡동)",127.0329407,37.6088477
"제이디보습학원","서울특별시 성북구 장월로 76   3층 (장위동)",127.0489769,37.6124299
"참사랑보습학원","서울특별시 성북구 종암로21길 97   2층 (종암동)",127.0313014,37.602245
"우등생보습학원","서울특별시 성북구 화랑로13길 75   2층 (하월곡동)",127.0407,37.6063043
"성원아카데미보습학원","서울특별시 성북구 장월로1길 57   5층 (상월곡동)",127.0451954,37.605929
"제2세진학원","서울특별시 강북구 오패산로 396-1   4층 (번동)",127.0278211,37.6366178
"엘리트독서실","서울특별시 성북구 동소문로34길 25   6층 (돈암동)",127.0221275,37.5990914
"비상보습학원","서울특별시 강북구 한천로 982 (번동)",127.0387673,37.6320834
"토미음악학원","서울특별시 강북구 삼양로87길 51-1 , 3층 일부 (수유동, 천수빌딩)",127.0150103,37.6360808
"예일학원","서울특별시 강북구 삼양로87길 51-1   2층 (수유동)",127.0150103,37.6360808
"강북옥스포드학원","서울특별시 강북구 인수봉로 243-1   1-2층 (수유동)",127.0111582,37.6404348
"남림학원","서울특별시 성북구 북악산로 816   3층 (정릉동)",127.0152661,37.6002895
"마이스터플로리스트꽃기예학원","서울특별시 성북구 성북로5길 37-2   1-2층 (성북동1가)",127.002777,37.5892794
"줄리어드음악학원","서울특별시 강북구 덕릉로 146   2층 (번동)",127.0300265,37.6349168
"뉴턴학원","서울특별시 강북구 오현로31길 75   3층 (번동)",127.0367854,37.6313635
"성북대성N학원","서울특별시 성북구 장월로3길 1 , 3층 302호,304호 (상월곡동,동아다누프라자)",127.0470055,37.6078584
"올림포스학원","서울특별시 성북구 오패산로 40   4층 일부 (하월곡동)",127.0371494,37.6056024
"JK정석학원","서울특별시 성북구 아리랑로 117 , 3층 일부 (정릉동, 형제빌딩)",127.0132984,37.6022255
"시온보습학원","서울특별시 성북구 삼양로 66 , 2층 201호,202호 (길음동, 동부크리닉센타)",127.0232704,37.608951
"신흥학원","서울특별시 성북구 아리랑로7길 5   부성빌딩3층 (동소문동7가)",127.014336,37.5973092
"한샘N.B학원","서울특별시 강북구 숭인로 19-7   1-2층 (미아동)",127.0242776,37.6123093
"다다학원","서울특별시 강북구 인수봉로 243-1   3층 (수유동)",127.0111582,37.6404348
"강지현전문피아노학원","서울특별시 성북구 장위로15길 1   2층 (장위동)",127.0412482,37.614328
"삼선실용음악학원","서울특별시 성북구 보문로 148   4층 (삼선동5가)",127.0141489,37.5893497
"이노씽크보습학원","서울특별시 성북구 장위로 58 (장위동)",127.0429598,37.613786
"예랑미술학원","서울특별시 성북구 아리랑로7길 6   2층 (동소문동7가)",127.0157427,37.5935604
"석계에이스학원","서울특별시 성북구 화랑로40길 55 , 3층~5층 (석관동, 동성빌딩)",127.0646624,37.6136527
"와이즈만영재학원","서울특별시 성북구 아리랑로5길 26 , 4층 (동소문동7가,경향빌딩)",127.0138263,37.5968651
"그레이스음악학원","서울특별시 강북구 오현로32길 4-3   다전빌딩 4층 (번동)",127.03985,37.6283655
"KEC어학학원","서울특별시 성북구 돌곶이로 186-1 , 2,3층 (장위동)",127.0488662,37.6172982
"숭례음악학원","서울특별시 성북구 종암로9길 5   2층 (종암동)",127.0350878,37.5954606
"우이정수학원","서울특별시 강북구 삼양로 593   2-3층 (우이동)",127.012998,37.655783
"정릉대성학원","서울특별시 성북구 정릉로31나길 8   1층 (정릉동)",127.0153188,37.6041139
"정석학원","서울특별시 성북구 장월로 121   1-4층 (장위동)",127.0488562,37.6164773
"엘림학원","서울특별시 강북구 삼양로20길 4   2층 (미아동)",127.0234359,37.6158351
"스터디빌독서실","서울특별시 강북구 삼양로 455   4층 (수유동)",127.0157688,37.6438594
"YBM잉글루미아제1학원","서울특별시 강북구 오패산로30길 27   외 1필지 2층 (미아동)",127.0269077,37.6268335
"김성림무용학원","서울특별시 성북구 정릉로38길 4   3층 일부 (정릉동)",127.0186883,37.6021102
"희망독서실","서울특별시 강북구 도봉로98길 33   3층 (번동)",127.0318898,37.6414177
"웰컴plus학원","서울특별시 강북구 한천로109길 72 , 5층 (번동,세종빌딩)",127.0403365,37.6273585
"길음지앤비보습학원","서울특별시 성북구 길음로9길 40 , 상가동 201호 (길음동,래미안길음1차)",127.0207143,37.6054197
"포인트학원","서울특별시 성북구 정릉로38길 8   2층 (정릉동)",127.0186442,37.6018422
"푸른동아영재학원2관","서울특별시 성북구 돌곶이로22길 45 , 2-3층 (석관동)",127.0603206,37.6106142
"WOW독서실","서울특별시 성북구 보국문로8길 109   1층 (정릉동)",127.0128998,37.6111308
"엔탑학원","서울특별시 강북구 도봉로13길 78   2층 (미아동)",127.0270141,37.6150891
"소나타음악학원","서울특별시 성북구 종암로27길 37 , 301호 일부 (종암동, 삼성 래미안아파트)",127.0303523,37.600976
"이화학원","서울특별시 성북구 장위로 188   3층 (장위동)",127.0560104,37.6164779
"새으뜸독서실","서울특별시 성북구 동소문로15길 49   외 1필지 1-2층 (동소문동6가)",127.0139252,37.5945468
"TTT어학학원","서울특별시 성북구 화랑로 21   4층 (하월곡동)",127.0421794,37.6055757
"예스[yes]독서실","서울특별시 성북구 보문로30길 14   2-4층 (보문동1가)",127.0186284,37.5883932
"청수학원","서울특별시 강북구 삼각산로 76 , 2층 (수유동)",127.0126084,37.6399316
"고려학원","서울특별시 성북구 오패산로3길 72   2층 (하월곡동)",127.0348365,37.6064935
"가슴엔푸른바다미술학원","서울특별시 성북구 삼양로 84   외 1필지 2층 (길음동)",127.0225352,37.6108632
"플레잉아트음악학원","서울특별시 성북구 지봉로 179-1   3층 (보문동2가)",127.0186007,37.5852394
"제일석탑학원","서울특별시 성북구 보문로13라길 5 , 2층 (보문동6가)",127.0177956,37.5806752
"세진학원","서울특별시 강북구 한천로123길 14   2-3층 (번동)",127.0311309,37.6361629
"밀라노음악학원","서울특별시 강북구 인수봉로 293   1층 (수유동)",127.0105246,37.6448959
"위너스학원","서울특별시 성북구 정릉로52길 22   외 3필지 4층 (돈암동)",127.0292012,37.6035036
"자산학원","서울특별시 성북구 화랑로5길 42   외 4필지 3층 (하월곡동)",127.0394652,37.6043904
"스피드2관학원","서울특별시 성북구 오패산로 36   3층 (하월곡동)",127.0372387,37.605349
"아이아동미술학원","서울특별시 성북구 솔샘로 35   2층 (정릉동)",127.0049888,37.6106724
"스탭스포학원","서울특별시 성북구 아리랑로5길 24 , 4층 (동소문동7가)",127.014953,37.5963791
"수유연세음악학원","서울특별시 강북구 삼양로74가길 21   1-2층 (수유동)",127.0193388,37.630626
"청운독서실","서울특별시 성북구 북악산로 845   쌍용2차아파트상가 203동 101호 1-2층 (정릉동, 정릉쌍용아파트)",127.0163537,37.5996426
"황인학원","서울특별시 강북구 한천로 1063-1   2-3층 (수유동)",127.0243668,37.6414503
"황인독서실","서울특별시 강북구 한천로 1063-1   2-5층 (수유동)",127.0243668,37.6414503
"디딤돌신서울보습학원","서울특별시 성북구 한천로 509  코오롱아파트 상가3층 (석관동)",127.066407,37.60656
"예일S학원","서울특별시 성북구 장월로 175-1   5층 (장위동)",127.0535244,37.6196729
"길나무학원","서울특별시 성북구 종암로24가길 53 , 3층 307호, 308호 (종암동, 종암에스케이아파트주상가동)",127.0371572,37.6011427
"A+한가람학원","서울특별시 성북구 월계로40길 7   센트럴근린상가 403호 405호 (장위동)",127.048397,37.6228267
"윤선생우리집앞영어선명학원","서울특별시 성북구 화랑로 207   3층 (장위동)",127.050245,37.6179004
"상승학원","서울특별시 성북구 정릉로36길 3   3층 (정릉동)",127.0185651,37.6021758
"위브독서실","서울특별시 성북구 오패산로10길 30   영광프라자 401호 (하월곡동)",127.0384436,37.6050939
"에이스보습학원","서울특별시 강북구 한천로 994   2층 (번동)",127.0465744,37.6274325
"진성영어전문학원","서울특별시 강북구 도봉로98길 28   3층 (번동)",127.031135,37.6410826
"플레이스무용학원","서울특별시 성북구 동소문로22길 64   2층 (동선동2가)",127.0185037,37.5902132
"김인규보습학원","서울특별시 성북구 오패산로4길 32   은혜빌딩 3층 (하월곡동)",127.0394224,37.6041071
"제이에이앤비보습학원","서울특별시 성북구 화랑로25길 28   2층 (장위동)",127.0518963,37.6097935
"유씨[UC]어학원","서울특별시 성북구 오패산로10길 30 , 402호 일부 (하월곡동, 영광프라자)",127.0384436,37.6050939
"일등교육학원","서울특별시 강북구 삼양로 432  벉지 외 1필지 2층 (수유동)",127.0168174,37.6419382
"에코빌우등학원","서울특별시 성북구 장월로1길 28  동아에코빌아파트 상가 306호 (상월곡동)",127.0453013,37.607923
"이상숙어학원","서울특별시 성북구 오패산로 98 , 402호,501호,502호,503호 (하월곡동,로만플라자)",127.0356402,37.6108223
"성북메가스터디학원","서울특별시 성북구 아리랑로 17   민국빌딩 1-5층 (동소문동6가)",127.0158257,37.5943446
"성북이튼학원","서울특별시 성북구 장월로1길 28 , 204, 205호 (상월곡동, 동아에코빌아파트)",127.0453013,37.607923
"메이플브릿지어학원","서울특별시 성북구 숭인로2길 64  근생빌딩 4-5층 (길음동)",127.0236451,37.6086153
"하이스트미래탐구학원","서울특별시 성북구 정릉로 364   3-5층 (돈암동)",127.0235528,37.6015589
"동아현음악학원","서울특별시 성북구 장월로1길 28  동아에코빌아파트 상가 202 203호 2층 (상월곡동)",127.0452951,37.6079198
"세진에듀학원","서울특별시 강북구 노해로 102 , 2.3층 (수유동)",127.0235169,37.6443112
"ES보습학원","서울특별시 성북구 화랑로48길 16  두산아파트 주상가 309호 3층 (석관동)",127.0687734,37.6126112
"수재학원","서울특별시 강북구 솔샘로 224   2-3층 (미아동)",127.0175446,37.6198357
"하버드독서실","서울특별시 성북구 정릉로48길 35   서라벌상가 3층 (돈암동)",127.0277108,37.6025534
"금정학원","서울특별시 성북구 아리랑로 25 , 2층 (동소문동6가)",127.0132881,37.5921078
"플라즈마유레카학원","서울특별시 성북구 아리랑로 36 , 4층 전체 (동선동5가, 백산빌딩)",127.0154194,37.5970151
"매일학원","서울특별시 성북구 화랑로 305 , 4층 (장위동)",127.0618367,37.613806
"아이리슨보습학원","서울특별시 성북구 동소문로13길 33   1-2층 (동소문동4가)",127.011868,37.5930618
"수정음악학원","서울특별시 강북구 삼각산로34길 62   2층 (수유동)",127.0217064,37.6390189
"웃는아해미술학원","서울특별시 강북구 오현로 34   3층 (미아동)",127.0339046,37.6163756
"이레음악학원","서울특별시 성북구 오패산로 69   6층 (하월곡동)",127.0360087,37.6081637
"일신SKY학원","서울특별시 강북구 인수봉로 136   2-4층 (수유동)",127.0138206,37.6318856
"전진학원","서울특별시 성북구 보문로 183  논현빌딩 4층 (삼선동4가)",127.0147703,37.5901379
"삼각산샘독서실","서울특별시 강북구 삼양로19길 102   삼각산아이원플러스상가 4층 (미아동)",127.0269077,37.6268335
"번동뉴스터디학원","서울특별시 강북구오현로32길 4-3   4층일부 (번동)",127.03985,37.6283655
"이지피아노학원","서울특별시 강북구 삼양로19길 157 , 부상가 3층(301호) (미아동,에스케이북한산시티아파트)",127.012633,37.6173087
"강북알프레드음악학원","서울특별시 강북구 솔샘로 184   SK북한산시티A상가동1 215호 (미아동)",127.012633,37.6173087
"예솔음악학원","서울특별시 강북구 오패산로30길 10   2층 (미아동)",127.0348577,37.6147553
"청담성북어학원","서울특별시 성북구 동소문로 48 , 4층 (동소문동3가,동도빌딩)",127.0109965,37.5902974
"큰사람보습논술학원","서울특별시 성북구 아리랑로5길 12-3   2층 (동소문동7가)",127.0148847,37.5964083
"돈암연세음악학원","서울특별시 성북구 북악산로 844  돈암이수브라운스톤아파트 상가 501-3 5층 (돈암동)",127.0175498,37.5979283
"민숙경음악학원","서울특별시 성북구 장월로3길 1   3층 (상월곡동)",127.0470055,37.6078584
"애플플러스수학전문학원","서울특별시 강북구 삼양로 191   3층 (미아동)",127.0290393,37.6315505
"스타트보습학원","서울특별시 성북구 숭인로2길 64   3층 (길음동)",127.0236451,37.6086153
"길음티앤티스터디학원","서울특별시 성북구 삼양로 35   5층 (길음동)",127.0237435,37.6062013
"최강보습학원","서울특별시 성북구 북악산로 868   3-4층 (돈암동)",127.0203562,37.5984181
"어린이철학논술학원","서울특별시 성북구 아리랑로 28 , 제일빌딩 3층 (동선동5가)",127.0164988,37.5945647
"이보영의토킹클럽보습학원","서울특별시 성북구 숭인로2길 64   2층 (길음동)",127.0236451,37.6086153
"성북미래인학원","서울특별시 성북구 아리랑로 36 , 2층 전체 (동선동5가, 백산빌딩)",127.0154194,37.5970151
"대성독서실","서울특별시 성북구 장월로1길 57   4층 (상월곡동)",127.0451954,37.605929
"열린생각학원","서울특별시 성북구 종암로9길 3   아주빌딩 3층 일부 (종암동)",127.0352687,37.5955045
"힐탑수학학원","서울특별시 성북구 북악산로 850   2층 (정릉동)",127.0183767,37.598935
"청담클루빌고등학원","서울특별시 강북구 한천로124길 27   2층 (번동)",127.0328917,37.637729
"현대음악학원","서울특별시 성북구 정릉로36길 68   2층 (정릉동)",127.0148545,37.6023882
"윤선생영어숲석계보습학원","서울특별시 성북구 화랑로48길 16 , 202호,307호 (석관동, 두산아파트 주상가동)",127.0684313,37.612891
"탑클래스학원","서울특별시 성북구 솔샘로25길 20   풍림아이원@주상가 304 305호 3층 (정릉동)",127.007307,37.6186219
"잉글리쉬무무정릉제일보습학원","서울특별시 성북구 정릉로 274   2층 4층 (정릉동)",127.0137709,37.6031486
"성북종로학원","서울특별시 성북구 개운사길 35   1-5층 (안암동5가)",127.0289952,37.5879897
"참조은학원","서울특별시 강북구 삼양로27길 46 , 2층 (미아동 698-29)",127.0269077,37.6268335
"리틀피카소미술학원","서울특별시 성북구 장위로 132   2층 일부 (장위동)",127.0514481,37.6135175
"하버드보습학원","서울특별시 성북구 장위로 132   3층 일부 (장위동)",127.0514481,37.6135175
"서울연세음악학원","서울특별시 성북구 장위로 132   2층 일부 (장위동)",127.0514481,37.6135175
"강북뉴스터디학원","서울특별시 강북구 삼양로 161 , 5층 (미아동,신한은행삼양동지점)",127.0178887,37.6254501
"뉴타운길원학원","서울특별시 성북구 길음로15가길 3   4층 (정릉동)",127.0151045,37.6104013
"돈암이보영의토킹클럽보습학원","서울특별시 성북구 아리랑로 31-1   3층 (동소문동7가)",127.0148012,37.5963814
"제일지성보습학원","서울특별시 강북구 솔샘로 213-2   2-3층 (미아동)",127.0164719,37.6201772
"강북해법보습학원","서울특별시 성북구 월계로40길 7   센트럴근린상가 412 413호 (장위동)",127.048397,37.6228267
"능률주니어랩돈암학원","서울특별시 성북구 북악산로 844  브라운스톤돈암아파트 상가 403호4층 (돈암동)",127.0175498,37.5979283
"강북미래학원","서울특별시 성북구 오패산로 69   3층 (하월곡동)",127.0360087,37.6081637
"현음악학원","서울특별시 성북구 솔샘로25길 20   외 2필지 정릉풍림아이원 상가1동 205호 206호 215호 (정릉동)",127.0071747,37.6189872
"잉글리쉬무무종암제일보습학원","서울특별시 성북구 종암로9길 3   아주빌딩 5층 (종암동)",127.0352687,37.5955045
"앤트스터디학원","서울특별시 강북구 솔샘로 212   3층 (미아동)",127.0162181,37.6199246
"예명음악학원","서울특별시 성북구 동소문로13길 4   봉현빌딩 2층 (동소문동6가)",127.0130521,37.5921491
"세영교육보습학원","서울특별시 성북구 동소문로18길 24-22 (동소문동5가)",127.0158757,37.5915827
"서일영어학원","서울특별시 성북구 동소문로11길 44   1-2층 (동소문동4가)",127.0116435,37.5932582
"올림피아드사관학원","서울특별시 강북구 인수봉로76길 37   2-3층 (수유동)",127.0126828,37.6442391
"조샘수학학원","서울특별시 성북구 아리랑로 9   산맥프라자 501호 (동소문동6가)",127.0144101,37.5933169
"사고력수학시매쓰학원","서울특별시 성북구 동소문로 58 , 3층전체 (동소문동3가,경일빌딩)",127.0135727,37.5917408
"연세최강학원","서울특별시 강북구 삼양로112길 21   2층 (수유동)",127.0177435,37.642682
"에이엘학원","서울특별시 성북구 아리랑로 51-2 , 2층, 3층 (동소문동7가)",127.0142669,37.5961103
"이보영의토킹클럽성북종암학원","서울특별시 성북구 종암로9길 86 , 304호 (종암동, 종암2차 아이파크 상가)",127.0317967,37.5972265
"E.룸학원","서울특별시 강북구 삼양로117길 5 , 2층 (수유동)",127.0157037,37.6433804
"림(林)학원","서울특별시 성북구 종암로27길 13   도원프라자 501호5층 (종암동)",127.0314248,37.6025992
"지캠프성북석계학원","서울특별시 성북구 한천로 571   3층 (석관동)",127.062667,37.6105544
"예손필음악학원","서울특별시 성북구 보문로13마길 4   2층 (보문동6가)",127.0206086,37.5795002
"매리맥딜런미술학원","서울특별시 성북구 북악산로 844  브라운스톤돈암아파트 상가 402호4층 (돈암동)",127.0175498,37.5979283
"강남펜타스학원","서울특별시 성북구 동소문로 57 , 2층 전체 (동소문동4가)",127.0101661,37.5893885
"올패스독서실","서울특별시 성북구 숭인로2길 61   길음동동부센트레빌@중심상가 401호 402호 (길음동)",127.0244082,37.6103636
"윤선생영어숲종암학원","서울특별시 성북구 종암로27길 37 , 201호~204호 (종암동, 삼성 래미안아파트)",127.0303523,37.600976
"일류보습학원","서울특별시 강북구 삼양로80길 50 , 2층 (수유동)",127.0205922,37.6312861
"강남올림피아드황진수학학원","서울특별시 강북구 솔샘로 209   2-3층 (미아동)",127.0158881,37.6202138
"스텝(Step)영어학원","서울특별시 성북구 종암로19길 50 , 4층전체 (종암동)",127.0316952,37.5980737
"토토빌미술학원","서울특별시 성북구 종암로19길 50   3층 (종암동)",127.0316952,37.5980737
"수앤수보습학원","서울특별시 성북구 성북로2길 48 , 3-4층 (동소문동1가,김희정치과의원)",127.0083642,37.5897599
"쾰른음악학원","서울특별시 강북구 한천로124길 27   1층 (번동)",127.0328917,37.637729
"잉글리쉬무무번동제1학원","서울특별시 강북구 한천로109가길 4   3층 (번동)",127.0420875,37.6278341
"제이엔케이임팩트영어수학학원","서울특별시 성북구 월계로 52 , 5층 501-1호 (하월곡동, 에스엠메디칼)",127.0355496,37.6114424
"티큐에스생명과학원","서울특별시 강북구 삼양로 445   4-5층 (수유동)",127.0160392,37.6431174
"교일보습학원","서울특별시 강북구 삼각산로 130   401호 402호 4층 (수유동)",127.0186397,37.6407901
"닥터정이클래스학원","서울특별시 강북구 삼양로19길 206 , 5층 (미아동,선경빌딩)",127.0154644,37.6193901
"뉴욕잉글리쉬(NewYorkEnglish)학원","서울특별시 강북구 오현로 190   외 3필지 502호 (번동)",127.039396,37.6284375
"서강SLP성북어학원","서울특별시 성북구 동소문로 43 , 301호 (동소문동4가,흥화브라운 동소문빌딩)",127.0101324,37.590588
"에스엘에스수능학원","서울특별시 성북구 성북로2길 32 , 2,4층 (동소문동1가,청운빌딩)",127.0076494,37.5894421
"프라임수보습학원","서울특별시 성북구 동소문로13가길 66  현대아트빌 102호 (동소문동4가)",127.0096282,37.590758
"라래음악학원","서울특별시 강북구 삼양로116길 43   2층 (수유동)",127.0185129,37.6439706
"미래탐구성북학원","서울특별시 성북구 정릉로 376 , 4~5층 (돈암동, BR빌딩)",127.0252417,37.6020035
"하늘교육성북돈암학원","서울특별시 성북구 동소문로 190   외 2필지 (돈암동)",127.023636,37.6005277
"스트링앙상블음악학원","서울특별시 강북구 솔샘로 184 , 상가동1, 214호 (미아동,에스케이 북한산시티아파트 상가동1)",127.0128244,37.6199188
"월곡해법수학학원","서울특별시 성북구 오패산로10길 46   오성빌딩 5층 (하월곡동)",127.0391147,37.6047489
"생각하는걸리버미술학원","서울특별시 성북구 길음로 10   3층 (길음동)",127.0238663,37.6043435
"삼성보습학원","서울특별시 성북구 삼양로13길 45 , 4층 401,402호 (길음동,길음뉴타운 상가동)",127.0196517,37.6106816
"청담클루빌학원","서울특별시 강북구 한천로124길 13   1필지 2층 (번동)",127.0322881,37.6372654
"선한목자보습학원","서울특별시 강북구 삼각산로 144   2-3층 (수유동)",127.0202182,37.6409609
"쎈학원","서울특별시 강북구 오패산로 411   3층 (번동)",127.0264262,37.6372361
"올패스O2독서실","서울특별시 강북구 오패산로 130   4층 (미아동)",127.0277876,37.6317105
"황수석학원","서울특별시 강북구 도봉로28길 5   진영빌딩 4층 (미아동)",127.0249628,37.641582
"티칭플러스학원","서울특별시 강북구 삼양로 254   미아1차래미안아파트 상가 401호 (미아동)",127.0211029,37.6135298
"에이플러스(A+)보습학원","서울특별시 성북구 동소문로13길 12  세화빌딩 2층 (동소문동6가)",127.0128821,37.5924212
"챌린저영어학원","서울특별시 성북구 성북로4길 52   한진아파트 418동 서관 2209호 2210호 2층 (돈암동)",127.0109401,37.5942553
"김소영미술학원","서울특별시 강북구 도봉로10다길 10   외 1필지 2층 (미아동)",127.0269077,37.6268335
"성북폴리어학원","서울특별시 성북구 동소문로 63  드림트리빌딩 3층 (동소문동4가)",127.0120766,37.5917268
"오름독서실","서울특별시 성북구 종암로27길 18 , 3층 일부 (종암동)",127.0316005,37.6028475
"세종사관학원","서울특별시 성북구 종암로24가길 53   SK아파트 상가동 301호 (종암동)",127.0371572,37.6011427
"뉴마루독서실","서울특별시 강북구 삼양로 292 (수유동, 광은빌딩)",127.029768,37.6377492
"피아노스토리음악학원","서울특별시 강북구 한천로124길 13   1층 (번동)",127.0322881,37.6372654
"한국U.P.I학원","서울특별시 강북구 삼양로 424 , 2층 (수유동,정암빌딩)",127.0171185,37.6413568
"플레이히어로연기학원","서울특별시 성북구 동소문로 13   3층 (동소문동1가)",127.0060809,37.5894632
"명성학원","서울특별시 성북구 보국문로 86 , 2층 (정릉동)",127.0085627,37.6118324
"최강찬단과전문학원","서울특별시 성북구 종암로27길 18   2층 (종암동)",127.0316005,37.6028475
"강북세일학원","서울특별시 성북구 정릉로48길 13 , 1~5층, 6층일부 (돈암동,한국어린이교육선교회)",127.0267971,37.6033923
"삼성영어학원","서울특별시 강북구 덕릉로51가길 38   2층 (번동)",127.0334197,37.6379045
"행복한12월학원","서울특별시 성북구 아리랑로 25 , 4층 (동소문동6가)",127.0127872,37.5924884
"파워리딩영어독서전문학원","서울특별시 성북구 길음로 20 , 4층 407,408호 (길음동,길음뉴타운)",127.0231051,37.6047336
"지혜샘보습학원","서울특별시 강북구 삼양로93길 10 , 2층 (수유동,금호빌딩)",127.0166402,37.6375874
"최종호어학원","서울특별시 성북구 삼양로 49   외 1필지 2-3층 (길음동)",127.0232541,37.6075146
"자운독서실","서울특별시 강북구 노해로 95   2층 (수유동)",127.0226669,37.6439771
"아이잼성북어학원","서울특별시 성북구 정릉로 250   외 5필지 4층 (정릉동)",127.0113568,37.6042304
"DCTENGLISH학원","서울특별시 성북구 동소문로 75   외 3필지 201호 (동소문동6가)",127.0144101,37.5933169
"잉글리쉬무무길음제일학원","서울특별시 성북구 삼양로 80   3층 (길음동)",127.022672,37.610448
"YBM잉글루번동제1학원","서울특별시 강북구 한천로124길 9   3층 (번동)",127.03223,37.6371126
"하이클래스학원","서울특별시 강북구 한천로 1122 , 나동 2층 4층 (수유동, 영우빌딩)",127.0199495,37.6451106
"바론학원","서울특별시 성북구 삼양로 68   301호 일부 (길음동)",127.0231893,37.6091765
"일대일맞춤수학전문학원","서울특별시 강북구 한천로124길 9   2층 (번동)",127.03223,37.6371126
"영재제일보습학원","서울특별시 성북구 동소문로 167   3층 일부 (동선동4가)",127.0170041,37.5932534
"강북송중학원","서울특별시 강북구 도봉로 88   3층 일부 (미아동)",127.0269077,37.6268335
"씨앤씨성북미술학원","서울특별시 성북구 동소문로 34-7   2-3층 (동소문동3가)",127.0101614,37.5893137
"셀라음악학원","서울특별시 성북구 보문로29다길 7   대우푸르지오 상가 304호 305호 3층 일부 (삼선동3가)",127.0129315,37.583679
"캠퍼스보습학원","서울특별시 성북구 장월로 123   외1필지 2층 (장위동)",127.0489926,37.6166171
"종암와이(WHY)수학전문학원","서울특별시 성북구 종암로21길 128   외 1필지 5층 (종암동)",127.0304633,37.6034707
"헤럴드스쿨에치피이(herald school hpe)어학원","서울특별시 성북구 종암로 120 , 2층 일부 (종암동)",127.0344041,37.6008657
"아트앤제이미술학원","서울특별시 강북구 한천로109길 72   세조빌딩 4층 일부 (번동)",127.0403365,37.6273585
"상월곡잉글리쉬무무학원","서울특별시 성북구 장월로3길 1   103호-105호 (상월곡동)",127.0470055,37.6078584
"송중숙명음악학원","서울특별시 강북구 오패산로30길 21   2층 (미아동)",127.0269077,37.6268335
"박소정무용나라학원","서울특별시 성북구 삼양로 80   상신빌딩 2층 (길음동)",127.0226584,37.6104747
"잉글리쉬스트릿어학원","서울특별시 성북구 종암로27길 13   도원프라자 4층 7층 (종암동)",127.0314248,37.6025992
"하나요리학원","서울특별시 강북구 도봉로 168   6층 (미아동)",127.0274725,37.6238059
"평강학원","서울특별시 강북구 한천로 996   4층 (번동)",127.0469059,37.6267513
"최강한슬학원","서울특별시 강북구 오패산로30길 25   2층 (미아동)",127.034896,37.6151286
"피아노친구들음악학원","서울특별시 성북구 삼양로 80   상신빌딩 4층 (길음동)",127.0226584,37.6104747
"여미애논술영어전문학원","서울특별시 성북구 보문로13다길 5   2층 (보문동6가)",127.0203658,37.579973
"모차르트음악학원","서울특별시 성북구 월곡로14길 26  삼성래미안아파트 상가동 409호 410호 411호 (하월곡동)",127.0418506,37.5989462
"solomath수학전문학원","서울특별시 성북구 성북로2길 35   오륜빌딩 2층 (동소문동1가)",126.9271425,37.5202062
"고대학사학원","서울특별시 성북구 보국문로 21  외 1필지 4층 (정릉동)",127.0106805,37.6064647
"신화를창조하는아름미술학원","서울특별시 성북구 보문로38길 43   2층 (동소문동5가)",127.0161726,37.5909623
"키즈펀음악학원","서울특별시 강북구 한천로109길 57-22   2층 (번동)",127.0413009,37.6271573
"캣치영어학원","서울특별시 강북구 한천로 1122   영우빌딩 3층 (수유동)",127.0199495,37.6451106
"플립러닝학원","서울특별시 강북구 삼양로 231   3-4층 (미아동)",127.0224784,37.6275741
"올리버수학전문학원","서울특별시 성북구 오패산로 98   401호 (하월곡동)",127.0356402,37.6108223
"Why수학전문학원","서울특별시 성북구 안암로1길 22   2층 (보문동7가)",127.0232563,37.5796195
"프뉴마발레학원","서울특별시 성북구 종암로21길 25   3층 (종암동)",127.0335709,37.5997101
"성진학원","서울특별시 강북구 덕릉로 37   3층 (수유동)",127.0178145,37.6343625
"윤선생영어학원","서울특별시 강북구 삼양로 454   3층 (수유동)",127.0162381,37.643848
"에스에스학원","서울특별시 성북구 한천로 509  코오롱아파트 상가 201호-203호 (석관동)",127.0656478,37.6062279
"탑올투원학원","서울특별시 성북구 동소문로20가길 12 , 6층 일부 (동선동1가)",127.017161,37.5922645
"아발론랭콘성북어학원","서울특별시 성북구 동소문로 203   4-6층 (돈암동)",127.0109401,37.5942553
"에듀플렉스돈암학원","서울특별시 성북구 아리랑로 15  원효빌딩 3층 (동소문동6가)",127.0134454,37.5922073
"프레임학원","서울특별시 성북구 성북로 62   2층 (성북동)",127.0021523,37.5930675
"영음악학원","서울특별시 성북구 오패산로 98   로만프라자 403호 (하월곡동)",127.0356402,37.6108223
"SKA플러스보습학원","서울특별시 성북구 종암로22길 31 , 1층 (종암동,연자빌딩)",127.035785,37.6001382
"최강독서실","서울특별시 성북구 월계로40길 7   센트럴근린상가 501호-503호 (장위동)",127.048397,37.6228267
"유포니뮤직아카데미학원","서울특별시 성북구 월계로40길 7   센트럴근린상가 510호 510-1호 511호 (장위동)",127.048397,37.6228267
"수와식학원","서울특별시 강북구 도봉로 201   2층 (미아동)",127.0286479,37.6324645
"정음음악학원","서울특별시 성북구 월계로40길 7 ,  401,406호 (장위동,센트럴타운근린생활시설)",127.048397,37.6228267
"에쓰엔피어학원","서울특별시 성북구 오패산로10길 30 , 304-1호,305호 (하월곡동,영광프라자)",127.0384436,37.6050939
"에파타학원","서울특별시 강북구 도봉로 177 , 3층 (미아동,성북체육관)",127.0290393,37.6315505
"강북우리학원","서울특별시 성북구 동소문로 190   중앙빌딩 401호 (돈암동)",127.023636,37.6005277
"잉글리쉬무무미아제2학원","서울특별시 강북구 삼양로 254 (미아동, 래미안미아1차아파트상가)",127.0240532,37.6306885
"아이탑독서실","서울특별시 성북구 보국문로16길 14 (정릉동)",127.0096407,37.610571
"잉글리쉬무무월곡제1학원","서울특별시 성북구 오패산로 51   3층 (하월곡동)",127.0364962,37.6067233
"옳은학원","서울특별시 성북구 월계로40길 7 , 411호,504호,505호 (장위동,센트럴타운근린생활시설)",127.048397,37.6228267
"피엔피영수보습학원","서울특별시 성북구 동소문로 189   2층3층 (돈암동)",127.0215083,37.5988151
"ESL영어스터디학원","서울특별시 성북구 오패산로3길 17 , 202호,203호,204호 (하월곡동, 동신아파트상가동)",127.0353254,37.6044161
"성북영재학원","서울특별시 강북구 도봉로33길 38 , 2층 (미아동,성북피아노학원)",127.0269077,37.6268335
"미술로생각하기학원","서울특별시 성북구 아리랑로 31-1   2층 (동소문동7가)",127.0148847,37.5964083
"킨더포르쉔학원","서울특별시 성북구 성북로2길 55   우리빌딩 3층 (동소문동1가)",127.0085759,37.5901041
"예원보습학원","서울특별시 성북구 화랑로38길 21   3층 (석관동)",127.059742,37.6110502
"뷰티앤리더미용학원","서울특별시 강북구 도봉로 41-1   2층일부 4층일부 (미아동)",127.0269077,37.6268335
"뮤즈아덴음악학원","서울특별시 성북구 동소문로 167   2층 (동선동4가)",127.0169844,37.5931208
"잉글리쉬무무번동제2학원","서울특별시 강북구 한천로 981   3층 일부 (번동)",127.037216,37.6279206
"새서울ESL어학원","서울특별시 강북구 삼양로19길 164   2층 일부 (미아동)",127.0157492,37.6173393
"으뜸정보처리인터넷학원","서울특별시 성북구 동소문로 125   골든타워 13층 (동선동4가)",127.018076,37.5939211
"윤선생영어숲성북중앙보습학원","서울특별시 성북구 보문로30길 36   3층 (안암동1가)",127.0193868,37.5890095
"큰글학원","서울특별시 성북구 종암로22길 15 , 2층,3층 (종암동)",127.0351831,37.5999143
"벽산음악학원","서울특별시 강북구 솔샘로 167 , 104호,105호 일부,106호 (미아동,벽산라이브파크)",127.0122204,37.6211009
"에스엔에이치(S&H)학원","서울특별시 성북구 동소문로34길 24   돈암삼성아파트 B상가 4층 401호 (돈암동)",127.0233899,37.599028
"인수학원","서울특별시 강북구 인수봉로 280-1   1-2층 (수유동)",127.0110546,37.6438011
"SJ댄스학원","서울특별시 성북구 화랑로 309   3층 (장위동)",127.0489427,37.6234718
"초이스앤유(NU)학원","서울특별시 강북구 솔샘로 184 , 상가동 104,105호 (미아동,에스케이 북한산시티아파트)",127.012633,37.6173087
"윤선생영어숲정릉학원","서울특별시 성북구 정릉로36길 80   송현빌딩 4층 (정릉동)",127.014181,37.6025357
"명성간호조무사학원","서울특별시 성북구 동소문로 225   3층 4층 (길음동)",127.0219853,37.6021718
"정우종수학전문학원","서울특별시 성북구 오패산로4길 32 (하월곡동,은혜타워)",127.0356016,37.6084474
"올림포스영수전문학원","서울특별시 성북구 삼양로13길 45   뉴타운상가동 3층 306호 307호 308호 (길음동)",127.0196517,37.6106816
"남주희음악학원","서울특별시 강북구 덕릉로41길 15  수유역두산위브아파트 206동201호-204호 (번동)",127.043364,37.6257387
"1st강북보습학원","서울특별시 강북구 한천로 981   2층 (번동)",127.0465744,37.6274325
"아이비실용음악학원","서울특별시 성북구 동소문로20가길 51   4층 (동선동1가)",127.0173191,37.5916282
"윤선생영어숲정릉북부보습학원","서울특별시 성북구 서경로 75 (정릉동)",127.0148233,37.6099088
"눈높이러닝센터월곡학원","서울특별시 성북구 오패산로 46   두산위브아파트 상가동 206호 207호 208호 (하월곡동)",127.0380419,37.6067317
"M뮤직아카데미학원","서울특별시 성북구 동소문로 7-3   2-3층 (동소문동1가)",127.0075191,37.5893626
"크로스실용음악학원","서울특별시 성북구 동소문로 124 (동선동1가)",127.0190033,37.5935566
"태희음악학원","서울특별시 성북구 북악산로 851   E편한세상 상가 304호 306호 (정릉동)",127.0193858,37.599785
"멜리사영어전문학원","서울특별시 성북구 정릉로 251   3층 (정릉동)",127.0119116,37.6046666
"에듀모아수학학원","서울특별시 성북구 아리랑로5길 45   201호 202호 (돈암동)",127.0126983,37.5968973
"리안학원","서울특별시 성북구 종암로 132 , 2층 211-1호, 211-2호, 212-1호 (종암동, 종암우림카이저팰리스)",127.0334909,37.6019481
"RM실용음악학원","서울특별시 강북구 도봉로 90   3층 (미아동)",127.0290393,37.6315505
"소피스트학원","서울특별시 성북구 동소문로 48  동도빌딩 5층 일부 (동소문동3가)",127.0109965,37.5902974
"성북CNC미술학원","서울특별시 성북구 동소문로 36  소석빌딩 4-5층 (동소문동3가)",127.01008,37.5899022
"CM뮤직보컬아카데미학원","서울특별시 성북구 삼선교로10길 47   2층 (삼선동2가)",127.010012,37.585975
"퀸실용음악학원","서울특별시 강북구 도봉로 170   5층 (미아동)",127.0276615,37.6310418
"PnJ학원","서울특별시 강북구 노해로23길 73 , 3층 (수유동)",127.0195505,37.6459822
"21C독서실","서울특별시 강북구 도봉로 164 (미아동, 명해빌딩)",127.0276297,37.6233899
"고려아카데미학원","서울특별시 강북구 오현로 156  해모로아파트 상가동 301호 302호 3층 (번동)",127.0373569,37.6263134
"수리수리수학과학학원","서울특별시 성북구 솔샘로25길 20   외 2필지 정릉풍림아이원 상가1동 209호 (정릉동)",127.0071747,37.6189872
"샘앤클로이영어학원","서울특별시 성북구 성북로4길 52  417동 1903호(돈암동한진아파트)",127.0109401,37.5942553
"뮤즈음악학원","서울특별시 성북구 종암로23길 17   원진프라자 302호 (종암동)",127.0329978,37.5995396
"성북정상어학원","서울특별시 성북구 길음로 20 , 2층 203호,204호,206호,207호 (길음동,길음뉴타운)",127.0231051,37.6047336
"빈스음악학원","서울특별시 강북구 오패산로30길 31   2층 (미아동)",127.0269077,37.6268335
"윤선생영어숲장위학원","서울특별시 성북구 한천로101길 36   205호-207호 (장위동)",127.0488203,37.6225004
"개념원리수학학원","서울특별시 강북구 한천로109길 72   4층 (번동)",127.0403365,37.6273585
"윤선생영어숲장위장곡학원","서울특별시 성북구 장위로 122   2층 (장위동)",127.050139,37.6132249
"원더랜드패미리[wonderland Family]어학원","서울특별시 성북구 동소문로3길 124   2-3층 (동소문동4가)",127.0111407,37.5918051
"미술재미성북학원","서울특별시 성북구 종암로 115   동우빌딩 5층 (종암동)",127.0335465,37.600365
"포널스간호학원","서울특별시 강북구 도봉로 177 , 3층일부 (미아동)",127.0269077,37.6268335
"필드럼뮤직학원","서울특별시 강북구 삼양로 183 , 지하1층 (미아동)",127.0269077,37.6268335
"윤선생영어숲번동학원","서울특별시 강북구 한천로109길 27   2층 (번동)",127.0425036,37.6281627
"청담강북어학원","서울특별시 강북구 삼양로27길 35-21 , 5층 501,502,504,505호 (미아동,미아프라자)",127.0188808,37.6179181
"와룡독서실","서울특별시 성북구 종암로21길 37-6   3층 (종암동)",127.0331481,37.6002653
"청담에이프릴어학원","서울특별시 강북구 삼양로27길 35-21 , 1층(101호),2층(203호),4층(401,402호) (미아동,미아프라자)",127.0188808,37.6179181
"숙명음악학원","서울특별시 강북구 삼양로27길 35-21   미아프라자4층 405호 (미아동)",127.0188996,37.6179214
"개념원리수학종암학원","서울특별시 성북구 종암로19길 16   4층 401호 (종암동)",127.0338313,37.5983994
"예인무용학원","서울특별시 성북구 삼양로 34   서울빌딩 2층 (길음동)",127.024178,37.6061966
"강북분석수학학원","서울특별시 강북구 삼양로27길 35-21   미아프라자 5층 503호 (미아동)",127.0188808,37.6179181
"프라임학원","서울특별시 성북구 성북로2길 35   4층 (동소문동1가)",127.0078711,37.5896795
"골든벨독서실","서울특별시 성북구 보국문로 91   2층 (정릉동)",127.0077547,37.6123806
"해우아동미술학원","서울특별시 성북구 정릉로8다길 4 , 1층 (정릉동)",126.9981966,37.6083002
"이엠스터디학원","서울특별시 강북구 인수봉로 144 , 2-3층 (수유동)",127.0137779,37.6324619
"삼선학원","서울특별시 성북구 성북로2길 35   오륜빌딩 3층 (동소문동1가)",126.9271425,37.5202062
"드로잉공간미술학원","서울특별시 강북구 삼양로 522   3층 (우이동)",127.0138534,37.6495496
"이튼앤뉴튼학원","서울특별시 성북구 월곡로14길 24   월곡래미안루나밸리 상가동 204호 205호 306호 (하월곡동)",127.0418506,37.5989462
"뉴뮤즈음악학원","서울특별시 강북구 오현로34길 12 , 3층 일부 (번동)",127.0400174,37.6285615
"이지댄스학원","서울특별시 강북구 도봉로13길 22   2층 (미아동)",127.0283004,37.6236496
"박미술학원","서울특별시 성북구 정릉로 326   5층 (정릉동)",127.0193099,37.6020315
"보문박실음악학원","서울특별시 성북구 지봉로24길 31   4층 (보문동5가)",127.0196248,37.5838134
"아이들의창작공간다름미술학원","서울특별시 강북구 솔샘로 184   SK북한산시티아파트 상가동1 109호1층 (미아동)",127.012633,37.6173087
"내일능력개발평생교육학원","서울특별시 성북구 동소문로44길 17 , 102동 203호,204호,205호일부 (하월곡동, 성북힐스테이트)",127.0300189,37.6064198
"좋은소리실용음악학원","서울특별시 성북구 보국문로 66 , 2층,3층 (정릉동)",127.0095384,37.610262
"허브독서실","서울특별시 강북구 인수봉로 59   2층 (미아동)",127.0121726,37.6251799
"임혜연영어전문학원","서울특별시 성북구 삼양로 47 , 2층 전체 (길음동, 정일빌딩)",127.0232973,37.6074195
"강북성북캠퍼스토피아어학원","서울특별시 성북구 삼양로 32 , 1층일부,2층,3층 (길음동,중영빌딩)",127.0243611,37.6060848
"해법영어인수보습학원","서울특별시 강북구 인수봉로77길 20   3층 (수유동)",127.0097297,37.6445117
"아이가답이다미술학원","서울특별시 성북구 아리랑로16길 20 , 1-2층 (돈암동)",127.0147895,37.6001909
"타임투잉글리쉬학원","서울특별시 성북구 북악산로 850   3층 (정릉동)",127.0183767,37.598935
"스마트러닝성북학원","서울특별시 성북구 동소문로47길 19   금성영빌딩 5층 (길음동)",127.0284525,37.6090019
"We수학전문학원","서울특별시 성북구 종암로28길 72-8   2층 (종암동)",127.0349331,37.6002447
"강북에듀탑학원","서울특별시 강북구 숭인로 69-1   1층 (미아동)",127.0293943,37.6125254
"뉴모짜르트음악학원","서울특별시 성북구 길음로13길 24 , 502호  (길음동,길음뉴타운프라자상가)",127.0186795,37.6095887
"마음미술학원","서울특별시 강북구 솔샘로 315   3층 (미아동)",127.0272959,37.617362
"이든보습학원","서울특별시 성북구 보국문로 18   2층 (정릉동)",127.0112792,37.6061534
"김샘학원","서울특별시 성북구 동소문로35길 42 , 5층,6층 (돈암동,무림빌딩)",127.0215932,37.6006332
"이정수수학학원","서울특별시 강북구 인수봉로 126   신풍빌딩 2층 (수유동)",127.0138735,37.6308859
"잉글리시무무석관제1학원","서울특별시 성북구 돌곶이로22길 53   3층 (석관동)",127.060803,37.610709
"위너스메릭스학원","서울특별시 성북구 서경로18길 6 , 2.3층 (정릉동)",127.0150511,37.6103279
"한세보습학원","서울특별시 강북구 도봉로 102 , 3층 (미아동,한세학원)",127.0269077,37.6268335
"에프터스쿨학원","서울특별시 성북구 동소문로 58   5층 (동소문동3가)",127.0101406,37.5894297
"국어세움학원","서울특별시 성북구 길음로 20 , 5층 513호 (길음동, 길음뉴타운 상가동)",127.0231051,37.6047336
"강북에스엘피어학원","서울특별시 강북구 솔샘로 330   2층 (미아동)",127.028587,37.6169483
"아이비학원","서울특별시 강북구 삼양로 254   래미안미아1차아파트 상가동 201호 2층 (미아동)",127.0269077,37.6268335
"와이비엠잉글루영어학원","서울특별시 성북구 월계로40길 7   센트럴근린상가4층 402호 (장위동)",127.048397,37.6228267
"눈높이러닝센터장위학원","서울특별시 성북구 장월로 111-1   2층 (장위동)",127.0482698,37.6158328
"큐맥스학원","서울특별시 성북구 보국문로 94 , 2층전체 (정릉동)",127.0080988,37.6125637
"프라임독서실","서울특별시 성북구 오패산로 98-8   4층 (하월곡동)",127.0357437,37.6110556
"눈높이러닝센터한신한진스카이학원","서울특별시 성북구 성북로4길 52  417동 1802호(돈암동한신한진아파트상가)",127.0109401,37.5942553
"고대보습학원","서울특별시 강북구 오패산로 168   2층 (미아동)",127.0286479,37.6324645
"예원필음악학원","서울특별시 성북구 종암로27길 25 (종암동)",127.0311993,37.6025181
"허브(Hub)수학보습학원","서울특별시 성북구 정릉로 378 , 2-4층 (돈암동,돈암동 클리닉센터)",127.023636,37.6005277
"최강플러스학원","서울특별시 성북구 동소문로13길 13 , 2층 (동소문동4가, 성환빌딩)",127.0101661,37.5893885
"경희예성피아노학원","서울특별시 강북구 삼양로 424 , 2층 (수유동, 정암빌딩)",127.0171185,37.6413568
"수유프라임학원","서울특별시 강북구 수유로 9 , 2층,3층 (수유동,동아빌딩)",127.0180758,37.6318977
"눈높이러닝센터삼양학원","서울특별시 강북구 솔샘로 249-1   3층 (미아동)",127.0204578,37.6197707
"다빈치미술학원","서울특별시 성북구 보국문로 72 , 2층 (정릉동,야긴빌딩)",127.0091911,37.6108249
"사람인학원","서울특별시 성북구 동소문로15길 1   4층 (동소문동6가)",127.0138809,37.5923263
"조이앤플레이음악학원","서울특별시 성북구 인촌로17가길 78   래미안안암상가 2층 202호 (안암동1가)",127.0236311,37.5893384
"씨엠에스(CMS)학원","서울특별시 성북구 동소문로 75   3필지 501호 5층 (동소문동6가)",127.0136786,37.5922931
"한솔브레인학원","서울특별시 성북구 도봉로 11 , 2층일부 (길음동)",127.0298456,37.6102252
"튼튼영어마스터클럽돈암학원","서울특별시 성북구 성북로4길 52   한진아파트 418동 서관 2101호 1층 (돈암동)",127.0109401,37.5942553
"마인플러스학원","서울특별시 강북구 삼양로74길 81   2층 (수유동)",127.0224088,37.6303794
"은하독서실","서울특별시 성북구 삼선교로24길 55   외 3필지 3층 (삼선동5가)",127.0170606,37.5880116
"조이음악학원","서울특별시 성북구 정릉로 378   1층 (돈암동)",127.0261274,37.603171
"퍼펙트학원","서울특별시 성북구 정릉로26길 21   4층 (정릉동)",127.0115512,37.6039995
"창조의아침미술학원","서울특별시 성북구 아리랑로 9 , 7층전체 (동소문동6가, 산맥프라자)",127.0144101,37.5933169
"탑픽학원","서울특별시 성북구 길음로 20 , 두산위브상가 220호, 221호, 222호 (길음동,길음뉴타운)",127.0230189,37.6047095
"에버뮤직스쿨실용음악학원","서울특별시 성북구 화랑로40길 43   2층 (석관동)",127.0640103,37.6135403
"강북세일독서실","서울특별시 성북구 정릉로48길 13   6층 (돈암동)",127.0267937,37.6032324
"조은음악학원","서울특별시 성북구 정릉로52길 5   외 2필지 성산빌딩 4층 일부 (종암동)",127.0302173,37.6037498
"개념원리수학잉글리쉬무무학원","서울특별시 강북구 삼각산로 138   2-3층 (수유동)",127.0195585,37.6408869
"GnB영어학원","서울특별시 강북구 삼양로19길 25  래미안트리베라104동 지층1-1 1-2 상가동2층 (미아동)",127.0203693,37.6173606
"아이테크컴퓨터학원","서울특별시 성북구 보문로 104   외 1필지 3층 (보문동1가)",127.0201074,37.5844031
"강일학원","서울특별시 강북구 도봉로15길 11   외 1필지 3층 (미아동)",127.0269077,37.6268335
"마일스톤학원","서울특별시 성북구 길음로 10   4층 (길음동)",127.0238663,37.6043435
"예종라인발레학원","서울특별시 성북구 오패산로 38   2층 (하월곡동)",127.0372281,37.605466
"듀이대치보습학원","서울특별시 성북구 종암로9길 86 , 204호,404호,405호 (종암동,종암2차 아이파크 상가)",127.0317967,37.5972265
"에이팩스[APEX]학원","서울특별시 강북구 도봉로 204   3층 (미아동)",127.0290393,37.6315505
"씨앤에이(C&A)논술학원","서울특별시 성북구 삼양로13길 45   길음뉴타운 E-편한세상 상가 202호 (길음동)",127.0196517,37.6106816
"빨간펜수학의달인서울성북직영학원","서울특별시 성북구 월계로40길 7   센트럴타운 203-1호 203-2호 (장위동)",127.048397,37.6228267
"올래실용음악학원","서울특별시 강북구 노해로 90 (수유동,원남빌딩)",127.0230741,37.6434984
"비전트리학원","서울특별시 강북구 삼양로27길 43 , 5층 503호 (미아동, 위브 테라스 파크)",127.0191069,37.6186723
"튼튼영어마스터클럽수유보습학원","서울특별시 강북구 한천로155길 43 , 2층 205호 일부 (수유동, 수유벽산아파트)",127.0189674,37.6425146
"그림그리고싶은날미술학원","서울특별시 성북구 길음로13길 24 (길음동)",127.019141,37.6086897
"알칸[보습]학원","서울특별시 성북구 길음로 14 , 2층~4층 (길음동)",127.0236584,37.6044806
"엠투플러스보습논술학원","서울특별시 성북구 종암로23길 17 , 2층 202호 (종암동)",127.0329978,37.5995396
"제이앤씨수학전문제2학원","서울특별시 성북구 동소문로20가길 51   5층 (동선동1가)",127.0187426,37.5936989
"윤선생영어맥앤맥스학원","서울특별시 성북구 월곡로 77   래미안라센트아파트 상가 201호 202호 203호 (종암동)",127.0387994,37.5996248
"이레힐학원","서울특별시 강북구 도봉로67길 29 , 2층일부, 3층일부 (미아동, 역산빌딩)",127.0227411,37.6302223
"연기로우주정복연기학원","서울특별시 성북구 동소문로 18-1   외 1필지 (동소문동2가)",127.0083383,37.5888036
"화일우등생보습학원","서울특별시 강북구 인수봉로72가길 25 (수유동)",127.0128374,37.643861
"하이킥학원","서울특별시 성북구 서경로6길 41 , 3,4층 (길음동,소망교회)",127.0176507,37.6065193
"서연보습학원","서울특별시 성북구 아리랑로 28-1 (동선동5가)",127.0161534,37.5952102
"엠뮤직실용음악학원","서울특별시 성북구 동소문로 6 , 5층 (동소문동2가)",127.0068183,37.588499
"윤선생우리집앞영어강선생학원","서울특별시 성북구 삼양로 88 (길음동)",127.0224064,37.6111847
"디자인핌미술학원","서울특별시 강북구 도봉로 381 , 2층 (수유동)",127.0285401,37.6410928
"GnB영어월곡학원","서울특별시 강북구 월계로 43-1 , 4층 (미아동,성림빌딩)",127.0269077,37.6268335
"달빛소리음악학원","서울특별시 성북구 월곡로14길 24 , 208,209,210호 (하월곡동,월곡래미안루나밸리)",127.0418506,37.5989462
"포멘토학원","서울특별시 성북구 삼양로 49 , 5층 (길음동)",127.0232541,37.6075146
"이재원수능영어학원","서울특별시 강북구 솔샘로 184 , 211호 (미아동, 에스케이 북한산시티아파트 상가동1)",127.012633,37.6173087
"투웨이학원","서울특별시 강북구 인수봉로 160 , 2층 (수유동)",127.0135886,37.6340957
"문앤썬잉글리시[Moon&Sun English]학원","서울특별시 성북구 동소문로3길 4 , 4층 (동소문동1가,정화빌딩)",127.006605,37.5890603
"리앤슨잉글리시[Lianson English]학원","서울특별시 성북구 솔샘로25길 20 , 308호,312호 (정릉동,정릉풍림아이원상가1)",127.0071747,37.6189872
"이상태비젼수학학원","서울특별시 성북구 오패산로 98 , 104 (하월곡동,로만플라자)",127.0360135,37.6122643
"YBM영어영재학습관잉글루종암제1학원","서울특별시 성북구 월곡로 77   래미안라센트아파트 상가 204호-207호 (종암동)",127.0387994,37.5996248
"스터디브릭스보습학원","서울특별시 성북구 동소문로13가길 66 , 2층 (동소문동4가)",127.0094426,37.5904907
"눈높이러닝센터길음학원","서울특별시 성북구 삼양로13길 45 , 403호, 405호 일부 (길음동, 길음뉴타운 상가동)",127.0196517,37.6106816
"나오연기학원","서울특별시 강북구 도봉로67길 18 , 3층 (수유동,수유시장)",127.023174,37.630768
"올리어학원","서울특별시 성북구 서경로11길 6 (정릉동)",127.0151832,37.6085549
"장위제일학원","서울특별시 성북구 화랑로19길 67 , 1층 일부 (장위동)",127.050646,37.609433
"CMP실용음악학원","서울특별시 성북구 동소문로 304 , 4층 (하월곡동,이재범치과의원)",127.0286547,37.6068663
"E.S학원","서울특별시 강북구 삼양로 446 , 2층 (수유동)",127.0164458,37.6431352
"수피아무용학원","서울특별시 강북구 삼양로 118 , 3층 (미아동,다니엘어린이집)",127.0135469,37.653747
"김성연음악학원","서울특별시 성북구 오패산로16가길 , 76  201호 일부 (하월곡동,꿈의숲 푸르지오)",127.0381449,37.611531
"부활실용음악학원","서울특별시 성북구 아리랑로 18 , 2층 (동선동5가,동선모텔)",127.0164128,37.5945631
"지대로학원","서울특별시 성북구 길음로9길 50  길음뉴타운래미안아파트 근린상가 126호 127호 (길음동)",127.0201982,37.602842
"최강영수전문학원","서울특별시 강북구 삼양로 293 , 3층 303호 (수유동,서영프라자)",127.0176488,37.6295659
"킴스영어북클럽학원","서울특별시 성북구 한천로101길 36 , 201,204호 (장위동,장월지구근린생활시설)",127.0488203,37.6225004
"스마트에듀학원","서울특별시 강북구 삼양로19길 69 , 3,4층 (미아동)",127.0190136,37.6159725
"하이스터디학원","서울특별시 성북구 북악산로 844 , 301,306호 일부 (돈암동,브라운스톤 돈암 아파트)",127.0175498,37.5979283
"상상과공상사이미술학원","서울특별시 성북구 동소문로 93 , 3층 (동소문동6가)",127.0134454,37.5922073
"새미앤북스(Sami 'N Books)영어학원","서울특별시 성북구 동소문로13길 4 , 5층,6층전체 (동소문동6가)",127.0130521,37.5921491
"글로벌학원","서울특별시 강북구 노해로 101 , 2층 (수유동)",127.0231855,37.6446121
"글로벌음악학원","서울특별시 강북구 노해로 101 , 3층 일부 (수유동)",127.0231855,37.6446121
"GnB영어수유보습학원","서울특별시 강북구 노해로7길 34 , 1층 (수유동)",127.0207975,37.6379121
"티엘아이[T.L.I]영어학원","서울특별시 성북구 보국문로 21 , 5층 (정릉동,태영빌딩)",127.0106805,37.6064647
"SM학원","서울특별시 강북구 오현로 190 , 5층 일부 (번동)",127.039396,37.6284375
"매쓰홀릭(Matholic)보습학원","서울특별시 성북구 보문로 167 , 201호 (삼선동5가,광남 제니텔)",127.0160569,37.5890809
"CNI수학원","서울특별시 성북구 아리랑로5길 26 , 5층 (동소문동7가,경향빌딩)",127.0138263,37.5968651
"리더스영수전문학원","서울특별시 성북구 길음로13길 24 , 301호 (길음동)",127.019141,37.6086897
"눈높이러닝센터종암학원","서울특별시 성북구 종암로 120 , 2층일부 (종암동,금강빌딩)",127.0342408,37.6008372
"페르마학원","서울특별시 성북구 동소문로 43 , 401호 일부 (동소문동4가,흥화브라운 동소문빌딩)",127.0101324,37.590588
"더그레이트수학학원","서울특별시 성북구 동소문로 34 , 4층 (동소문동3가,연진빌딩)",127.0101661,37.5893885
"플레이(PLAY)연기학원","서울특별시 성북구 동소문로20길 40 , 4층 (동소문동5가, 문진빌딩)",127.0161873,37.5909769
"유투엠학원","서울특별시 강북구 삼양로27길 35-21 , 6층 601호 (미아동,미아프라자)",127.0188808,37.6179181
"예음악학원","서울특별시 성북구 성북로4길 52 , 2201, 2202호 (돈암동,한신 한진아파트 418동(서관))",127.0109401,37.5942553
"더스카이수학학원","서울특별시 성북구 동소문로13길 25 , 2층 (동소문동4가 224외1필지)",127.0122078,37.5927169
"석관탑아인스학원","서울특별시 성북구 돌곶이로22길 53 , 4-5층 (석관동,이영빌딩)",127.0607935,37.6107253
"조아라음악학원","서울특별시 강북구 오현로 28 , 3층 (미아동,반석빌딩)",127.0330461,37.6163353
"삼양잉글루영어학원","서울특별시 강북구 삼양로 285 , 3층 (미아동)",127.0290393,37.6315505
"모멘텀영어수학전문학원","서울특별시 성북구 동소문로 248 , 3층 1,2호 (길음동,삼부아파트상가 102동)",127.0236243,37.602671
"1등급독서실","서울특별시 성북구 삼선교로10길 45 , 2-201호 (삼선동2가, 예성빌딩)",127.0100007,37.5861434
"미지에듀학원","서울특별시 강북구 월계로 55 , 3층 (미아동, 대신대중사우나)",127.0355349,37.6121388
"미래오투독서실","서울특별시 강북구 솔샘로 231 , 3,4층 (미아동)",127.018377,37.6201985
"젬스톤에듀학원","서울특별시 성북구 서경로 24 , 2층 (정릉동,상익빌딩)",127.0150433,37.6057614
"티플러스학원","서울특별시 강북구 삼양로112길 9 , 4층 (수유동)",127.0169932,37.6425208
"맨투맨영어수학학원","서울특별시 강북구 도봉로 167 , 3층 301호 (미아동)",127.022996,37.6244654
"샘이깊은국어수학학원","서울특별시 성북구 정릉로 376 , 3층 전체 (돈암동)",127.023636,37.6005277
"삼화기능사교육학원","서울특별시 성북구 화랑로 173 , 1층 (상월곡동)",127.0440375,37.606845
"성북커피학원","서울특별시 성북구 정릉로 376 , 7층 일부 (돈암동)",127.023636,37.6005277
"모차르트어드벤쳐음악학원","서울특별시 성북구 오패산로 46 , 주상가동 201,202,203,204호 (하월곡동,월곡두산위브아파트)",127.0380419,37.6067317
"성북애니스타만화학원","서울특별시 성북구 동소문로 34 , 5층 (동소문동3가,연진빌딩)",127.0101406,37.5894297
"윤두례뷰티미용학원","서울특별시 강북구 솔샘로65길 108 , 3층 (미아동,태양학원)",127.0258571,37.6219833
"동아수학학원","서울특별시 강북구 솔샘로 184 , 2층 203호, 203-1호 일부 (미아동, 에스케이 북한산시티아파트 상가동1)",127.012633,37.6173087
"엠입실론학원","서울특별시 성북구 숭인로2길 61 ,  중심상가 202호,203호,305호 (길음동,길음동동부센트레빌아파트)",127.0244082,37.6103636
"로제타스톤영어학원","서울특별시 강북구 삼양로19길 102 , 402호,403호 (미아동,삼각산아이원프러스)",127.0179027,37.6155853
"아세아보습논술학원","서울특별시 성북구 성북로4길 52 , 417동 1806호 1808호 (돈암동,한신,한진아파트)",127.0109401,37.5942553
"작품인수학학원","서울특별시 성북구 동소문로 248 , 105동 2층, 2,3,4호 (길음동,돈암2-1 삼부아파트)",127.0236243,37.602671
"멘토수학영어학원","서울특별시 강북구 월계로37길 129 , 203호,204호 (번동,기산그린아파트)",127.0436836,37.6274174
"수플러스학원","서울특별시 강북구 솔샘로 184 , 1층 122호 (미아동,에스케이 북한산시티아파트 상가동1)",127.0125752,37.6199041
"알리앙스보습학원","서울특별시 강북구 인수봉로 134 , 2층 (수유동)",127.0138553,37.6317435
"뉴패션아트학원","서울특별시 성북구 화랑로 115 , 2층 (하월곡동)",127.046029,37.6046824
"조서리영어학원","서울특별시 성북구 길음로 20 , 307,308호(길음동1283-4) (길음동,길음뉴타운)",127.0231051,37.6047336
"에듀플렉스에듀코치개별지도미아직영점학원","서울특별시 강북구 삼양로19길 214 , 5층 501호 일부 (미아동,금강빌딩)",127.0269077,37.6268335
"석계간호조무사학원","서울특별시 성북구 화랑로 278 , 5층 (석관동)",127.069448,37.6141059
"누리안국어논술학원","서울특별시 성북구 동소문로 248 , 3층 7,8호 (길음동,돈암2-1 삼부아파트)",127.0236243,37.602671
"강지현전문음악학원","서울특별시 성북구 장위로 46 , 2층전체 (장위동)",127.0416247,37.6140301
"강북제일학원","서울특별시 강북구 도봉로 178 , 3층 1호 (미아동)",127.0285183,37.6336258
"돈암마르지않는샘보습학원","서울특별시 성북구 북악산로 852 ,  3층전체 (정릉동)",127.0185496,37.5988734
"단과전문학원","서울특별시 성북구 장월로3길 1 , 102호,109호 (상월곡동,동아다누프라자)",127.0470055,37.6078584
"길음소나타음악학원","서울특별시 성북구 길음로9길 40 , 202호,301호 (길음동,래미안길음1차)",127.0201982,37.602842
"G1230학원","서울특별시 성북구 삼양로 32 , 4층 (길음동,중영빌딩)",127.0242951,37.6059365
"박윤영어수학학원","서울특별시 성북구 삼양로 61 , 2층전체 (길음동)",127.0229779,37.608362
"쌤수학학원","서울특별시 강북구 삼양로19길 74 , 2층 204호,205호 (미아동,삼각산아이원아파트)",127.0179027,37.6155853
"수유실용음악학원","서울특별시 강북구 한천로 1084 , 3층 (수유동,정빌딩)",127.0230814,37.6428678
"백승학원","서울특별시 성북구 종암로 132 , 2층 203호, 209-1 (종암동, 종암우림카이저팰리스)",127.0334909,37.6019481
"아미고발레학원","서울특별시 성북구 동소문로 229 , 2층일부 (길음동)",127.023926,37.6073126
"영어나무보습학원","서울특별시 강북구 노해로23길 125 , 2층 (수유동)",127.0172148,37.6474603
"필즈수학학원","서울특별시 강북구 삼양로 116 , 3층 일부 (미아동,창영빌딩)",127.0223527,37.6141409
"에스시디지털조형학원","서울특별시 성북구 인촌로 33 , 2층전체 (안암동2가)",127.0231089,37.5871412
"에듀컴퓨터아트학원","서울특별시 성북구 삼선교로2길 11 , 2층전체 (삼선동1가)",127.005991,37.5877036
"엠존수학전문학원","서울특별시 성북구 아리랑로 36 , 6층전체 (동선동5가,백산빌딩)",127.0154194,37.5970151
"토라주니어학원","서울특별시 성북구 보문로29길 111 , 2층전체 (삼선동3가,김영창한의원)",127.0128594,37.5853888
"킴스잉글리시영어학원","서울특별시 성북구 종암로 132 , 2층 208호일부, 216호 (종암동, 종암우림카이저팰리스)",127.0334909,37.6019481
"모해미술&도자기학원","서울특별시 강북구 삼양로 424 , 3층일부 (수유동,정암빌딩)",127.0171185,37.6413568
"라온독서실","서울특별시 성북구 동소문로 212-66 , 3층전체 (돈암동)",127.023636,37.6005277
"박미화수학학원","서울특별시 강북구 솔샘로 207 , 2,3층 (미아동)",127.0156057,37.6202331
"성북상승학원","서울특별시 성북구 오패산로 35 , 2층전체 (하월곡동,홍인빌딩)",127.0368982,37.6051453
"GIPS성북2어학원","서울특별시 성북구 정릉로 250 , 3층일부 (정릉동,정릉빌딩)",127.0113568,37.6042304
"엠엘(ML)댄스스포츠학원","서울특별시 강북구 노해로27길 3 , 3층 (수유동)",127.021348,37.6462568
"예솜음악학원","서울특별시 성북구 동소문로13길 39-1 , 2층전체 (동소문동4가)",127.0117775,37.5933143
"김욱학원","서울특별시 강북구 덕릉로 66 , 3층 (수유동)",127.021008,37.6343071
"월곡창조의아침미술학원","서울특별시 성북구 월계로 52 , 6층 601호 일부 (하월곡동,에스엠메디칼)",127.0355496,37.6114424
"뿌리수학학원","서울특별시 성북구 서경로 77 , 스마트빌 2층 202호 (정릉동)",127.0146565,37.6101057
"뮤직플러스음악학원","서울특별시 성북구 서경로 75 , 3층,4층 전체 (정릉동)",127.0148233,37.6099088
"봄날단비국어학원","서울특별시 강북구 도봉로 237 , 3층 우측 일부 (미아동)",127.0269077,37.6268335
"청담클루빌동소문빌리지학원","서울특별시 성북구 동소문로13길 4 , 3층전체 (동소문동6가)",127.0130521,37.5921491
"대한댄스학원","서울특별시 강북구 도봉로 276 , 3층 (미아동)",127.0290393,37.6315505
"과수원과학수학전문학원","서울특별시 성북구 화랑로24길 9-9 , 1층,2층전체 (석관동)",127.0529534,37.6080711
"학원이데아학원","서울특별시 성북구 삼양로4길 3 , 3층 일부 (길음동)",127.0243654,37.6057605
"브레인어학원","서울특별시 강북구 삼양로79길 20 , 2층 (수유동)",127.0165716,37.6309228
"우리i학원","서울특별시 강북구 도봉로 178 , 3층 일부 (미아동)",127.0269077,37.6268335
"빈(Bean)음악학원","서울특별시 성북구 삼양로 63 , 3층전체 (길음동)",127.0226608,37.6087928
"한국세관공매경매학원","서울특별시 성북구 화랑로 95 , 3층일부 (하월곡동)",127.0409997,37.6041779
"메가아이티학원","서울특별시 성북구 동소문로 32 , 2층전체 (동소문동3가)",127.0135727,37.5917408
"GEM무용학원","서울특별시 성북구 보국문로 50 , 3층 302호 (정릉동)",127.0100922,37.6088141
"그레일(GRAIL)영어학원","서울특별시 강북구 솔샘로 217-1 , 2층 (미아동)",127.0167467,37.6201282
"제너럴커피학원","서울특별시 강북구 덕릉로 108 , 6층 (미아동,현웅빌딩)",127.0256298,37.634621
"한양음악학원","서울특별시 성북구 정릉로 448-11 , 3층전체 (종암동,원함빌딩)",127.031602,37.6001709
"리드101돈암영어학원","서울특별시 성북구 성북로4길 52 , 417동 2층 1209호 (돈암동, 한신아파트)",127.0109401,37.5942553
"굿(GOOD)쎈학원","서울특별시 성북구 보문로29길 121 , 2층 일부, 3층 일부 (삼선동3가)",127.0122651,37.5852982
"도담도담미술학원","서울특별시 성북구 서경로 77 , 2층 201호 (정릉동, 스마트빌)",127.0146755,37.6101227
"해법영어학원","서울특별시 성북구 삼양로 88 , 3층전체 (길음동)",127.0224064,37.6111847
"루이어학원","서울특별시 성북구 서경로6길 13 , 4층 401호,5층 501호 (길음동)",127.0148993,37.6041438
"대치에스학원","서울특별시 성북구 동소문로 75 , 401호 일부 (동소문동6가)",127.0135642,37.5916145
"윤선생우리집앞영어수학우이학원","서울특별시 강북구 삼양로99길 33 , 2층 203호, 204호 (수유동)",127.016025,37.6383545
"짱댄스학원","서울특별시 강북구 한천로 1040 , 4층 일부 (수유동, 보화빌딩)",127.0266693,37.6403115
"클릭!소프트웨어교육학원","서울특별시 성북구 동소문로 55 , 4층,5층 전체 (동소문동4가)",127.0107586,37.5915901
"YSM학원","서울특별시 성북구 성북로4길 52 , 418동 2층 2203호,2205호,2207호,2208호 (돈암동, 한진아파트)",127.0109401,37.5942553
"프라임엠디강북학원","서울특별시 성북구 인촌로24길 51 , 4층전체 (안암동5가)",127.0296926,37.5838912
"씨아이(CI)명문학원","서울특별시 성북구 북악산로 844 , 2층 201호전체 (돈암동, 브라운스톤 돈암 아파트 상가)",127.01787,37.5975955
"이호일수학학원","서울특별시 성북구 동소문로13길 12 , 4층전체 (동소문동6가, 세화빌딩)",127.0128952,37.5923703
"뉴진학보습학원","서울특별시 강북구 솔샘로31길 10 , 지하1층,1층 전체 (미아동)",127.0269077,37.6268335
"수학의신학원","서울특별시 성북구 종암로9길 86 , 301호, 302호일부 (종암동, 종암2차 아이파크 상가)",127.0317967,37.5972265
"장위미술학원","서울특별시 성북구 화랑로19길 67 , 2층 일부 (장위동, 우송빌딩)",127.0506279,37.609392
"생각과진리학원","서울특별시 성북구 한천로 541 , 2층 전체 (석관동)",127.0646594,37.608378
"로뎀독서실","서울특별시 성북구 종암로19길 50 , 2층 전체 (종암동)",127.0316952,37.5980737
"아띠무용학원","서울특별시 성북구 정릉로52길 22 , 202호 일부 (돈암동, 신우프라자)",127.0292012,37.6035036
"솔리데오음악학원","서울특별시 성북구 정릉로52길 22 , 5층 전체 (돈암동, 신우프라자)",127.0292012,37.6035036
"해법수학전문학원","서울특별시 성북구 종암로 86 , 2층 (종암동)",127.0352685,37.5978615
"카이로스(kairos)수학논술전문학원","서울특별시 성북구 장월로1길 28 , 106호, 206호 (상월곡동, 동아에코빌아파트)",127.0452951,37.6079198
"위너스댄스학원","서울특별시 강북구 솔샘로 330 , 3층 전체 (미아동)",127.028587,37.6169483
"지나영어학원","서울특별시 강북구 오패산로30길 10 , 301호 일부 (미아동)",127.0269077,37.6268335
"빡센학원","서울특별시 강북구 노해로 123 , 3층 일부 (수유동)",127.0245259,37.646182
"조이스감성미술학원","서울특별시 성북구 월곡로 83 , 2층 전체 (종암동)",127.0399216,37.599807
"하이맥스학원","서울특별시 성북구 정릉로 448-11 , 4층 전체 (종암동)",127.031602,37.6001709
"Q1교육학원","서울특별시 성북구 동소문로 203 , 3층 전체 (돈암동)",127.023636,37.6005277
"이엠학원","서울특별시 성북구 종암로 132 , 202호 (종암동, 종암우림카이저팰리스)",127.0334909,37.6019481
"크라스스터디컴플렉스독서실","서울특별시 성북구 보문로34길 15 , 2층, 3층 (삼선동4가)",127.0161894,37.5902876
"장위에덴음악학원","서울특별시 성북구 화랑로19길 67 , 4층 일부 (장위동, 우송빌딩)",127.0506279,37.609392
"드림팀보컬실용음악학원","서울특별시 성북구 동소문로 167 , 501호 (동선동4가, 고려e스쿨)",127.0177234,37.5946136
"다움학원","서울특별시 성북구 동소문로 14 , 4층 (동소문동2가, 외환은행(삼선교지점))",127.0060501,37.5880744
"버클리음악학원","서울특별시 강북구 삼양로 307 , 4층 (수유동, 대림)",127.0221713,37.6317362
"윤선생우리집앞영어삼각산학원","서울특별시 강북구 삼양로19길 132 , B동 2호,3호 (미아동)",127.0269077,37.6268335
"성북아이슐레창의영재학원","서울특별시 성북구 오패산로 98 , 2층 202호, 203호 (하월곡동, 로만플라자)",127.0356402,37.6108223
"최종구수학학원","서울특별시 성북구 북악산로 852 , 2층 전체 (정릉동)",127.0185496,37.5988734
"이지잉글리쉬학원","서울특별시 강북구 수유로 10 , 2층 (수유동)",127.0185292,37.6317942
"뮤직플라츠음악학원","서울특별시 성북구 화랑로5길 41 , 2층 일부 (하월곡동)",127.0391456,37.6044049
"고시고시검정고시원격학원","서울특별시 강북구 도봉로 172 , 5층 일부(503호) (미아동, 남송빌딩)",127.027352,37.6241953
"유진무용학원","서울특별시 성북구 종암로 120 , 5층 일부 (종암동, 금강빌딩)",127.0342408,37.6008372
"김안나똑똑한영어학원","서울특별시 성북구 아리랑로19가길 4 , 2층 일부 (정릉동, 일송빌딩)",127.0113325,37.6023812
"더원영수학원","서울특별시 강북구 오현로20길 62 , 상가동 201호 (번동, 번동솔그린아파트)",127.0392674,37.6260564
"수오름학원","서울특별시 성북구 아리랑로 18 , 3층 전체 (동선동5가)",127.0154194,37.5970151
"클릭!씨비엠(CBM)수학학원","서울특별시 성북구 동소문로 69 , 2층 전체 (동소문동4가, 동문빌딩)",127.0129376,37.5919212
"토즈스터디센터돈암독서실","서울특별시 성북구 정릉로 376 , 6층 일부 (돈암동, BR빌딩)",127.0252417,37.6020035
"튼튼영어마스터클럽강북삼각산학원","서울특별시 강북구 솔샘로 184 , 1층 124호 (미아동, 에스케이 북한산시티아파트 상가동1)",127.0125752,37.6199041
"연세독서실","서울특별시 성북구 동소문로 248 , 102동 3층 12호, 13호 (길음동, 돈암2-1 삼부아파트102동상가)",127.0236243,37.602671
"이종권보습학원","서울특별시 성북구 보국문로 38 , 2층 전체 (정릉동)",127.0103588,37.6078351
"엠케이수학학원","서울특별시 강북구 솔샘로 184 , 2층 204호 (미아동, 에스케이 북한산시티아파트 상가동1)",127.0125752,37.6199041
"창의우선미술학원","서울특별시 강북구 삼양로27길 43 , 5층 501호 (미아동, 위브 테라스 파크)",127.0194937,37.6185492
"장위엘리트학원","서울특별시 성북구 장월로 102 , 1층 일부, 2층 일부 (장위동, 대영빌딩)",127.0485168,37.614919
"조아라댄스스포츠학원","서울특별시 성북구 장월로 90 , 2층 전체 (장위동)",127.0490118,37.61387
"푸르넷아카데미학원","서울특별시 강북구 오현로 10 , 2층 (미아동)",127.0311632,37.6163054
"더블에스학원","서울특별시 성북구 월계로40길 7 , 2층 202호 (장위동, 센트럴타운근린생활시설)",127.048397,37.6228267
"로마음악학원","서울특별시 성북구 종암로24가길 53 , 3층 306호 (종암동, 종암에스케이아파트상가동)",127.0371572,37.6011427
"길음쎈수학학원","서울특별시 성북구 삼양로 76 , 3층 전체 (길음동) (길음동)",127.0227983,37.6100571
"명음음악학원","서울특별시 성북구 동소문로34길 24 , 502호 일부, 503호 (돈암동, 돈암삼성아파트제B상가동) (돈암동, 돈암동 삼성아파트)",127.0244944,37.5988123
"케이튜터수학성신여대관학원","서울특별시 성북구 아리랑로 25 , 3층 일부 (동소문동6가)",127.0144101,37.5933169
"아인음악학원","서울특별시 성북구 삼양로 76 , 2층 전체 (길음동)",127.0227983,37.6100571
"돈암강의하는아이들학원","서울특별시 성북구 동소문로24길 25 , 4층 전체 (동선동1가)",127.0190046,37.5925114
"썬앤문음악학원","서울특별시 성북구 보국문로 116 , 3층 302호, 303호 (정릉동)",127.0077456,37.6144259
"플라즈마돈암학원","서울특별시 성북구 아리랑로 36 , 3층 전체 (동선동5가)",127.0154194,37.5970151
"과수원과학수학영어학원","서울특별시 성북구 화랑로 210-6 , 401-1호, 401-2호, 402-1호 (석관동)",127.0609186,37.6084827
"성북메가스터디보습학원","서울특별시 성북구 동소문로 63 , 4-5층 (동소문동4가)",127.0101661,37.5893885
"승리영어학원","서울특별시 성북구 길음로 20 , 313호, 413호 (길음동)",127.0230189,37.6047095
"아이비영어학원","서울특별시 강북구 삼양로27길 43 , 두산위브테라스파크 402호, 403호 일부 (미아동)",127.0191069,37.6186723
"엠루틴학원","서울특별시 강북구 솔샘로 167 , 벽산라이브파크상가동 306호, 307호, 308호 전체 (미아동)",127.0122204,37.6211009
"아이은음악학원","서울특별시 관악구 난곡로35길 29 (신림동)",126.9180436,37.4719056
"수림독서실-187","서울특별시 관악구 호암로22길 39 , (2,3,4층) (신림동,수림독서실)",126.934908,37.4688394
"선익음악학원","서울특별시 동작구 상도로62길 5 (상도동)",126.95437,37.4946624
"새서울음악학원","서울특별시 관악구 봉천로 594 301호 (봉천동)",126.9631615,37.476236
"서울법학원","서울특별시 관악구 관악로 132 , 2층일부ㆍ3층ㆍ4층ㆍ5층 (봉천동)",126.9598833,37.4910492
"호림독서실","서울특별시 관악구 호암로22길 32 (신림동)",126.9344313,37.4686603
"올리브나무남정임미술학원","서울특별시 관악구 구암길 25  2층(봉천동)",126.9475595,37.4890506
"연세음악학원","서울특별시 동작구 사당로 136 (사당동)",126.9655561,37.4891167
"송이음악학원","서울특별시 동작구 만양로14가길 32  3,4층(노량진동)",126.9448233,37.5128993
"케이투독서실","서울특별시 관악구 대학6길 25 , 2,3,4,6층 (신림동)",126.9362655,37.468939
"음악사랑음악학원","서울특별시 관악구 호암로 401 4층 (신림동)",126.9259487,37.4610399
"건영음악학원","서울특별시 관악구 신림로3길 40  상가2층(신림동)",126.9426441,37.4669806
"이화음악학원","서울특별시 관악구 관악로14길 105 2층 (봉천동)",126.9582338,37.477829
"대림음악학원","서울특별시 동작구 여의대방로 250 , 상가동,상가 5-8호 (대방동, 대림아파트)",126.9295968,37.5126338
"흑석연세보습학원","서울특별시 동작구 서달로8길 14  (흑석동)",126.9615471,37.5057176
"삼보아카데미독서실","서울특별시 관악구 호암로26가길 48 (신림동)",126.9329532,37.4687767
"이앤아이미술학원","서울특별시 동작구 동작대로11길 89  (사당동)",126.9764728,37.4812276
"성원음악학원","서울특별시 동작구 여의대방로44길 9 성원상가3층(대방동)",126.9254944,37.5093489
"베리타스학원","서울특별시 관악구 신림로58길 13 201,506호 (신림동)",126.9306642,37.4825717
"음사랑음악학원","서울특별시 동작구 흑석로 11 , 3층 (상도1동, 열린우리교회)",126.9519588,37.5050915
"예일음악학원","서울특별시 관악구 문성로 74 4층(신림동)",126.912461,37.4763596
"등용독서실","서울특별시 관악구 신림로 206  (신림동)",126.9374398,37.475584
"대지보습학원","서울특별시 동작구 사당로23나길 30 2-4층 (사당동)",126.9755302,37.487662
"연세아카데미보습학원","서울특별시 관악구 미성길 60 두영상가3층(신림동)",126.9138635,37.4745992
"한국역학교육학원","서울특별시 관악구 남부순환로 1936 (봉천동)",126.9639471,37.4765799
"키스톤보습학원","서울특별시 관악구 조원로6길 1  3층(신림동)",126.9053054,37.4831099
"석포서예학원","서울특별시 관악구 봉천로 411 (봉천동)",126.9456009,37.4831006
"가이던스보습학원","서울특별시 관악구 신림로29길 8 4층 (신림동)",126.9325194,37.4751189
"강남보습학원","서울특별시 관악구 난곡로 210 4층 (신림동)",126.9184995,37.4736875
"유진보습학원","서울특별시 동작구 사당로23나길 22 (사당동)",126.9753003,37.4874401
"제이앤제이보습학원","서울특별시 관악구 쑥고개로 73-1 , 2층 (봉천동,은창빌딩)",126.9447808,37.4795726
"파랑새음악학원","서울특별시 동작구 여의대방로24길 54  2층(신대방동)",126.923312,37.4979705
"서강보습학원","서울특별시 동작구 대방동27길 91 , (2층) (대방동,대호빌딩)",126.9242141,37.5011577
"에이블파트너즈보습학원","서울특별시 동작구 등용로 80 , 2층 (대방동, 한뜻학원)",126.9324003,37.5082735
"최강황샘수학보습학원","서울특별시 관악구 신림로 198 , 5층 (신림동)",126.9368712,37.475022
"새이화음악학원","서울특별시 관악구 법원단지길 49  3층(신림동)",126.920417,37.4741538
"명륜당독서실","서울특별시 관악구 호암로26가길 46  (신림동)",126.9330426,37.468928
"라라음악학원","서울특별시 동작구 사당로16가길 42 (사당동)",126.9712344,37.4835402
"한얼독서실","서울특별시 관악구 관악로11길 17 , 3층 (봉천동, 연빌딩)",126.9511969,37.4776563
"대한리더스학원","서울특별시 동작구 사당로 231 (사당동)",126.9736501,37.4836693
"마이티청탑보습학원","서울특별시 동작구 노량진로 114 , 2층 일부 (노량진동,청탑학원)",126.9386138,37.5129295
"대한보습학원","서울특별시 동작구 사당로 231 2층 함풍빌딩 (사당동)",126.9736501,37.4836693
"버터씨엔씨보습학원","서울특별시 관악구 보라매로 62 , 보라매 삼성아파트 상가동1(301호~305호) (봉천동)",126.9278545,37.4940971
"더관리형독서실","서울특별시 관악구 신림로15길 31 2-5층(신림동)",126.9371225,37.4687701
"원문독서실","서울특별시 관악구 호암로26길 37 (신림동)",126.9357034,37.4704702
"비타에듀학원","서울특별시 동작구 노량진로 186 , 1층 및 3층일부 (노량진동,한샘학원)",126.9461198,37.5127235
"대방삼육외국어학원","서울특별시 동작구 알마타길 21-42  (대방동)",126.9277989,37.5117675
"충현독서실","서울특별시 관악구 호암로22길 73 (신림동)",126.9368256,37.4686584
"경문독서실","서울특별시 관악구 대학4길 21 (신림동)",126.9366695,37.4695455
"웅지보습학원-193","서울특별시 관악구 신림로 198 , (4층) (신림동)",126.9368712,37.475022
"다솔음악학원","서울특별시 관악구 신림로58길 36  (신림동)",126.9318634,37.4822807
"대한간호학원","서울특별시 관악구 시흥대로 578 광안빌딩3층 (신림동)",126.9032353,37.4841828
"비봉독서실","서울특별시 관악구 호암로26길 60 (신림동)",126.9369754,37.4701339
"온누리보습학원","서울특별시 관악구 문성로16가길 43  3층(신림동)",126.9148933,37.4752313
"숭문독서실","서울특별시 관악구 호암로26가길 34 (신림동)",126.9332706,37.4693517
"차이코프스키음악학원","서울특별시 동작구 상도로15길 51  3층(상도동)",126.9343431,37.5028082
"오늘미술학원","서울특별시 동작구 장승배기로30길 1-7 , 2층일부·3층·4층 (노량진동)",126.9404488,37.5130025
"성원독서실","서울특별시 관악구 대학14길 59-21 (신림동)",126.9364193,37.4654227
"디자인가우디미술학원","서울특별시 관악구 남부순환로 1628 , 2층, 3층 (신림동)",126.9314835,37.4841911
"신여명독서실","서울특별시 관악구 호암로22길 41  (신림동)",126.9350734,37.4688193
"청어람독서실","서울특별시 관악구 대학길 115  (신림동)",126.9379158,37.4656704
"한림법학원","서울특별시 관악구 대학길 13 , 나동 2층일부,3층일부,4층 (신림동,밀라트)",126.9382078,37.4700477
"인성보습학원","서울특별시 관악구 난곡로 203 3층 (신림동)",126.91846,37.4730564
"이앤아이음악학원","서울특별시 관악구 당곡길 22  2층일부(봉천동)",126.9291971,37.4902209
"줄리어드음악학원","서울특별시 관악구 행운1길 37  (봉천동)",126.9572456,37.480354
"박문각임용고시학원","서울특별시 동작구 노량진로 171 , 2~10층 (노량진동,노량진행정고시학원)",126.9451927,37.5139758
"뉴예원음악학원","서울특별시 동작구 동작대로29길 91 (사당동,사당우성아파트상가 2단지 402호 일부)",126.977222,37.487794
"신경문독서실","서울특별시 관악구 신림로17길 57-4  1-4층()",126.9365604,37.4679929
"이엠올림보습학원","서울특별시 동작구 흑석로13길 9 , 2층 (흑석동)",126.9606016,37.509062
"솔로몬음악학원","서울특별시 동작구 장승배기로 37 (상도동)",126.9409449,37.5012727
"희음악학원","서울특별시 관악구 호암로 497 , 2층 (신림동)",126.9316736,37.4618586
"세종무용학원","서울특별시 관악구 호암로 530 3층 (신림동)",126.9317114,37.4649261
"서울조형미술학원","서울특별시 동작구 노량진로 123 3층 (노량진동)",126.9397424,37.5136882
"우리컴퓨터전산회계학원","서울특별시 관악구 관악로 113 , 4층 (봉천동)",126.9524914,37.4751615
"삼성금형기계기술학원","서울특별시 동작구 대림로 56 5층 (신대방동)",126.9073562,37.4884099
"양지간호조무사학원","서울특별시 관악구 남부순환로 1731  자애빌딩4층(봉천동)",126.9424598,37.4825437
"골든벨보습학원","서울특별시 동작구 동작대로29길 63-6 , 3층 전체 (사당동)",126.9783424,37.4883234
"학림스카이보습학원","서울특별시 관악구 남부순환로 1698 , 3층일부ㆍ4층 (봉천동)",126.9387222,37.4833139
"일등고시학원","서울특별시 동작구 노량진로 147 4,5층 (노량진동)",126.9422108,37.5138284
"서라벌피아노학원","서울특별시 동작구 서달로14길 32 (흑석동)",126.9645772,37.5073489
"최강수학상아탑학원","서울특별시 동작구 상도로 122 (상도동)",126.933856,37.5012693
"루디아음악학원","서울특별시 관악구 관악로 304 상가4층(봉천동)",126.9583387,37.4921791
"비타러닝센타보습학원","서울특별시 동작구 등용로 92 우석빌딩2,3층 (대방동)",126.9323923,37.5092632
"강남미술학원","서울특별시 동작구 보라매로 94-1 2층 (대방동)",126.9281797,37.4976345
"합격캠프독서실","서울특별시 관악구 호암로24길 42  2-5층(신림동)",126.9354499,37.469375
"청광독서실","서울특별시 관악구 신림로21길 39 , 2~4층 (신림동,청광독서실)",126.935282,37.4686293
"남현보습학원","서울특별시 관악구 남현길 37 2,3층 (남현동)",126.9769138,37.4749268
"진영플러스보습학원","서울특별시 관악구 인헌길 15  3층(봉천동)",126.9670834,37.4748476
"강은숙음악학원","서울특별시 관악구 조원로 171 2층 (신림동)",126.9212097,37.4862476
"예은음악학원","서울특별시 관악구 신림로29길 6 현대아파트A상가401호(신림동)",126.9349897,37.4749555
"티엠비학원","서울특별시 동작구 서달로 153 (흑석동)",126.9615671,37.5071351
"서웅독서실","서울특별시 관악구 대학6길 19  2-5층 (신림동)",126.9365204,37.468899
"예일독서실","서울특별시 동작구 동작대로29길 110  신동아상가 3층(사당동, 신동아아파트)",126.9760224,37.4897954
"메가파워예능미술학원","서울특별시 동작구 신대방11길 13 2층 (신대방동)",126.9088069,37.4884891
"한빛독서실","서울특별시 관악구 보라매로 34 3층 (봉천동)",126.9270455,37.492409
"아이디미술학원","서울특별시 동작구 대방동23길 45 , 3층 (대방동)",126.9227889,37.5039126
"푸른보습학원","서울특별시 동작구 만양로 26 , 상가동 217호 일부, 218호 일부 (상도동,건영아파트)",126.949474,37.5073471
"관악진성보습학원","서울특별시 관악구 호암로 401 4층 (신림동)",126.9259487,37.4610399
"연세보습학원","서울특별시 동작구 상도로 49 3층 (대방동)",126.9339651,37.5058521
"더뮤즈음악학원","서울특별시 관악구 관악로 287 , 성현동아아파트 상가A동 402호 (봉천동)",126.957729,37.488488
"비엔나음악학원","서울특별시 동작구 장승배기로16길 27  2,3층(노량진동)",126.941525,37.5068013
"대은음악학원","서울특별시 동작구 상도로 407-5 , 402호 (상도동)",126.957297,37.4934178
"태인독서실","서울특별시 관악구 호암로24길 23 , 1~7층 (신림동,태인빌딩)",126.9345618,37.4698211
"성문독서실","서울특별시 관악구 신림로14길 29  2-6층(신림동)",126.9383627,37.4721224
"연세피아노음악학원","서울특별시 관악구 당곡길 36 2층 (봉천동)",126.928897,37.4908832
"진달래미술학원","서울특별시 관악구 보라매로2길 10 2-3층 (봉천동)",126.9285865,37.4898991
"성대주산학원","서울특별시 동작구 성대로 69 (상도동)",126.9346565,37.4979481
"키즈빌미술학원","서울특별시 동작구 동작대로29길 119 상가2층 (사당동, 극동아파트)",126.9760224,37.4897954
"율몽음악학원","서울특별시 동작구 동작대로9가길 31 (사당동)",126.9778852,37.4794738
"세진보습학원","서울특별시 관악구 은천로 50  (봉천동)",126.9407995,37.4859428
"아트비미술학원","서울특별시 동작구 상도로 73 , 2층 일부 (대방동,보광빌딩)",126.9289206,37.4998754
"베리타스사법고시학원","서울특별시 관악구 신림로28길 81 , 2층ㆍ3층ㆍ4층ㆍ5층 (신림동,정인빌딩)",126.9419754,37.4830166
"파라오미술학원","서울특별시 동작구 남부순환로 2073 , 3층 (사당동)",126.9792823,37.4769233
"로이즈학원","서울특별시 동작구 노량진로 4 3층 (대방동)",126.9263654,37.5121113
"학구재독서실","서울특별시 관악구 호암로24길 17  1-6층(신림동)",126.9342485,37.4699102
"참배움터학원","서울특별시 관악구 난곡로24길 18 , (2층) (신림동)",126.9208162,37.4694243
"나무와숲보습학원","서울특별시 동작구 상도로15길 103  3,4층(상도동)",126.9363524,37.5045148
"서울스터디라인보습학원","서울특별시 관악구 관악로30길 12 , 봉천 우성아파트 상가동 502호 (봉천동)",126.9596403,37.4855444
"밤비니지니어스상도미술학원","서울특별시 동작구 장승배기로 37  2층(상도동)",126.9409449,37.5012727
"하이탑보습학원","서울특별시 관악구 봉천로 226 , 4층 (신림동,금오빌딩)",126.9265629,37.4893888
"명문보습학원","서울특별시 관악구 난향길 5 , 7층 (신림동)",126.9185189,37.4626859
"미예꼴미술학원","서울특별시 동작구 여의대방로 250 , 상가동,상가 5-4호 (대방동, 대림아파트)",126.9295968,37.5126338
"아프로만영재보습학원","서울특별시 관악구 난향길 5  4층(신림동)",126.9185189,37.4626859
"새실독서실","서울특별시 관악구 관악로 140-7  2,3층",126.9528447,37.477793
"철학교육논술학원","서울특별시 관악구 남부순환로 1947 , 소크라테스빌딩 5~6층 (봉천동)",126.9653907,37.4765925
"상도보습학원","서울특별시 동작구 상도로47길 4 , (4층) (상도동,이화빌딩)",126.9514462,37.4995147
"자마르실용음악학원","서울특별시 관악구 난우길 35 2층 (신림동)",126.9176178,37.475796
"에스오티어학원","서울특별시 관악구 구암길 46 , 3층 (봉천동, 소슬유치원)",126.9484531,37.4897277
"동작시사어학원","서울특별시 동작구 동작대로29길 77 , 2층 (사당동)",126.9778127,37.4886098
"톰미술학원","서울특별시 관악구 남부순환로 1624 , (2,3층) (신림동)",126.9310218,37.4841365
"엘리제음악학원","서울특별시 관악구 조원로 126 3층 (신림동)",126.9163253,37.4851298
"프라임보습학원","서울특별시 동작구 여의대방로 284  2층(대방동)",126.9343755,37.506182
"서강에스엘피관악어학원","서울특별시 관악구 봉천로 466 , 2~3층 (봉천동,해주타워)",126.9516134,37.4820169
"비전희소고시학원","서울특별시 동작구 만양로14바길 10 1,2,4~6층 (노량진동)",126.9466561,37.5119047
"그림마을미술학원","서울특별시 관악구 관악로 264 4층(봉천동)",126.9580668,37.4874155
"에듀웰상도학원","서울특별시 동작구 장승배기로 23 , 2층 (상도동,성모빌딩)",126.9420027,37.5002367
"사당연세음악학원","서울특별시 동작구 동작대로29길 127 , (2층) (사당동,주영교회)",126.9761684,37.4905265
"두손음악학원","서울특별시 동작구 사당로17길 8 , 상가 A동 405-1 (사당동, 대림아파트)",126.9725834,37.4867945
"뮤직플러스음악학원","서울특별시 관악구 인헌12길 42 3층 (봉천동)",126.965027,37.4707442
"더독서관독서실","서울특별시 관악구 신림로23길  22 (신림동)",126.9346303,37.4699317
"일원독서실","서울특별시 관악구 호암로26길  31 (신림동)",126.9353669,37.4705222
"대웅독서실","서울특별시 관악구 서림길 106 2-5층 (신림동)",126.9396479,37.4714978
"집현당독서실","서울특별시 관악구 호암로24길 21 1-8층(신림동)",126.9343972,37.4698692
"월광미술학원","서울특별시 동작구 사당로2가길 103 , 2층 (사당동,월광빌딩)",126.962807,37.4894567
"명륜학원","서울특별시 관악구 남부순환로 1534 , 영흥빌딩 3층 (신림동,영흥빌딩)",126.921033,37.4827107
"빵굼터제과기술학원","서울특별시 관악구 남부순환로 1686  2층(신림동)",126.9375957,37.4838164
"여기는관리형독서실","서울특별시 관악구 호암로26가길43 2~5층 (신림동)",126.9332923,37.4688618
"우리들음악학원","서울특별시 관악구 법원단지9길 3 , 3층 (신림동)",126.920316,37.474334
"백승독서실","서울특별시 관악구 대학4길 14  1-5층(신림동)",126.9370647,37.4696562
"에스이에이어학원","서울특별시 동작구 장승배기로 35 , (2,3층) (상도동,럭키하이퍼마켓)",126.9410647,37.5011152
"아이학원","서울특별시 동작구 상도로 311 , 3층 일부 (상도1동, I학원)",126.9530576,37.498071
"삼성음악학원","서울특별시 관악구 은천로25길 69 5층 (봉천동)",126.9483289,37.4890187
"두산음악학원","서울특별시 관악구 봉천로 391 , 두산아파트 상가1동 (4층) (봉천동)",126.9454472,37.4862663
"엔데버학원","서울특별시 관악구 은천로25길 69  4층 (봉천동)",126.9483289,37.4890187
"박문각남부고시학원","서울특별시 동작구 노량진로 161 (노량진동)",126.9439111,37.5139805
"아지오독서실","서울특별시 동작구 사당로17길 8 , 상가A동 307호 (사당동, 대림아파트)",126.9725834,37.4867945
"봉천세림학원","서울특별시 관악구 관악로30길 12  우성상가4층(봉천동)",126.959439,37.4850876
"신동아음악학원","서울특별시 동작구 만양로 19 신동아리버파크상가동303,304호 (노량진동)",126.9447842,37.5079242
"성진독서실","서울특별시 동작구 만양로14가길 23 3-4층 (노량진동)",126.9448825,37.512553
"뉴스터디학원","서울특별시 관악구 남부순환로 1694 , 1층일부ㆍ2층ㆍ3층 (봉천동)",126.9382851,37.4834397
"율곡독서실","서울특별시 관악구 신림로48가길 19 1-3층 (신림동)",126.9328678,37.4798759
"태인학원","서울특별시 관악구 관천로11길 102  2층(신림동)",126.9192455,37.4834347
"서울크리스챤학원","서울특별시 관악구 은천로 72-5  2,3층(봉천동)",126.9435377,37.4861314
"법화독서실","서울특별시 관악구 호암로20길 46 1-5층 (신림동)",126.93456,37.4672369
"세종독서실","서울특별시 관악구 신림로23길 20-5 2-6층 (신림동)",126.9344777,37.4700105
"엘리트보습학원","서울특별시 관악구 조원로 118 2층 (신림동)",126.9155144,37.4849818
"수에리트보습학원","서울특별시 동작구 사당로2차길 2 2층 (사당동)",126.9648482,37.4877256
"에이블독서실","서울특별시 관악구 호암로26길 7 , 3층 및 4층 (신림동,서경독서실)",126.9341154,37.470879
"성보독서실","서울특별시 관악구 신림로23길 20-11  2-5층(신림동)",126.9341789,37.470115
"영광독서실","서울특별시 동작구 만양로14라길 17 , 1층~4층 (노량진동,영광독서실)",126.9459288,37.5109404
"태성독서실","서울특별시 관악구 대학2길 27 1-6층(신림동)",126.9362877,37.4698403
"장학독서실","서울특별시 관악구 대학10길 36 2-4층 (신림동)",126.9356405,37.4678125
"구평회예음지고시학원","서울특별시 동작구 노량진로 192  1,2층(노량진동)",126.9471902,37.5130214
"에프이에스영어학원","서울특별시 관악구 남부순환로246길 25 3,4층 (봉천동)",126.9644352,37.4752921
"코코잉글리쉬어학원","서울특별시 관악구 은천로25길 33  5층(봉천동)",126.9494777,37.4882126
"합격의터독서실","서울특별시 관악구 복은4길 50  2-7층(신림동)",126.9372982,37.4732085
"청암고시독서실","서울특별시 관악구 호암로26가길 59 , 3-6층 (신림동)",126.9330204,37.4681889
"등명독서실","서울특별시 관악구 신림로19길 46-3  1-5층(신림동)",126.9353763,37.4682624
"제일영광독서실","서울특별시 동작구 만양로14라길 21-9 , 1~6층  (노량진동,영광독서관)",126.9463359,37.5109477
"오투독서실","서울특별시 동작구 노량진로 196  11-12층(노량진동)",126.947502,37.5129701
"신연세음악학원","서울특별시 관악구 난우길 29 3층 (신림동)",126.9178652,37.4754171
"랭콘잉글리쉬동작센트럴어학원","서울특별시 동작구 상도로31길 19 브라운스통상도상가동지1층(105~108호) (상도동)",126.9437801,37.5060138
"종일독서실","서울특별시 동작구 만양로14나길 15 (노량진동)",126.9459981,37.5123701
"엠아이티수학학원","서울특별시 관악구 은천로25길 33 구암프라자402 (봉천동)",126.944725,37.4870162
"라몽트독서실","서울특별시 관악구 관악로30길 12 봉천우성아파트 상가동204-208 (봉천동)",126.9596403,37.4855444
"세광음악학원","서울특별시 관악구 은천로 42  3층(봉천동)",126.9400053,37.4859709
"백산보습학원","서울특별시 동작구 사당로 276 6층 (사당동)",126.9784923,37.4838789
"석률독서실","서울특별시 관악구 호암로24길 48 (신림동)",126.9357593,37.4693183
"유림독서실","서울특별시 관악구 신림로23길 58 1-6층 (신림동)",126.93439,37.4683788
"신화독서실","서울특별시 동작구 만양로18길 19-13 (노량진동)",126.9459483,37.5131725
"드림연세보습학원","서울특별시 관악구 구암길 76 , 201호 (봉천동, 관악드림타운)",126.951836,37.4893411
"롯데피아노학원","서울특별시 동작구 여의대방로10길 38  롯데낙천대아파트 상가 (신대방동)",126.9131888,37.4943
"우성보습학원","서울특별시 동작구 여의대방로10길 38 롯데낙천대상가4층 (신대방동)",126.9131888,37.4943
"노벨학원","서울특별시 관악구 남현길 18  3층(남현동)",126.9771705,37.4757499
"관악베리타스보습학원","서울특별시 관악구 은천로 93 502동 203~205호(봉천동)",126.9447409,37.4892615
"메가드림독서실","서울특별시 관악구 관천로 121  (신림동)",126.9209074,37.488557
"스파르타합격캠프학원","서울특별시 관악구 호암로24길 24 , 2층~5층 (신림동, 태학관)",126.9344613,37.4694895
"뉴디딤돌보습학원","서울특별시 동작구 동작대로11길 103 2,3층 (사당동)",126.9757406,37.4812799
"키스트보습학원","서울특별시 관악구 청림6길 3 , 304호 (봉천동)",126.9598942,37.4875731
"야베스음악학원","서울특별시 관악구 구암길 76 , 2층  (봉천동, 관악드림타운)",126.951836,37.4893411
"엔티피학원","서울특별시 관악구 은천로 64 2층 (봉천동)",126.9425004,37.4860004
"대명독서실","서울특별시 동작구 장승배기로 170 (노량진동)",126.9404871,37.5127785
"비젼21보습학원","서울특별시 동작구 동작대로13길 21  1,2층(사당동)",126.9792097,37.4816802
"튼튼영어마스터클럽은천학원","서울특별시 관악구 은천로 80 , (2층) (봉천동)",126.9442288,37.4865187
"히어로틴텝스영어보습학원","서울특별시 관악구 은천로25길 17 3층 (봉천동)",126.9491069,37.4874839
"멘토스2학원","서울특별시 동작구 사당로23길 164  3,4층(사당동)",126.9715313,37.4895987
"명진사해보습학원","서울특별시 관악구 신림로29길 3-10 3층(신림동)",126.9342677,37.4746859
"남강보습학원","서울특별시 관악구 남부순환로 1713-7 , 2층 (봉천동)",126.9408632,37.4833529
"화인독서실","서울특별시 동작구 만양로14길 50  (노량진동)",126.946923,37.5123135
"이엠아이영어학원","서울특별시 동작구 사당로 160 백경빌딩3층 (사당동)",126.96693,37.4871402
"수학의고수학원","서울특별시 관악구 은천로 123  2층(봉천동)",126.9490534,37.4867824
"시매쓰로커스보습학원","서울특별시 관악구 은천로 114 3층 (봉천동)",126.9479638,37.4865862
"뉴새렘음악학원","서울특별시 관악구 인헌9길 13 2,3층 (봉천동)",126.9674683,37.4728398
"푸르지오음악학원","서울특별시 관악구 남부순환로 1432-7 , 301호 일부 (신림동, 대우빌딩)",126.9101115,37.480417
"하영음악학원","서울특별시 관악구 관악로11길 17 (2층) (봉천동)",126.9511983,37.4776487
"와이즈보습학원","서울특별시 동작구 상도로 303  3층(상도1동)",126.952028,37.4991919
"태경독서실","서울특별시 관악구 서림7길 3 , 1~4층 (신림동)",126.9392676,37.4728063
"미대로가는길미술학원","서울특별시 동작구 상도로 58  3층(대방동)",126.9339651,37.5058521
"최강보습학원","서울특별시 관악구 조원로 160  2층(신림동)",126.9199003,37.4857816
"연세간호학원","서울특별시 관악구 남부순환로 1619  7층(신림동)",126.9304905,37.4846038
"청운고시독서실","서울특별시 관악구 남부순환로226길 40 , 2~3층 (봉천동)",126.9533776,37.4788979
"맨터스미스터정글리쉬보습학원","서울특별시 동작구 서달로 166 덕봉빌딩4층 (흑석동)",126.9628616,37.5077362
"윈독서실","서울특별시 동작구 만양로14가길 22 , (2-5층) (노량진동,휘소항쉬법빌딩)",126.9450921,37.5125251
"차일드유앤클로어학원","서울특별시 동작구 여의대방로 250 , 상가동 상가 5-1호 (대방동, 대림아파트)",126.9295968,37.5126338
"래미안음악학원","서울특별시 동작구 노량진로22길 44 삼성래미안아파트 상가203 (본동)",126.9546477,37.4987708
"수프라임보습학원","서울특별시 관악구 은천로 146  2층(봉천동)",126.951492,37.4862401
"뮤엠영어사당제1보습학원","서울특별시 동작구 사당로16길 44 3,4층 (사당동)",126.9723747,37.4817642
"희망독서실","서울특별시 동작구 만양로14가길 30-8  (사당동)",126.9449436,37.5127094
"공잘보습학원","서울특별시 관악구 남현3길 8  2층(남현동)",126.9771053,37.4746446
"대방정보통신학원","서울특별시 동작구 노량진로 4 , 대방빌딩 3층일부·4층일부 (대방동)",126.9263654,37.5121113
"박문각신남부고시학원","서울특별시 동작구 노량진로 146 , 이데아빌딩 1층일부, 3층, 7층, 8층 (노량진동, 이데아빌딩)",126.9421412,37.5134296
"희소고시학원","서울특별시 동작구 노량진로 146 , 4,5,6층 (노량진동,이데아빌딩)",126.9421572,37.5132179
"오투조은독서실","서울특별시 동작구 여의대방로 210  4,5층(대방동)",126.9262539,37.5080962
"신대성학원","서울특별시 관악구 호암로 534 3층 (신림동)",126.9316446,37.4652463
"프라임수학학원","서울특별시 동작구 상도로 265-40 , 3층 (상도1동,영은빌딩)",126.9503906,37.5026536
"동작한우리국어학원","서울특별시 동작구 사당로23아길 6 3층 (사당동)",126.9703482,37.4909382
"이수보습학원","서울특별시 동작구 동작대로35길  2층36 (사당동)",126.9821484,37.4909197
"와이즈만영재학원","서울특별시 관악구 봉천로 462 , 3층ㆍ5층 (봉천동,은일빌딩)",126.9511873,37.481997
"새지평수림당독서실","서울특별시 동작구 만양로14사길 1  1-5층(노량진동)",126.9471393,37.5123785
"유베스타어학스카이수학학원","서울특별시 동작구 사당로 253-3 4층 (사당동)",126.9757357,37.4836261
"민음악학원","서울특별시 동작구 상도로53길 8  상가503호(상도동, 래미안상도3차아파트)",126.9546477,37.4987708
"깊은생각보습학원","서울특별시 관악구 관악로28길 44 3층 (봉천동)",126.9584654,37.4849331
"베토벤음악학원","서울특별시 동작구 알마타길 37 상가301호(대방동)",126.9289027,37.5120199
"하늘교육상도학원","서울특별시 동작구 상도로38길 3-2 3층(상도1동)",126.9478513,37.5021012
"돌체음악학원","서울특별시 동작구 장승배기로 7  2층(상도동)",126.9433774,37.4992753
"청맥보습학원","서울특별시 관악구 법원단지5길 18 2층 (신림동)",126.9192298,37.4750269
"서울독서실","서울특별시 관악구 관악로5길 30  6층(봉천동)",126.9522319,37.4742312
"수학사랑보습학원","서울특별시 동작구 여의대방로36길 18 , 원아빌딩 3층 (대방동)",126.9237672,37.5048595
"동작에스엘피어학원","서울특별시 동작구 상도로 34 2,3층(대방동)",126.9344718,37.5060053
"한국아파트빌딩전문회계학원","서울특별시 관악구 조원로 24  5층(신림동)",126.9050644,37.483196
"필아트미술관학원","서울특별시 동작구 상도로41가길 6 , 2층 (상도1동)",126.9491255,37.5012864
"해오름어학원","서울특별시 관악구 문성로 93  3,4층(신림동)",126.914005,37.4777154
"신서울학원","서울특별시 동작구 동작대로29길115 우성상가4층(사당동",126.9768607,37.4889332
"제이정의보습학원","서울특별시 동작구 서달로 146  3층(흑석동)",126.9614927,37.5063001
"위더스보습학원","서울특별시 관악구 보라매로 34  4층(봉천동)",126.9270455,37.492409
"이소보습학원","서울특별시 관악구 문성로 93  5층(신림동)",126.914005,37.4777154
"뉴젠학원","서울특별시 관악구 청림3마길 27 , 3층 (봉천동)",126.957324,37.490741
"로젠스터디독서실","서울특별시 관악구 호암로22길 25 2,3층 (신림동)",126.9341706,37.4689436
"은강음악학원","서울특별시 관악구 광신길 154  4층(신림동)",126.9269964,37.4654781
"두영독서실","서울특별시 관악구 미성길 60 상가2층(신림동)",126.9138635,37.4745992
"씨디아이서진보습학원","서울특별시 관악구 호암로26길 57 , (2층) (신림동,아림약국)",126.9368374,37.4703514
"파이브클라스보습학원","서울특별시 관악구 호암로26길 57  3층(신림동)",126.9368468,37.4703562
"은혜음악학원","서울특별시 관악구 쑥고개로 56 2층 (봉천동)",126.9427032,37.4794742
"도형과함수보습학원","서울특별시 관악구 신원로 5 2층(신림동)",126.9278177,37.4797653
"남부한우리학원","서울특별시 관악구 신림로 274 4층 (신림동층)",126.9318104,37.4792582
"파워학원","서울특별시 동작구 성대로1길 8 2층 (상도동)",126.9329608,37.5004413
"4차원속독학원","서울특별시 관악구 낙성대역길 32 , 2층 (봉천동)",126.9613347,37.4761443
"관악청담어학원","서울특별시 관악구 봉천로 462  6층(봉천동)",126.9511873,37.481997
"프라임독서실","서울특별시 동작구 만양로 43  1-3층(노량진동)",126.9472002,37.5080423
"에이튼영어학원","서울특별시 관악구 관악로 287 동아상가3층(봉천동)",126.9557273,37.4896844
"주영광독서실","서울특별시 동작구 만양로14아길 8-6 1-5층",126.9475293,37.5118296
"새지평혜림재독서실","서울특별시 동작구 만양로14바길 24 , (1-3층) (노량진동,새지평독서실)",126.9466274,37.5121009
"창아플러스미술학원","서울특별시 동작구 노량진로 122  1-3층(노량진동)",126.9393298,37.513188
"더샵실용음악학원","서울특별시 관악구 남부순환로247길 3 , 3층 (봉천동)",126.9659224,37.4764819
"위브독서실","서울특별시 관악구 은천로 86 두산아파트 상가1동206-212호 (봉천동)",126.9454472,37.4862663
"더쎈수학보습학원","서울특별시 동작구 여의대방로 22 , 우성쇼핑센타 314 (신대방동,우성아파트)",126.9130405,37.4926776
"글사랑독서실","서울특별시 관악구 은천로 81  2층(봉천동)",126.9442967,37.4869959
"맥스터디학원","서울특별시 관악구 봉천로13길 26 (봉천동)",126.9307004,37.4896318
"금성독서실","서울특별시 관악구 신림로 198  6층(신림동)",126.9368712,37.475022
"하버드독서실","서울특별시 동작구 대방동길 51  3,4층(대방동)",126.9255416,37.5026672
"이찬이대학편입학원","서울특별시 동작구 노량진로 22 2-4층 (대방동)",126.9281307,37.5128454
"임팩트어학원","서울특별시 동작구 동작대로 157  5층(사당동)",126.9822472,37.4907277
"관악폴리어학원","서울특별시 관악구 관악로30길 12 , 봉천 우성아파트 상가동 302호~307호, 309호 (봉천동)",126.9596403,37.4855444
"비전스터디보습학원","서울특별시 관악구 낙성대역4길 3 , 3층 (봉천동)",126.9616304,37.4754404
"이성규수학전문학원","서울특별시 관악구 구암5길 22 , 1~2층 (봉천동)",126.9467646,37.4900977
"조은음악학원","서울특별시 관악구 은천로 78 , 4층 (봉천동)",126.9438763,37.4864173
"아람컴퓨터학원","서울특별시 동작구 동작대로29길 119 우성2단지 상가 404(사당동)",126.977222,37.487794
"관악청명보습학원","서울특별시 관악구 은천로 172-1  (봉천동)",126.954339,37.4857679
"라온음악학원","서울특별시 관악구 구암길 25 , 3층 (봉천동)",126.9475595,37.4890506
"전문가보습학원","서울특별시 관악구 당곡길 70  3층(봉천동)",126.9273515,37.4918062
"노량진메가스터디보습학원","서울특별시 동작구 노량진로 140 , 5층(메가스터디타워) (노량진동, 한국보건산업진흥원)",126.941549,37.5130841
"명성수능영어학원","서울특별시 동작구 상도로 313 (상도1동)",126.9523896,37.5007494
"하늘교육보습학원","서울특별시 동작구 사당로17길 8 , 상가 A동 217호~221호, 228호~232호 (사당동, 대림아파트)",126.9725834,37.4867945
"이레독서실","서울특별시 동작구 노량진로14길 15  1-3층(노량진동)",126.9423122,37.5128165
"에이스타독서실","서울특별시 관악구 신사로 64 2-4층 (신림동)",126.9100017,37.4853293
"대진보습학원","서울특별시 관악구 조원로 56 , 2층 (신림동,진성빌딩)",126.9086803,37.4834321
"영성보습학원","서울특별시 동작구 국사봉1길 146 3층 (상도동)",126.9331754,37.4955343
"디자인티모컴퓨터학원","서울특별시 관악구 남부순환로 1799 , 대영오피스텔 5층, 501호 (봉천동,대영오피스텔)",126.9441141,37.4834888
"텔스영어학원","서울특별시 관악구 인헌길 53  2,3층(봉천동)",126.966843,37.4730966
"관악영재사관학원","서울특별시 관악구 양녕로 74 2층 (봉천동)",126.946662,37.4883794
"위싱웰영어보습학원","서울특별시 관악구 남부순환로 1922 , 별관3층 (봉천동,청동빌딩)",126.962668,37.4770177
"서진스터디독서실","서울특별시 동작구 만양로8길 53 , (2,3,4층) (노량진동,노량진약국)",126.9442523,37.5070693
"샘독서실","서울특별시 동작구 장승배기로 98 , 5,6층 (노량진동,장승빌딩)",126.9398083,37.5061248
"신대방샘독서실","서울특별시 동작구 여의대방로 28 현대상가2층(신대방동)",126.9113669,37.4945424
"신화창조학원","서울특별시 관악구 신림로11길 48  4층(신림동)",126.9386216,37.4682862
"휴먼컴퓨터아트학원","서울특별시 관악구 과천대로 941 지산빌딩6층 (남현동)",126.9814162,37.4746294
"케이투학원","서울특별시 동작구 상도로53길 13 , 래미안3차 단지내 상가 304호, 305호 (상도동, 래미안상도3차아파트)",126.9546477,37.4987708
"중앙음악학원","서울특별시 동작구 상도로 332 3층 (상도동)",126.9512746,37.4984752
"제2노량진메가스터디보습학원","서울특별시 동작구 장승배기로 171 , 7~10층 (노량진동)",126.9399163,37.5129887
"사당예원음악학원","서울특별시 동작구 사당로23아길 1 3층 (사당동)",126.9703798,37.4906952
"정진보습어학원","서울특별시 동작구 상도로 41 2,3층 (대방동)",126.9344718,37.5060053
"본영광독서실","서울특별시 동작구 만양로14라길 21-5 , 1층~5층 (노량진동)",126.9461421,37.5108937
"동작페르마보습학원","서울특별시 동작구 상도로 301 , 3층 (상도1동, 의암빌딩)",126.9491643,37.5016444
"씨엠수학학원","서울특별시 관악구 은천로25길 15  2층(봉천동)",126.9490446,37.4873302
"키움학원","서울특별시 동작구 신대방3길 8 서광빌딩3층 (신대방동)",126.9113667,37.4878072
"남양학원","서울특별시 관악구 남부순환로 1940 남양빌딩3층 (봉천동)",126.9643028,37.4764496
"예당독서실","서울특별시 관악구 은천로 114 4층 (봉천동)",126.9479638,37.4865862
"뉴골든벨독서실","서울특별시 관악구 문성로 102  3,4층(신림동)",126.9148959,37.4774758
"청운독서실","서울특별시 동작구 만양로14가길 10  3,4층(노량진동)",126.9452398,37.5119984
"새하은음악학원","서울특별시 관악구 호암로 528 3층 (신림동)",126.9317212,37.4647145
"잉글리쉬타운에스에스이티어학원","서울특별시 동작구 상도로 366 2-5층 (상도동)",126.9535235,37.49592
"최강어학원","서울특별시 관악구 관악로29길 3  3,6층(봉천동)",126.956418,37.4863675
"버틀러어학원","서울특별시 동작구 상도로39길 37 (상도동)",126.949691,37.5032637
"장선생학원","서울특별시 동작구 여의대방로 182-1 시저스타운2층 (대방동)",126.9219137,37.5031162
"한국커피교육학원","서울특별시 관악구 남부순환로 1905 3,4층 (봉천동)",126.9611264,37.4782815
"하이탑독서실","서울특별시 동작구 상도로45길 31 (상도1동)",126.9448356,37.5049862
"경서독서실","서울특별시 동작구 장승배기로30길 3  (노량진동)",126.9406988,37.5127615
"미선음악학원","서울특별시 관악구 신림로 138 2층 (신림동)",126.9345168,37.4717165
"지앤에스조경학원","서울특별시 동작구 상도로 33 한호빌딩3층 (대방동)",126.9262539,37.5080962
"상도뉴스터디학원","서울특별시 동작구 양녕로 264 , 4층 (상도1동, 노다지사철탕)",126.9485469,37.503313
"재원독서실","서울특별시 동작구 노량진로14가길 16  2-4층(노량진동)",126.9434491,37.512569
"예경오투독서실","서울특별시 동작구 노량진로14길 20  2,3층(노량진동)",126.9423107,37.5125245
"노량진제3한교고시학원","서울특별시 동작구 노량진로 116 , 5~6층 (노량진동)",126.938841,37.5131169
"짱조은독서실","서울특별시 동작구 만양로18길 24  2-3층(노량진동)",126.945545,37.5128977
"참조은독서실-252","서울특별시 동작구 만양로18길 24 4-5층 (노량진동)",126.945545,37.5128977
"점프독서실","서울특별시 동작구 여의대방로44길 9 상가1-5층(대방동)",126.9254944,37.5093489
"줄리스보습학원","서울특별시 관악구 양녕로 74 , 3층 전체 (봉천동)",126.946662,37.4883794
"밤비니지니어스사당학원","서울특별시 동작구 동작대로29길 69 , 303호,307호 일부, 308호 (사당동)",126.9781039,37.4884033
"퀼른음악학원","서울특별시 관악구 난곡로 50 자연빌딩5층일부 (신림동)",127.0209676,37.486462
"주니어랩영어보습학원","서울특별시 관악구 광신길 154 4층(신림동)",126.9269964,37.4654781
"대성독서실","서울특별시 관악구 난우10길 7 3층 (신림동)",126.9181316,37.4762269
"하나방과후보습학원","서울특별시 동작구 동작대로7길 70  2층(사당동)",126.9787992,37.4779472
"슈베르트음악학원","서울특별시 관악구 문성로 222 , 2층 (신림동)",126.9283809,37.4791947
"탑앤탑학원","서울특별시 동작구 만양로 19 신동아리버파크상가301호 (노량진동)",126.9447842,37.5079242
"제3정의학원","서울특별시 동작구 서달로 146  4층(흑석동)",126.9614927,37.5063001
"최강수학보습학원","서울특별시 동작구 여의대방로 210 3층 (대방동)",126.9243798,37.5090684
"더블유실용음악학원","서울특별시 관악구 쑥고개로 139 , 4층(501호ㆍ502호) (봉천동)",126.9520128,37.4788273
"이지독서실","서울특별시 동작구 노량진로 202 남강타워8,9층 (노량진동)",126.9482239,37.5127631
"아이티독서실","서울특별시 동작구 노량진로8길 51  1,2층(노량진동)",126.9381378,37.5123745
"골든벨독서실","서울특별시 동작구 만양로14가길 3  (노량진동)",126.9451231,37.5117712
"해오름독서실","서울특별시 관악구 난향길 24 2,3층(신림동)",126.9176738,37.4628134
"이아이이고려관악2어학원","서울특별시 관악구 난곡로 42 , 파크프라자상가 201~203호 (신림동)",126.9205892,37.460019
"그랜드전문음악학원","서울특별시 관악구 난곡로 42 파크프라자401호 (신림동)",126.9205892,37.460019
"서울보습학원","서울특별시 관악구 난곡로 42 파크프라자501호 (신림동)",126.9205892,37.460019
"선뮤직음악학원","서울특별시 관악구 관악로 244 3층(봉천동)",126.9568625,37.4858731
"강남에듀보습학원","서울특별시 동작구 여의대방로 2 신대방우성스포츠센터201호 (신대방동)",126.90994,37.4922226
"한솔플러스수학학원","서울특별시 관악구 은천로25길 4  2층(봉천동)",126.9490817,37.4869368
"디사이플스보습학원","서울특별시 관악구 문성로16가길 47  3층(신림동)",126.9150715,37.4751068
"강남독서실","서울특별시 관악구 법원단지길 28 5층 (신림동)",126.9192167,37.4741248
"봉천에듀플러스보습학원","서울특별시 관악구 남부순환로 1755 , 3층 (봉천동,한강빌딩)",126.9452832,37.4823004
"피아노피아피아노조율학원","서울특별시 관악구 봉천로 445  2층(봉천동)",126.949505,37.4827083
"동작하이스트보습어학학원","서울특별시 동작구 상도로 34 , 1층 일부, 5층, 6층, 7층 일부 (대방동,산맥빌딩)",126.9262539,37.5080962
"티보습학원","서울특별시 동작구 대방동27길 43 2층 (대방동)",126.9243468,37.5030888
"와이비엠잉글루보습학원","서울특별시 관악구 은천로 81 2층 (봉천동)",126.9442967,37.4869959
"미래학원","서울특별시 관악구 은천로 149 , (1층) (봉천동,행복한감리교회)",126.9520021,37.4865163
"초록음악학원","서울특별시 관악구 관천로11길 90 3층 (신림동)",126.919886,37.4835504
"최일경건축설비기술학원","서울특별시 관악구 남현길 7 한얼프라자401호 (남현동)",126.9776742,37.4760399
"잉글리쉬무무봉천제2학습관보습학원","서울특별시 관악구 인헌길 30  2층(봉천동)",126.9666764,37.4741944
"호크마보습학원","서울특별시 동작구 상도로 71 , (3층) (대방동,성은빌딩)",126.9286448,37.4999859
"동작청담에이프릴어학원","서울특별시 동작구 여의대방로 200  2층(대방동)",126.9343755,37.506182
"연세하늘보습학원","서울특별시 관악구 난곡로 167 , 105동 지하105호,지하106호 (신림동,임광관악파크)",126.9192558,37.469379
"라온트리학원","서울특별시 동작구 상도로 346-2 , 상도엠코타운 애스톤파크 401동 B301 (상도동)",126.9491026,37.496504
"사당간호학원","서울특별시 동작구 동작대로7길 70  3층(사당동)",126.9787992,37.4779472
"쥴리어드음악학원","서울특별시 동작구 장승배기로 142  2층(노량진동)",126.9403991,37.5102791
"포스트모던음악학원","서울특별시 동작구 여의대방로24길 65  5층(대방동)",126.9239051,37.4984841
"합격의법학원","서울특별시 관악구 신림로 77 , 2층ㆍ3층ㆍ4층 (신림동)",126.9407122,37.4703422
"테미스독서실","서울특별시 관악구 신림로 73 2-5층 (신림동)",126.941246,37.4704083
"리더스스터디독서실","서울특별시 관악구 신림로12길 30-4 3,4층 (신림동)",126.9390298,37.4716319
"신한서독서실","서울특별시 동작구 만양로 104  4층(노량진동)",126.9444871,37.5127558
"진수학학원","서울특별시 관악구 난곡로 197 남강빌딩5층 (신림동)",126.9189265,37.47253
"대현보습학원","서울특별시 관악구 남부순환로 1495 , 3층·6층 일부 (신림동, 삼우빌딩)",126.916839,37.4825162
"지앤비(GnB)영어전문학원","서울특별시 관악구 양녕로 58 , 401호 (봉천동)",126.9470838,37.4872542
"예명음악학원","서울특별시 관악구 신림로 264  3층(신림동)",126.9326288,37.4786348
"서일영어인헌학원","서울특별시 관악구 인헌길 40 2층 (봉천동)",126.9665737,37.4736871
"에스디실용음악학원","서울특별시 동작구 양녕로 253-8 (상도1동)  2,3층(상도1동)",126.9471632,37.5032664
"이젠보습학원","서울특별시 동작구 상도로 358  진영빌딩2층(상도동)",126.9280597,37.4968758
"씨엘씨하바드학원","서울특별시 동작구 여의대방로 22 , 우성상가 302호일부·303호",126.9116189,37.4923219
"서문보습학원","서울특별시 관악구 쑥고개로11길 38 , 3층,4층 (봉천동)",126.94268,37.4813617
"대산전기기술학원","서울특별시 동작구 노량진로 226 , 1층일부,2층 (본동)",126.9510418,37.5122861
"유진독서실","서울특별시 관악구 구암길 76 (봉천동)  4층(봉천동)",126.9478914,37.4916693
"김현애보습학원","서울특별시 관악구 난향길 14  2층(신림동)",126.9180505,37.4628745
"수학돼지보습학원","서울특별시 동작구 상도로 219 , 5층 (상도동, 순아타운)",126.9431441,37.5054021
"잉글리쉬스트림보습학원","서울특별시 관악구 당곡길 36  2층(봉천동)",126.928897,37.4908832
"서강프라임어학원","서울특별시 관악구 봉천로 454 , 1층 (봉천동, 미래오피스텔)",126.9477088,37.4824362
"신한림법학원","서울특별시 관악구 신림로23길 16 , 4층 (신림동)",126.9455001,37.4681523
"노량진비타에듀학원","서울특별시 동작구 노량진로 186 , 3층 일부 및 4,5층 (노량진동,한샘학원)",126.9461198,37.5127235
"디엠독서실","서울특별시 동작구 노량진로8길 43  1,2층(노량진동)",126.9378155,37.5124446
"아벨에듀보습학원","서울특별시 관악구 행운1길 50 2층 (봉천동)",126.9570951,37.4809329
"아벨보습학원","서울특별시 관악구 남부순환로 1915 , 4층 일부 (봉천동, 신한빌딩)",126.9621958,37.4778787
"사랑독서실","서울특별시 동작구 성대로39길 2 사랑빌딩4층 (상도동)",126.9413211,37.5005814
"마루사이버독서실","서울특별시 동작구 성대로2길 7 대성빌딩 (상도동)",126.9316928,37.4993477
"베베궁킨더미술학원","서울특별시 관악구 양녕로 50  6층(봉천동)",126.9472347,37.4864085
"연세실용음악학원","서울특별시 관악구 장군봉1길 48 2층 (봉천동)",126.9427008,37.4814934
"수무용학원","서울특별시 동작구 장승배기로 41 문민빌딩 (상도동)",126.9407277,37.5015627
"대한논리논술학원","서울특별시 동작구 여의대방로 250 , 상가동,상가 3-5.3-6호 (대방동, 대림아파트)",126.9295968,37.5126338
"숨실용음악학원","서울특별시 관악구 문성로 82  2층(신림동)",126.9125734,37.4771806
"메인스트림실용음악학원","서울특별시 관악구 남부순환로 1465  3층(신림동)",126.9134763,37.4818968
"미래고시학원","서울특별시 동작구 노량진로 166 , 영빌딩 3층 일부 (노량진동,제일은행노량진지점)",126.944644,37.5134185
"멘토스학원","서울특별시 동작구 사당로23나길 16  2층(사당동)",126.9750009,37.4872555
"세스토킹학원","서울특별시 동작구 장승배기로 4 , 대왕빌딩 2층 (상도동)",126.9438887,37.4992717
"제이비엠수학보습학원","서울특별시 동작구 여의대방로36길 29 상가5층(대방동)",126.9246398,37.5071867
"정인보습학원","서울특별시 동작구 신대방1가길 38 , 2층 213호 (신대방동, 동작상떼빌)",126.9071323,37.4876225
"로고스학원","서울특별시 동작구 국사봉1길 87 2층 (상도동)",126.9318816,37.4976059
"엠에스수학보습학원","서울특별시 관악구 광신길 104  2층(신림동)",126.9259626,37.4637026
"대원교육티처메카고시학원","서울특별시 동작구 노량진로 202 , 2층 (노량진동, 남강타워)",126.9482239,37.5127631
"조선생영어보습학원","서울특별시 동작구 여의대방로 198 남경빌딩2층 (대방동)",126.9224235,37.5043967
"보라매잉글리쉬무무보습학원","서울특별시 관악구 당곡길 11 2층 (봉천동)",126.928782,37.4898315
"봉천에듀플렉스에듀코치학원","서울특별시 관악구 은천로 97 , 3층 일부 (봉천동,공원빌딩)",126.9462732,37.4870794
"웰탑스터디독서실","서울특별시 관악구 신림로23길 21 2~5층 (신림동)",126.9350428,37.4699408
"청명보습학원","서울특별시 동작구 보라매로 59 세종빌딩2층 (신대방동)",126.9733032,37.5717841
"에이엔티영상음악학원","서울특별시 관악구 남부순환로 1492 2층 (신림동)",126.9163917,37.4818596
"서울강남어학원","서울특별시 관악구 난곡로 210 5층 (신림동)",126.9184995,37.4736875
"타임에듀하이스트보습학원","서울특별시 동작구 상도로 39 4층,5층 (대방동)",126.9262539,37.5080962
"더베스트영어보습학원","서울특별시 동작구 상도로 231  2층(상도동)",126.9445057,37.5054097
"멘토수학전문보습학원","서울특별시 동작구 상도로 214 , 5층 (상도동,성은빌딩)",126.9286707,37.5000143
"고설아보습학원","서울특별시 동작구 여의대방로36길 4 2층 (대방동)",126.9224691,37.5038961
"하늘독서실","서울특별시 동작구 여의대방로 284  3,4층(대방동)",126.9254966,37.5119547
"서울예술음악학원","서울특별시 관악구 난향길 5 (신림동)",126.9185189,37.4626859
"토킹월드어학원","서울특별시 동작구 상도로 219 순아타운2층 (상도동)",126.9431441,37.5054021
"동작정이조외국어학원","서울특별시 동작구 상도로 213 , 3~4층 (상도동, 세담빌딩)",126.9425638,37.5054825
"에임하이보습학원","서울특별시 동작구 여의대방로24사길 12 , 2층 (대방동, 백향빌딩)",126.925416,37.4993511
"연세플러스보습학원","서울특별시 관악구 난곡로 53 , 402호ㆍ404호 (신림동,관악산휴먼시아)",126.919867,37.459186
"주니퍼실용음악학원","서울특별시 동작구 국사봉1길 3 남지빌딩4층401호 (대방동)",126.928754,37.4990422
"윌비스임용고시학원","서울특별시 동작구 노량진로 202 남강빌딩5층 (노량진동)",126.9482239,37.5127631
"수학여행보습학원","서울특별시 관악구 쑥고개로 92-1 1,2층(봉천동)",126.9467667,37.479069
"뿌리영어보습학원","서울특별시 관악구 신림로 169  5층(신림동)",126.9337003,37.4741978
"숙명음악학원","서울특별시 동작구 상도로 43-2 , 2,3층 (대방동,덕성빌딩)",126.9254765,37.5001531
"양세희수능영어학원","서울특별시 관악구 관악로30길 12 우성아파트 상가210~212호 (봉천동)",126.959439,37.4850876
"배민효영어수학보습학원","서울특별시 동작구 서달로 158 명수대상가202호 (흑석동)",126.9622783,37.5072918
"일등급수학보습학원","서울특별시 관악구 은천로 80 3층 (봉천동)",126.9442288,37.4865187
"반석음악학원","서울특별시 관악구 쑥고개로 73-1 3층(청룡동)",126.9447482,37.4795763
"탑클래스스터디독서실","서울특별시 관악구 신림로17길 87 1,2층 (신림동)",126.9365496,37.4668358
"캐슬파크독서실","서울특별시 동작구 만양로 19 , 신동아상가 403호 (노량진동,신동아리버파크임대아파트)",126.9513889,37.5094444
"잉글리쉬무무관악신사보습학원","서울특별시 관악구 남부순환로161길 9 2층 (신림동)",126.9212677,37.4836288
"대양독서실","서울특별시 관악구 신림로23길 62  2,3층(신림동)",126.9343423,37.4681612
"사당대성보습학원","서울특별시 동작구 사당로23길 191 1,2층 (사당동)",126.97054,37.4904767
"전미화영수학원","서울특별시 동작구 등용로 127 , 대방동현대아파트103동상가(다동) 301호 일부 (대방동, 대방동현대아파트)",126.931031,37.512652
"관악원더랜드랭콘잉글리쉬어학원","서울특별시 관악구 은천로25길 63 , 한빛프라자 5층 501호 (봉천동,한빛프라자)",126.9486211,37.4888231
"노량진한빛독서실","서울특별시 동작구 노량진로 148-3 3~5층 (노량진동)",126.9423778,37.5133748
"윤선생영어숲동작보습학원","서울특별시 동작구 사당로 264-1 5층 (사당동)",126.9772292,37.4834715
"윤선생영어숲대방어학원","서울특별시 동작구 여의대방로 28 상가112동A501호(신대방동)",126.9121213,37.4946422
"종로엠신림보습학원","서울특별시 관악구 난곡로 50 , 2층 일부ㆍ4층 일부 (신림동, 신림동 1735-8 제2종근린생활시설 (자연기 )",126.9201169,37.4604317
"서울무용학원","서울특별시 관악구 문성로 95 (신림동,3층)",126.9141534,37.4776952
"위너스스터디독서실","서울특별시 관악구 신림로28길 49-8 , 2층~5층 (신림동)",126.9363071,37.4725391
"잉글리쉬무무청룡제1보습학원","서울특별시 관악구 쑥고개로 61-1 3층 (봉천동)",126.9434126,37.4796769
"아이들의창작갤러리미술학원","서울특별시 관악구 관악로 251 , 4층 (봉천동)",126.9567764,37.4868581
"미소인스터디독서실","서울특별시 동작구 장승배기로 169  (노량진동)",126.9399995,37.512703
"윤선생영어숲대방대림어학원","서울특별시 동작구 상도로 63 , 진성마블러스 2층 (대방동)",126.9262539,37.5080962
"케이유유레카보습학원","서울특별시 동작구 국사봉길 18 2층 (신대방동)",126.9289533,37.4983425
"뉴형설학원","서울특별시 동작구 양녕로 281 3층(상도1동)",126.9494402,37.5045356
"율보습학원","서울특별시 동작구 상도로53길 65 1층(상도동)",126.9538133,37.5028687
"아세아음악학원","서울특별시 관악구 시흥대로 540 3층 (신림동)",126.9006283,37.4813013
"윤선생영어숲신림북부보습학원","서울특별시 관악구 난곡로34길 5 , 2층 (신림동)",126.9196425,37.472587
"씨티아이한국경영학원","서울특별시 관악구 남부순환로 1385 3층 (신림동)",126.9046778,37.4802469
"아르꼬망세미술학원","서울특별시 관악구 은천로 78 3층 (봉천동)",126.9438763,37.4864173
"키맨학원","서울특별시 관악구 관악로30길 12 우성아파트 상가405호,406호일부 (봉천동)",126.959439,37.4850876
"점프잉글리쉬어학원","서울특별시 동작구 알마타길 28 1층일부,2층 (대방동)",126.9280729,37.5109572
"하나씨엠에스보습학원","서울특별시 동작구 매봉로 40 1,2층(상도1동)",126.9514008,37.5065182
"뉴명문독서실","서울특별시 동작구 만양로8길 63 , 2~4층 (노량진동)",126.9457891,37.5102589
"스페이스독서실","서울특별시 관악구 복은4길 37 지1층~4층 (신림동)",126.9378415,37.4726862
"예스보습학원","서울특별시 동작구 보라매로7가길 1 3층 (신대방동)",126.9264784,37.4936355
"공학원","서울특별시 동작구 보라매로 77 2층 (신대방동)",126.9273965,37.4962506
"킨더키즈어학원","서울특별시 동작구 양녕로25사길 21 2,3층,4층일부 (상도동)",126.9404936,37.4976699
"튼튼영어마스터클럽사당서린보습학원","서울특별시 동작구 사당로16길 90 1,2층 (사당동)",126.9712727,37.4799273
"케이팝실용음악학원","서울특별시 동작구 양녕로 257 , 4층 (상도1동, 외환은행상도역지점)",126.9472799,37.5031253
"보노컴퓨터학원","서울특별시 관악구 신림로 202 , 4층 (신림동, 신성빌딩)",126.9158945,37.4883766
"예지독서실","서울특별시 동작구 만양로18길 14  (노량진동)",126.9449906,37.5129837
"에스엘에이독서실","서울특별시 관악구 관악로 132 (봉천동)",126.9527058,37.4769682
"유로보습학원","서울특별시 관악구 양녕로 58 2층(봉천동)",126.9470838,37.4872542
"보라매야마하음악학원","서울특별시 동작구 보라매로5가길 16 , 508,509호 (신대방동, 보라매아카데미타워)",126.924422,37.491289
"눈높이러닝센터상도약수학원","서울특별시 동작구 양녕로26길 29 파크빌딩2층 (상도동)",126.9441999,37.4971688
"오향플로리스트학원","서울특별시 관악구 남부순환로 1919 , 3층 (봉천동)",126.9626084,37.4776503
"뉴스카이독서실","서울특별시 관악구 은천로 25 7층 (봉천동)",126.9382515,37.4863705
"옵티머스독서실","서울특별시 동작구 등용로 85 , 2~7층 (대방동)",126.9319353,37.5089928
"관악리더스보습학원","서울특별시 관악구 봉천로 307  2층(봉천동)",126.9349875,37.4866592
"조선생보습학원","서울특별시 동작구 여의대방로 202 3층 (대방동)",126.9243798,37.5090684
"아이비실용음악학원","서울특별시 관악구 남부순환로 1648 5층 (신림동)",126.9338947,37.4844724
"준독서실","서울특별시 동작구 만양로12길 16 2층~4층 (노량진동)",126.9462984,37.5100787
"윤선생영어숲사당학원","서울특별시 동작구 사당로 172 2층 (사당동)",126.9678859,37.4864565
"열공독서실","서울특별시 관악구 남부순환로161길 63  2층~3층 (신림동)",126.9188551,37.4849475
"밤비니지니어스보습학원","서울특별시 동작구 장승배기로 37 4층 (상도동)",126.9409449,37.5012727
"미래지도자보습학원","서울특별시 관악구 낙성대로3길 23-3 , 2층 및 3층 (봉천동)",126.9603499,37.4743515
"이젠수학·과학전문학원","서울특별시 관악구 양녕로 93 블루밍센터빌딩301호 (봉천동)",126.9451461,37.489958
"프라미스보습학원","서울특별시 동작구 동작대로29길 69  두성프라자401호 (사당동)",126.9781039,37.4884033
"메가탑보습학원","서울특별시 관악구 조원로 160-1  2층 (신림동)",126.9200751,37.4858084
"소리여울사당국악학원","서울특별시 동작구 동작대로 71 태농빌딩502호 (사당동)",126.9815359,37.4828122
"눈높이러닝센터신사보습학원","서울특별시 관악구 조원로 128 3층 (신림동)",126.9166326,37.4850668
"윤선생영어교실보라매영어숲보습학원","서울특별시 관악구 보라매로 4 3층 (봉천동)",126.9279646,37.4898962
"관악분원정상어학원","서울특별시 관악구 남부순환로 1761 2층 (봉천동)",126.9459775,37.4822093
"일등공습학원","서울특별시 관악구 보라매로 14 3층 (봉천동)",126.9276035,37.4906381
"동방카스속기학원","서울특별시 동작구 남부순환로271길 17 , 3~4층 (사당동)",126.979924,37.4775362
"씨앤엘보습학원","서울특별시 동작구 상도로 252 3층일부 (상도동)",126.9463069,37.5043986
"이젠수학ㆍ논술학원","서울특별시 관악구 은천로25길 69 , 에이플러스프라자 4층 402호 일부(404호) (봉천동,에이플러스프라자)",126.9483289,37.4890187
"원일보습학원","서울특별시 관악구 중앙1나길 2  (봉천동)",126.9534518,37.4835525
"신상카스컴퓨터속기학원","서울특별시 동작구 노량진로 204 2층 (노량진동)",126.9484209,37.5127782
"숙명무용학원","서울특별시 관악구 은천로25길 63 한빛프라자3층305호 (봉천동)",126.9486211,37.4888231
"티케이보습학원","서울특별시 동작구 시흥대로 676 , 2층일부, 4층일부 (신대방동, 창성빌딩)",126.9091728,37.4916816
"관악소마수학보습학원","서울특별시 관악구 관악로 251 , 3층 (봉천동)",126.9567764,37.4868581
"이엔티프렌즈보습학원","서울특별시 관악구 은천로 97  7층(봉천동)",126.9462732,37.4870794
"에이엠에스인터내셔널어학원","서울특별시 동작구 상도로 213 세담빌딩1층 (상도동)",126.9425638,37.5054825
"윤선생영어숲관악인헌보습학원","서울특별시 관악구 봉천로 594 3층일부(302호) (봉천동)",126.9631615,37.476236
"제1관인앤지보습학원","서울특별시 동작구 상도로 73 4층 (대방동)",126.9340944,37.5134599
"유림실용음악학원","서울특별시 관악구 신림로 300 , 웅산빌딩 301호 (신림동, 웅산빌딩)",126.9303377,37.4811
"영전보습학원","서울특별시 관악구 관악로 203 엔젤빌딩602호 (봉천동)",126.9537798,37.4832668
"로고스음악학원","서울특별시 동작구 국사봉1길 87 1,4층 (상도동)",126.9318816,37.4976059
"넷트레인아이티학원","서울특별시 동작구 동작대로 149 , 2층·3층 (사당동, 대흥빌딩)",126.9822768,37.4899054
"핵심수학보습학원","서울특별시 동작구 상도로 297 , 3층 (상도1동)",126.9503906,37.5026536
"윤선생영어교실흑석보습학원","서울특별시 동작구 서달로14가길 1 303호 (흑석동)",126.9631751,37.5077304
"오르다학원","서울특별시 관악구 남부순환로 1434 5층 (신림동)",126.9100168,37.4806332
"에듀윌고시학원","서울특별시 동작구 노량진로 26 , 4층,5층,10층일부,11층 (대방동, 솔표빌딩)",126.9289136,37.5129129
"나리발레무용학원","서울특별시 동작구 동작대로35길 18 3층 (사당동)",126.9813773,37.4910788
"주신음악학원","서울특별시 관악구 조원로 158 2,3층 (신림동)",126.9196634,37.4857424
"눈높이러닝센터신대방보습학원","서울특별시 동작구 상도로 58 동백빌딩2층 (대방동)",126.9262539,37.5080962
"눈높이러닝센터인헌보습학원","서울특별시 관악구 인헌6길 21 4층 (봉천동)",126.9655085,37.4738661
"제니스숭실베어드어학원","서울특별시 동작구 상도로 346 (상도동,우일빌딩 4층)",126.9491026,37.496504
"진명독서실","서울특별시 관악구 남부순환로 1796 삼호빌딩8층 (봉천동)",126.9495781,37.4812853
"이티영어보습학원","서울특별시 동작구 여의대방로36길 29 , 2층 일부 (대방동,대림아파트)",126.9246398,37.5071867
"감성미술음악학원","서울특별시 관악구 낙성대역16길 13 , 1~2층 (봉천동)",126.9647888,37.4734219
"이화보습학원","서울특별시 관악구 난곡로 197 남강빌딩6층 (신림동)",126.9189265,37.47253
"시대인재보습학원","서울특별시 관악구 남부순환로 1783 , 4층ㆍ7층 (봉천동)",126.9483549,37.4820007
"나래요리학원","서울특별시 관악구 은천로 42 , 2층 (봉천동)",126.9400053,37.4859709
"가람독서실","서울특별시 관악구 호암로 584 , 1층 (신림동, 가림스터디)",126.9330021,37.469316
"눈높이러닝센터신원보습학원","서울특별시 관악구 신원로3가길 1 2,3층 (신림동)",126.9278984,37.4813149
"제일명문독서실","서울특별시 동작구 만양로2길 2 (4~5층) (상도동)",126.9477199,37.5062277
"미술로생각하기관악서울대미술학원","서울특별시 관악구 은천로 114 6층3호 (봉천동)",126.9479638,37.4865862
"정호올림피아드보습학원","서울특별시 관악구 남부순환로 1517 5층 (신림동)",126.91906,37.4829635
"미술로생각하기상도미술학원","서울특별시 동작구 만양로3길 80 3층 (노량진동)",126.9406805,37.5055773
"엠앤이영어수학학원","서울특별시 관악구 신림로 265 202호 (신림동)",126.9318251,37.4782212
"일신영어수학보습학원","서울특별시 관악구 난곡로 255 , 2, 3층 (신림동,일양)",126.9154341,37.4766915
"인헌독서실","서울특별시 관악구 인헌6길 16 3층 (봉천동)",126.9659943,37.4740596
"아이비음악학원","서울특별시 관악구 은천로25길 63 한빛프라자202호 (봉천동)",126.9486211,37.4888231
"브니엘넥서스스터디독서실","서울특별시 관악구 호암로 582 2~4층 (신림동)",126.9329098,37.4692043
"쉬즈네일미용학원","서울특별시 관악구 남부순환로 1903 2층 (봉천동)",126.9609539,37.4783341
"튼튼영어마스터클럽신대방보습학원","서울특별시 동작구 상도로 45 , 미성빌딩 3층 (대방동,미성빌딩)",126.9258296,37.4995324
"박문각남부경찰학원","서울특별시 동작구 노량진로 146 , 중1층,9층,10층 (노량진동)",126.9421572,37.5132179
"에코실용음악학원","서울특별시 동작구 상도로 73 보광빌딩3층일부 (대방동)",126.9289206,37.4998754
"신동성환경기술학원","서울특별시 동작구 노량진로 4 , 4층 일부 (대방동,대방빌딩)",126.9289136,37.5129129
"눈높이러닝센터상도성대보습학원","서울특별시 동작구 성대로 18 2층 (상도동)",126.9324799,37.4995836
"하늘교육동작학원","서울특별시 동작구 동작대로39길 22 , 이수힐스테이트아파트단지내상가 2층 233~237 (동작동)",126.9781509,37.4946969
"셀파수학보습학원","서울특별시 관악구 관악로 244 201호 (봉천동)",126.9568625,37.4858731
"성운보컬알에이치티실용음악학원","서울특별시 관악구 봉천로 298 3층 (신림동)",126.9336616,37.4863922
"온스테이지실용음악학원","서울특별시 관악구 신림로 340 르네상스쇼핑몰1303호,1304호 (신림동)",126.9300144,37.4845963
"수피아보습학원","서울특별시 관악구 구암5길 16 , 2층~3층 (봉천동)",126.9470722,37.490014
"숭실테리앤제니어학원","서울특별시 동작구 상도로41가길 3 1,2층(상도1동)",126.9499799,37.5023391
"희소독서실","서울특별시 동작구 노량진로 206 4층 (노량진동)",126.9486562,37.5126965
"스마트독서실","서울특별시 동작구 노량진로14가길 11 5층(노량진동)",126.9431121,37.5128011
"스마트투독서실","서울특별시 동작구 노량진로14가길 11 6층(노량진동)",126.9431121,37.5128011
"스마트쓰리독서실","서울특별시 동작구 노량진로14가길 11 7층(노량진동)",126.9431121,37.5128011
"튼튼영어마스터클럽상도보습학원","서울특별시 동작구 만양로 16 3층 (상도동)",126.9474354,37.5060333
"아트원스토리게임그래픽학원","서울특별시 관악구 신림로 303 , 3층 (신림동,호림빌딩)",126.9297306,37.481437
"청어람보습학원","서울특별시 관악구 난곡로 244 3층 (신림동)",126.9165314,37.4758645
"해말글창논술학원","서울특별시 관악구 관악로 251 5층 (봉천동)",126.9567764,37.4868581
"예바스무용학원","서울특별시 동작구 상도로 332 , 2층 (상도동)",126.9512746,37.4984752
"필름스테이션영화학원","서울특별시 동작구 여의대방로22길 48 2층(신대방2동)",126.9225735,37.4975727
"노량진대성학원","서울특별시 동작구 노량진로 120 , 2층 일부, 7층 일부 (노량진동)",126.9400363,37.5125771
"맵플러스수학보습학원","서울특별시 동작구 만양로 16 2층 (상도동)",126.9474354,37.5060333
"쥴리스이화음악학원","서울특별시 동작구 상도로 219 순아타운4층일부(좌측) (상도동)",126.9431441,37.5054021
"두드림독서실","서울특별시 동작구 상도로 121 , 3층 (상도동,영진빌딩)",126.9226525,37.5045898
"비츠실용음악학원","서울특별시 관악구 신림로 134 7층 (신림동)",126.934831,37.4716391
"경원오투독서실","서울특별시 동작구 상도로47길 4 이화빌딩2층 (상도동)",126.9514462,37.4995147
"솔잎샘수학영어학원","서울특별시 관악구 난곡로 254 2층,3층 (신림동)",126.9158981,37.4766642
"개념원리수학동작상도제1보습학원","서울특별시 동작구 양녕로27길 23 두영빌딩2층 (상도동)",126.9425047,37.4989305
"고운소리음악학원","서울특별시 관악구 성현로 80 관악드림타운주상가동211호 (봉천동)",126.951836,37.4893411
"윌비스고시학원","서울특별시 동작구 만양로 105 , (2층 일부, 3층, 4층) (노량진동)",126.9439876,37.5128063
"오플러스독서실","서울특별시 관악구 신림로30길 11-13  (신림동)",126.9361019,37.4735419
"와이비엠잉글루난향제1보습학원","서울특별시 관악구 난곡로 42 파크프라자402호 (신림동)",126.9205892,37.460019
"튼튼영어동작지사마스터클럽사당본원보습학원","서울특별시 동작구 사당로13길 6 3층 (사당동)",126.9727828,37.4842493
"문단열의아이스펀지잉글리쉬관악어학원","서울특별시 관악구 보라매로 15 , (3,4층) (봉천동)",126.926988,37.4907406
"창조의아침본원미술학원","서울특별시 관악구 남부순환로 1797 호혜빌딩3층일부 (봉천동)",127.0123019,37.4809348
"케네디영수보습학원","서울특별시 관악구 인헌17길 3 2층 (봉천동)",126.968043,37.470512
"이상화쌤수학보습학원","서울특별시 관악구 호암로 530 4층 (신림동)",126.9317114,37.4649261
"이룸독서실","서울특별시 관악구 인헌6길 9 4층 (봉천동)",126.9662011,37.4738145
"에이치피에스킨더하우스어학원","서울특별시 관악구 관악로30길 12 우성타운상가410호,503호,505호 (봉천동)",126.9582793,37.4861554
"이희영국어보습학원","서울특별시 관악구 호암로 534 2층(신림동)",126.9316446,37.4652463
"노량진비타에듀3.0입시학원","서울특별시 동작구 노량진로 186 , 2층 및 3층 일부 (노량진동,한샘학원)",126.9461198,37.5127235
"눈높이러닝센터사당에이스보습학원","서울특별시 동작구 동작대로29길 69 두성프라자402호일부 (사당동)",126.9781039,37.4884033
"솔로몬플러스독서실","서울특별시 동작구 노량진로16길 14, 3층,4층 (노량진동)",126.9436046,37.5129281
"더큼미술학원","서울특별시 동작구 동작대로29길 69 두성프라자403호 (사당동)",126.9781039,37.4884033
"이룸보습학원","서울특별시 관악구 난곡로 189 명성빌딩5층 (신림동)",126.9192816,37.4718962
"해찬솔보습학원","서울특별시 관악구 봉천로 218 3층 (신림동)",126.9257106,37.4895288
"드림앤피아노음악학원","서울특별시 관악구 남부순환로 1728 4층 (봉천동)",126.9420171,37.4821045
"오엠디예술종합무용학원","서울특별시 관악구 남부순환로 1925 8층 (봉천동)",126.9632709,37.4774876
"탑패스행정학원","서울특별시 관악구 신림로 122  2층(신림동)",126.9358669,37.471298
"그림배우기미술학원","서울특별시 동작구 상도로 252  (상도동)",126.9463069,37.5043986
"디자인창조의아침미술학원","서울특별시 동작구 노량진로 118  (노량진동)",126.9391023,37.513195
"어반플레이댄스학원","서울특별시 관악구 남부순환로 1530 , 4층,5층 (신림동)",126.9206151,37.4826209
"원스톱보습학원","서울특별시 동작구 신대방14길 16 지하1층 (신대방동)",126.9113431,37.4896649
"빌드윈용접학원","서울특별시 관악구 신사로 92 3층 (신림동)",126.9129928,37.4865544
"소올미술학원","서울특별시 관악구 은천로25길 63 , 한빛프라자 205호 (봉천동,한빛프라자)",126.9486211,37.4888231
"에듀킨미용학원","서울특별시 관악구 신림로 353 6층 (신림동)",126.9291752,37.4857317
"백송미술학원","서울특별시 동작구 노량진로 145  (노량진동)",126.9420481,37.5138179
"액팅원연기학원","서울특별시 동작구 동작대로7길 56 , 2층 액팅원연기학원 (사당동)",126.9791656,37.4784388
"파라오쥬니어미술학원","서울특별시 동작구 남부순환로 2053  (사당동)",126.9767743,37.4768656
"따뜻한아이티컴퓨터학원","서울특별시 관악구 문성로 236 평희빌딩4층 (신림동)",126.9297267,37.4787669
"관악예원음악학원","서울특별시 관악구 미성8길 1 2층 (신림동)",126.9134722,37.4742154
"엘티에스행정학원","서울특별시 관악구 신림로 89 A호2층 (신림동)",126.9395117,37.4702513
"노리안서울대점학원","서울특별시 관악구 양녕로 93 블루밍센타빌딩302호,501호,502호 (봉천동)",126.9451461,37.489958
"예원독서실","서울특별시 동작구 노량진로10길 32 (노량진동)",126.9374056,37.5120003
"탑스터디보습학원","서울특별시 관악구 남현7길 2 , 2층 (남현동)",126.9758911,37.4733132
"최강알파보습학원","서울특별시 관악구 장군봉1길 35 , 2층 전체 (봉천동,삼성체육관)",126.9603062,37.473014
"시사와이비엠잉글루보습학원","서울특별시 관악구 성현로 80 401동 2호(봉천동, 관악드림타운)",126.951836,37.4893411
"푸른이엠보습학원","서울특별시 동작구 노량진로 254  (본동)",126.9548075,37.5124403
"하우패스고시학원","서울특별시 관악구 신림로 91 , 3층 2호, 3호 (신림동)",126.9390781,37.4702988
"탄츠플레이무용학원","서울특별시 관악구 남부순환로 1796 , 9층 일부 (봉천동,삼호빌딩)",126.9495781,37.4812853
"요미요미신대방학원","서울특별시 동작구 대림로 22 , 6층 (신대방동, 천보빌딩)",126.9107333,37.4872724
"크리스챤쇼보뷰티미용학원","서울특별시 관악구 남부순환로 1630 4층 (신림동)",126.9317592,37.4841999
"탑경찰고시학원","서울특별시 동작구 노량진로 171-3 (노량진동)",126.9457233,37.5142112
"아이비보습학원","서울특별시 동작구 사당로16길 28 (3층) (사당동)",126.9728498,37.4823333
"생각수학보습학원","서울특별시 관악구 청림6길 19-3  2층 (봉천동)",126.9593025,37.4864506
"윤선생영어숲대방남부보습학원","서울특별시 동작구 여의대방로 250 , 상가동 상가 5-1호 (대방동, 대림아파트)",126.9295968,37.5126338
"김민수과학보습학원","서울특별시 동작구 국사봉1길 3 , 301호 (대방동)",126.9287522,37.4990381
"베르디음악학원","서울특별시 관악구 은천로 153 2층 (봉천동)",126.9524472,37.4864242
"홍수학보습학원","서울특별시 동작구 상도로 217-4 (상도동)",126.942865,37.5053806
"제이제이애견미용학원","서울특별시 관악구 시흥대로 550 , 3층 (신림동)",126.9012398,37.4820026
"싸임수학보습학원","서울특별시 관악구 남부순환로 1769 2층 (봉천동)",126.9469311,37.4820997
"탑클래스보습학원","서울특별시 동작구 여의대방로36길 36 , 2층, 3층 (대방동,호림빌딩)",126.9251825,37.5057797
"더크는킨더어학원","서울특별시 동작구 성대로31길 2 , 2층, 3층 (상도동,화성탕)",126.9406055,37.4998406
"노리안상도점학원","서울특별시 동작구 상도로 218 , 2층 (상도동, 차량정비상가)",126.9428672,37.5049815
"한솔브레인보라매학원","서울특별시 동작구 보라매로5가길 16 , 402호 (신대방동, 보라매아카데미타워)",126.924422,37.491289
"로프트독서실","서울특별시 관악구 서림길 125 (신림동)",126.9406782,37.4711466
"에듀모어교원임용고시학원","서울특별시 동작구 노량진로 202 , 남강빌딩 4층 일부, 6층 (노량진동,남강타워)",126.9482239,37.5127631
"상도씨엠피실용음악학원","서울특별시 동작구 상도로 379 , 우신빌딩 2층 (상도동)",126.9549512,37.4952343
"제이앤제이음악학원","서울특별시 동작구 사당로23나길 34  (4층) (사당동)",126.975726,37.4878123
"키즈킹덤유아놀이학원","서울특별시 동작구 보라매로5가길 16 , 302호 (신대방동, 보라매아카데미타워)",126.920282,37.499929
"행운러닝센터보습학원","서울특별시 관악구 남부순환로 1873 , 2층일부 (봉천동,대주빌딩)",126.9579593,37.4795196
"석세스고시학원","서울특별시 관악구 신림로 376 , 201호,402호 (신림동, 대경빌딩)",126.9289208,37.4878712
"신한솔독서실","서울특별시 동작구 노량진로14나길 22 , 1층~2층 (노량진동)",126.9432778,37.5118799
"윤선생영어교실관악영어숲보습학원","서울특별시 관악구 은천로 64 3층 (봉천동)",126.9425004,37.4860004
"박샘에듀보습학원","서울특별시 관악구 신림로 169 , 701호, 702호 (신림동, 영창빌딩)",126.9337003,37.4741978
"아모르이그잼교원임용학원","서울특별시 동작구 노량진로 104 , 14층 (노량진동)",126.9373735,37.5130659
"세잔느이앤에이키즈클럽미술학원","서울특별시 동작구 상도로 352 , (4층) (상도동)",126.9526044,37.4969534
"눈높이러닝센터대방보습학원","서울특별시 동작구 등용로 122  (대방동)",126.9321667,37.5119647
"아모르이그잼학원","서울특별시 동작구 노량진로 104 , 3~13층 (노량진동)",126.9373735,37.5130659
"디실용음악학원","서울특별시 동작구 동작대로 141 , 3층 (사당동)",126.9820406,37.4891996
"카페말로바리스타학원","서울특별시 동작구 장승배기로 18 , 3층 (상도동)",126.9427568,37.5001383
"미래연미술학원","서울특별시 동작구 사당로16길 80 2층 (사당동)",126.9714849,37.4803626
"이투스입시학원","서울특별시 동작구 노량진로 196 , 7층~9층 (노량진동)",126.947502,37.5129701
"대방유투엠학원","서울특별시 동작구 대방동길 83 , 2층 (대방동,정일학원)",126.9245509,37.5054226
"윤선생영어숲관악성현보습학원","서울특별시 관악구 은천로25길 63 , 한빛프라자 304호 (봉천동,한빛프라자)",126.9486211,37.4888231
"타임국어과학보습학원","서울특별시 관악구 남부순환로 1536 , 은성빌딩 402호 (신림동,은성빌딩)",126.9213108,37.482794
"오투2관독서실","서울특별시 동작구 노량진로 196 , JH빌딩 10층 (노량진동)",126.9812394,37.4815022
"지앤비영어정의학원","서울특별시 동작구 흑석한강로 2 , 506호, 507호 (흑석동, 흑석한강센트레빌 상가)",126.9583513,37.5024381
"라임트리영어수학세상보습학원","서울특별시 동작구 흑석한강로 2 , 504호, 505호 (흑석동, 흑석한강센트레빌 상가)",126.9583513,37.5024381
"프라임법고시학원","서울특별시 관악구 신림로 90 , 3층 일부ㆍ4층 전부 (신림동,국제헬스)",126.9393649,37.4709069
"매쓰온매쓰 청강수학 보습학원","서울특별시 관악구 양녕로 58 , 고운빌딩 402호 (봉천동)",126.9470838,37.4872542
"키위잉글리시보습학원","서울특별시 동작구 등용로 124 , 2층 일부 (대방동,삼하빌딩)",126.9321507,37.5122151
"클라비어음악학원","서울특별시 동작구 상도로 338 , 3층 (상도동,영화빌딩)",126.9359199,37.502653
"이지스터디보습학원","서울특별시 동작구 여의대방로 30 , 401,404,405호 (신대방동,현대아파트)",126.9123113,37.4949035
"아담리즈놀이수학","서울특별시 관악구 양녕로 58 , 고운타워 6층 (봉천동)",126.9535822,37.4794085
"대학의촉학원","서울특별시 동작구 상도로 41 , 4층 (대방동,미진빌딩)",126.9251432,37.4999587
"노량진필독서실","서울특별시 동작구 장승배기로28길 19 , 1,2,3층 (노량진동,가동)",126.941327,37.5124166
"은혜독서실","서울특별시 동작구 사당로 261 , 3층, 4층 (사당동,매직고시원)",126.9761109,37.4836005
"비콘영어전문학원","서울특별시 관악구 난곡로 246 , 3층ㆍ4층 (신림동,해천빌딩)",126.9164163,37.4759283
"씨사이트원격학원","서울특별시 관악구 남부순환로233길 13 , 2층 우측 (봉천동)",126.9580454,37.480079
"스카이멘토원격학원","서울특별시 관악구 신림로36길 15 , 1층 (신림동)",126.9383152,37.4760379
"한성경영금융학원","서울특별시 관악구 조원중앙로 13 , 2층 (신림동)",126.9048432,37.4810819
"바오밥미술창작소학원","서울특별시 관악구 관악로 246 , 4층(실제 구조상 3층) (봉천동)",126.9570048,37.4860474
"와이즈리더영어독서학원","서울특별시 관악구 양녕로 50 , 금강빌딩 3층 (봉천동,금강빌딩)",126.9472347,37.4864085
"비에스에듀보습학원","서울특별시 동작구 사당로 276 , 성보빌딩 4층 일부 (사당동,성보빌딩)",126.9784923,37.4838789
"동작프로기사바둑학원","서울특별시 동작구 상도로 336 , 태영빌딩 3층 (상도동,태영빌딩)",126.9515574,37.4982093
"에비뉴학원","서울특별시 동작구 강남초등길 24 , 4층 (상도1동)",126.9519603,37.5050833
"윤스연기학원","서울특별시 동작구 동작대로 141 , 5층 (사당동)",126.9820406,37.4891996
"에이비알통역학원","서울특별시 관악구 관악로 115 , 캠브리지 빌딩 202호 (봉천동)",127.0293553,37.4980163
"해성독서실","서울특별시 관악구 난곡로 180 , 3층 (신림동,해성빌딩)",126.9200334,37.4710732
"법문스터디독서실","서울특별시 관악구 호암로22길 26 (신림동,신림동 상아탑)",126.9341372,37.4687522
"이용구원격학원","서울특별시 관악구 봉천로41길 8 , 도원빌라 102호 (봉천동,도원빌라)",126.9480063,37.4830743
"닥터정이클래스관악보습학원","서울특별시 관악구 은천로25길 63 , 한빛프라자 302호 (봉천동,한빛프라자)",126.9486211,37.4888231
"타겟실용음악학원","서울특별시 관악구 남부순환로 1933 , 3층 (봉천동)",126.9641448,37.4770817
"미소독서실","서울특별시 동작구 만양로14가길 17 ,  4층 (노량진동,신광대중목욕탕)",126.9448514,37.5122716
"요미요미사당학원","서울특별시 동작구 동작대로29길 69 , 두성상가 206호 (사당동)",126.9781039,37.4884033
"앤플러스학원","서울특별시 관악구 미성3길 13 , 3층 (신림동)",126.9168313,37.4739633
"지안공무원학원","서울특별시 동작구 노량진로 166 , 2층 일부 (노량진동,제일은행노량진지점)",126.944644,37.5134185
"아뜰리에플러스미술학원","서울특별시 동작구 만양로 19 , 신동아리버파크아파트 상가 211호, 212호, 302호 (노량진동,신동아리버파크임대아파트)",126.9447842,37.5079242
"고려영어보습학원","서울특별시 동작구 상도로55길 1 , 4층 (상도동,강현빌딩)",126.9309984,37.5029825
"눈높이러닝센터숭실보습학원","서울특별시 동작구 상도로49길 11 , 3층 (상도동)",126.9521158,37.4992206
"쿨펫애견미용학원","서울특별시 동작구 동작대로 49 , 3~4층 (사당동)",126.9814755,37.4810123
"행복한음악학원","서울특별시 관악구 쑥고개로11길 41 , 3층(우측 2호) (봉천동,보안빌딩)",126.9422532,37.4815446
"아트정미술학원","서울특별시 관악구 은천로 95 , 502동 201호, 202호 (봉천동,벽산블루밍)",126.9444472,37.4883216
"한국외식조리전문학원","서울특별시 관악구 봉천로 227 , 보라매샤르망 301호 (봉천동,보라매 샤르망)",126.9271155,37.4898766
"눈높이러닝센터신림난곡보습학원","서울특별시 관악구 난우길 20 , 3층 (신림동,금창빌딩)",126.918621,37.4747474
"주니보습학원","서울특별시 관악구 문성로 214 , 4층 (신림동,성부빌딩)",126.9026747,37.4475758
"네오진명보습학원","서울특별시 관악구 남부순환로 1796 , (6층, 7층) (봉천동,삼호빌딩)",126.9495781,37.4812853
"이큐브보습학원","서울특별시 관악구 남부순환로 1457 , 2층 (신림동,임포빌딩)",126.9125294,37.4816998
"꿈이크는보습학원","서울특별시 관악구 법원단지9길 3 , 2층 (신림동)",126.920316,37.474334
"동작소마논술학원","서울특별시 동작구 상도로 34 , 4층 (대방동,산맥빌딩)",126.9337729,37.5057666
"금수학학원","서울특별시 동작구 상도로 315 , 2층 (상도1동,상정빌딩)",126.9507265,37.4999832
"여기는관리형2독서실","서울특별시 관악구 신림로 125 (신림동)",126.9354697,37.4706835
"엔탑스터디보습학원","서울특별시 관악구 은천로11길 7 , 1층 (봉천동)",126.9417879,37.4864148
"조이음악학원","서울특별시 관악구 남부순환로 1430 , 신림푸르지오아파트 단지내상가 209호 (신림동,신림푸르지오)",126.9103675,37.4792665
"성진비전학원","서울특별시 동작구 동작대로11길 77 , 성진교회 3층 일부 (사당동)",126.9771348,37.4809289
"세지말스피치학원","서울특별시 동작구 동작대로 71 , 5층 일부 (사당동)",126.9815359,37.4828122
"한국아이씨티학원","서울특별시 동작구 사당로 307 , (4층) (사당동,장덕빌딩)",126.9815401,37.4855055
"퓨처키즈보라매학원","서울특별시 동작구 보라매로5가길 16 , 610호 (신대방동,보라매아카데미타워)",126.924422,37.491289
"민액터스연기학원","서울특별시 동작구 남부순환로 2067 , (6층 일부) (사당동,정석빌딩)",126.9785513,37.4768827
"비타에듀원격학원","서울특별시 동작구 노량진로 186 , (본관 1층 일부, 2층 일부, 신관 6층) (노량진동,한샘학원)",126.9461198,37.5127235
"주라바이올린음악학원","서울특별시 관악구 낙성대로 24-1 , 2층 및 3층 (봉천동)",126.9587763,37.4762128
"오즈독서실","서울특별시 동작구 노량진로 144 , 3,4층 (노량진동,제일고시학원)",126.9418517,37.5133881
"뮤엠영어대방학원","서울특별시 동작구 대방동27길 111 , 3층 (대방동,영진빌딩)",126.9241816,37.5001796
"미래한국인학원","서울특별시 관악구 봉천로 455 , 태영빌딩 4층 (봉천동)",126.9279488,37.4898488
"수리술사보습학원","서울특별시 관악구 양녕로 30 , 청운빌딩 4층 (봉천동,청운빌딩)",126.9469516,37.4845877
"아트채널취미실용미술학원","서울특별시 관악구 남부순환로 2044 , 3층 (남현동,동해빌딩)",126.9759723,37.4762125
"대림간호학원","서울특별시 관악구 남부순환로 1668 , 연안빌딩 5층 (신림동,연안빌딩)",126.9357815,37.4845163
"뮤엠영어관악제1보습학원","서울특별시 관악구 호암로 511 , 벽산블루밍상가 301호 (신림동,벽산블루밍아파트)",126.9313103,37.4639354
"에이블2독서실","서울특별시 관악구 호암로26길 7 , 2층 (신림동,서경독서실)",126.9341154,37.470879
"지앤비남성보습학원","서울특별시 동작구 사당로13길 31 , 두산위브아파트 상가 3층 1호 (사당동)",126.970839,37.484917
