"학교명","주소","lon","lat"
"동대문중학교","서울특별시 동대문구 사가정로 59 , 동대문중학교 (전농동)",127.0520944,37.5745089
"동원중학교","서울특별시 중랑구 양원역로 32 (망우동, 동원중학교)",127.1083446,37.6035604
"면목중학교","서울특별시 중랑구 용마산로70길 37 , (면목동) (면목동)",127.0960613,37.5830377
"봉화중학교","서울특별시 중랑구 망우로70길 89 (망우동,봉화중학교)",127.1039842,37.5962279
"상봉중학교","서울특별시 중랑구 상봉중앙로8나길 28 (상봉동)",127.0900877,37.6014604
"성일중학교","서울특별시 동대문구 왕산로23길 55 (제기동)",127.0339637,37.5811451
"숭인중학교","서울특별시 동대문구 천호대로47길 34 , 숭인중학교 (답십리동)",127.0439073,37.5737018
"신현중학교","서울특별시 중랑구 봉화산로 162 , 신현중학교 (상봉동)",127.0917629,37.6041156
"용마중학교","서울특별시 중랑구 면목로28길 18 , 용마중학교 (면목동)",127.0860458,37.5743414
"원묵중학교","서울특별시 중랑구 신내로23길 57 , 원묵중학교 (묵동)",127.0864307,37.6178662
"장안중학교","서울특별시 중랑구 동일로 780 (중화동,장안중학교)",127.0807235,37.600592
"장평중학교","서울특별시 동대문구 답십리로72길 158 (장안동)",127.0705317,37.5665027
"전농중학교","서울특별시 동대문구 사가정로13길 71 , 전농중학교 (전농동)",127.0596556,37.5817566
"전동중학교","서울특별시 동대문구 장안벚꽃로 291 , 전동중학교 (휘경동)",127.0709599,37.5855619
"전일중학교","서울특별시 동대문구 사가정로13길 67 (전농동, 전일중학교)",127.058434,37.58182
"중랑중학교","서울특별시 중랑구 동일로140길 33 (중화동)",127.0813987,37.6051919
"중화중학교","서울특별시 중랑구 용마산로 364 , (면목3.8동 83번지) (면목동)",127.0952713,37.5846058
"청량중학교","서울특별시 동대문구 왕산로 301 , 청량중학교 (청량리동)",127.0513507,37.5876169
"태릉중학교","서울특별시 중랑구 공릉로2길 60-25 , 태릉중학교 (묵동)",127.0829024,37.6122811
"휘경중학교","서울특별시 동대문구 망우로18나길 20 (휘경동,휘경중학교)",127.0622278,37.5869524
"경희여자중학교","서울특별시 동대문구 경희대로 26 , 경희여자중학교 (회기동)",127.0511222,37.5945044
"경희중학교","서울특별시 동대문구 경희대로 26 , 경희중학교 (회기동)",127.0548498,37.5945041
"대광중학교","서울특별시 동대문구 안암로 6 (신설동) 대광중학교",127.0248228,37.5784791
"동국대학교사범대학부속중학교","서울특별시 동대문구 장안벚꽃로 201 (장안동)",127.0752098,37.5777907
"송곡여자중학교","서울특별시 중랑구 양원역로 67 (망우본동",127.1053091,37.6063172
"영란여자중학교","서울특별시 중랑구 망우로73길 56 (망우동)",127.1049617,37.6037439
"정화여자중학교","서울특별시 동대문구 홍릉로15길 50 (제기동)",127.0408473,37.5857448
"혜원여자중학교","서울특별시 중랑구 봉우재로 58길 39 (망우동)",127.0967019,37.592991
"휘경여자중학교","서울특별시 동대문구 한천로 247 휘경여자중학교 (휘경동)",127.0674199,37.583169
"가재울중학교","서울특별시 서대문구 수색로 100-75 (북가좌동)",126.9121504,37.5743004
"구산중학교","서울특별시 은평구 갈현로15길 20-23 (구산동)",126.9089984,37.6096908
"덕산중학교","서울특별시 은평구 가좌로 400 (신사동)",126.9043646,37.6017792
"불광중학교","서울특별시 은평구 불광로 180 (불광동)",126.932123,37.6230193
"상신중학교","서울특별시 은평구 증산로15길 61 , 상신중학교 (신사동)",126.9063925,37.5900862
"상암중학교","서울특별시 마포구 상암산로1길 26 , 상암중학교 (상암동)",126.8879741,37.5788431
"서연중학교","서울특별시 서대문구 연희로11마길 9-6 (연희동)",126.9276607,37.5681152
"서울여자중학교","서울특별시 마포구 백범로25길 34 , 128-2 (염리동)",126.948334,37.5486476
"성사중학교","서울특별시 마포구 모래내로9길 16 , 성사중학교 (성산동)",126.9129758,37.5683112
"성산중학교","서울특별시 마포구 성지1길 32-13 (합정동)",126.9160619,37.547454
"성서중학교","서울특별시 마포구 성산로4길 42 , 성서중학교 (성산동)",126.9091158,37.5625244
"신도중학교","서울특별시 은평구 진관1로 77-30 (진관동)",126.9306945,37.6329425
"신수중학교","서울특별시 마포구 신수로 49 (신수동)",126.9336034,37.546446
"신연중학교","서울특별시 서대문구 모래내로 408 , 신연중학교 (연희동)",126.939894,37.5833445
"아현중학교","서울특별시 마포구 마포대로 247 (아현동,아현중학교)",126.9571335,37.5563098
"연북중학교","서울특별시 서대문구 연희로36길 32 (연희동,연북중학교)",126.9377231,37.5776438
"연서중학교","서울특별시 은평구 증산서길 125-6 (증산동)",126.9097051,37.5869994
"연신중학교","서울특별시 은평구 연서로33길 16-32 (불광동,연신중학교)",126.924947,37.6235568
"연천중학교","서울특별시 은평구 연서로41길 30 연천중학교 (불광동)",126.9258482,37.6274422
"연희중학교","서울특별시 서대문구 증가로 170 (남가좌동)",126.9174898,37.5752388
"은평중학교","서울특별시 은평구 갈현로17나길 12-1 (구산동)",126.9084436,37.6107316
"인왕중학교","서울특별시 서대문구 세검정로4길 , 69 (홍제동)",126.9517708,37.5926488
"중암중학교","서울특별시 마포구 월드컵북로38길 25 (중동,중암중학교)",126.9034705,37.5722482
"증산중학교","서울특별시 은평구 증산로5길 27-30 증산중학교 (증산동)",126.9041712,37.5836423
"진관중학교","서울특별시 은평구 진관4로 36 , 진관중학교 (진관동)",126.9256292,37.6439091
"창천중학교","서울특별시 마포구 백범로1길 56 (노고산동)",126.939668,37.5550078
"홍은중학교","서울특별시 서대문구 연희로41길 94 , (홍은동 183,홍은중학교) (홍은동)",126.9353196,37.5926189
"경성중학교","서울특별시 마포구 성미산로 111 , 경성중학교 (연남동)",126.9195577,37.563718
"광성중학교","서울특별시 마포구 신수로8길 20 , 광성중학교 (신수동)",126.9363908,37.5487585
"대성중학교","서울특별시 은평구 갈현로29길 51-24 , 대성중고등학교 (갈현동)",126.9097809,37.623122
"동도중학교","서울특별시 마포구 백범로 139 (염리동)",126.9464727,37.5473076
"동명여자중학교","서울특별시 서대문구 독립문로 49 (천연동)",126.962344,37.568545
"명지중학교","서울특별시 서대문구 명지2길 56 (홍은동)",126.9270773,37.5848709
"선일여자중학교","서울특별시 은평구 갈현로29길 27 (갈현동,선일여자중학교)",126.9129092,37.6198158
"선정중학교","서울특별시 은평구 서오릉로20길 19 , 선정중학교 (갈현동)",126.9087108,37.618336
"숭문중학교","서울특별시 마포구 숭문길 99 (대흥동,숭문중고등학교)",126.9451307,37.5515272
"숭실중학교","서울특별시 은평구 은평터널로7길 6 (신사동)",126.9032327,37.593125
"영락중학교","서울특별시 은평구 백련산로 134-6 , 영락중학교 (응암동)",126.925105,37.5969343
"예일여자중학교","서울특별시 은평구 연서로 117 (구산동)",126.9152074,37.610194
"이화여자대학교사범대학부속이화<U+30FB>금란중학교","서울특별시 서대문구 성산로 520 (대신동)",126.9441304,37.5626975
"인창중학교","서울특별시 서대문구 경기대로 65 , 인창중학교 (충정로2가)",126.9642522,37.5652529
"정원여자중학교","서울특별시 서대문구 연희로37안길 51 , 정원여자중학교 (홍은동)",126.9333622,37.5853095
"중앙여자중학교","서울특별시 서대문구 북아현로11가길 7 (북아현동)",126.9531684,37.5628641
"충암중학교","서울특별시 은평구 가좌로5길 5 (응암동)",126.9217386,37.5850457
"한성중학교","서울특별시 서대문구 북아현로3길 24 (북아현동,한성중<U+30FB>고등학교)",126.9545831,37.5599241
"홍익대학교사범대학부속여자중학교","서울특별시 마포구 성미산로 51 , 홍익대학교사범대학부속여자중학교 (성산동)",126.9134939,37.5601072
"가산중학교","서울특별시 금천구 시흥대로115길 48 , 가산중학교 (독산동)",126.8943377,37.4684705
"개봉중학교","서울특별시 구로구 고척로21나길 68 , 개봉중학교 (개봉동)",126.8419568,37.5027624
"개웅중학교","서울특별시 구로구 개봉로11길 81 , 개웅중학교 (개봉동,개웅중학교)",126.8512184,37.4872782
"경인중학교","서울특별시 구로구 경인로 301 ,   (개봉동,경인중학교)",126.8542754,37.498177
"고척중학교","서울특별시 구로구 중앙로3길 20 (고척동)",126.8619978,37.5002646
"구로중학교","서울특별시 구로구 구로중앙로 48 (구로동,구로중학교)",126.890612,37.4948193
"구일중학교","서울특별시 구로구 구일로 90-133 , 구일중학교 (구로동)",126.8741206,37.4951528
"난곡중학교","서울특별시 금천구 문성로 67 (독산동)",126.9107419,37.4778025
"당산서중학교","서울특별시 영등포구 당산로41길 12 (당산동5가)",126.898589,37.531954
"당산중학교","서울특별시 영등포구 버드나루로 160 (당산동)",126.9075733,37.5314041
"대림중학교","서울특별시 영등포구 시흥대로185길 6 , 대림중학교 (대림동)",126.9075609,37.492089
"대영중학교","서울특별시 영등포구 도림로80가길 14 (신길동)",126.9049773,37.503337
"문래중학교","서울특별시 영등포구 선유서로13길 6 , 문래중학교 (문래동6가)",126.88423,37.5200944
"문성중학교","서울특별시 금천구 독산로102길 78 , 문성중학교 (독산동)",126.9080339,37.4755169
"선유중학교","서울특별시 영등포구 선유로 213 , 선유중학교 (양평동3가)",126.8943356,37.532804
"세일중학교","서울특별시 금천구 시흥대로147길 34 , 세일중학교 (독산동)",126.8956746,37.4744613
"시흥중학교","서울특별시 금천구 시흥대로38길 60 , 시흥중학교 (시흥동)",126.9064243,37.4463538
"신도림중학교","서울특별시 구로구 경인로63길 74 (신도림동,신도림중학교)",126.8853135,37.5104289
"안천중학교","서울특별시 금천구 한내로 69-44 (독산동)",126.8874105,37.4593606
"양화중학교","서울특별시 영등포구 당산로 56 , 양화중학교 (문래동3가)",126.8960538,37.5197727
"여의도중학교","서울특별시 영등포구 국제금융로7길 46 , 여의도중학교 (여의도동)",126.9358364,37.5238644
"영남중학교","서울특별시 영등포구 대림로31나길 17 , 영남중학교 (대림동)",126.896035,37.4974029
"영림중학교","서울특별시 구로구 가마산로27길 17 (구로동)",126.8903736,37.4975539
"영서중학교","서울특별시 구로구 도림로20길 35 , 영서중학교 (구로동)",126.8945039,37.4887493
"영원중학교","서울특별시 영등포구 영등포로62길 31 , 영원중학교 (영등포동)",126.914068,37.5157325
"오남중학교","서울특별시 구로구 오리로9길 25 , 오남중학교 (오류동)",126.8365967,37.4872364
"오류중학교","서울특별시 구로구 고척로27바길 19 (고척동)",126.8461343,37.5078957
"윤중중학교","서울특별시 영등포구 여의동로3길 3 (여의도동)",126.9237317,37.5189929
"천왕중학교","서울특별시 구로구 천왕로 63 , 천왕중학교 (천왕동)",126.8380167,37.4826657
"한울중학교","서울특별시 금천구 독산로50길 60 한울중학교",127.0536271,37.5063317
"동일중학교","서울특별시 금천구 탑골로10길 45 (시흥동)",126.916402,37.4513899
"문일중학교","서울특별시 금천구 시흥대로47길 45 , 문일중학교 (시흥동)",126.898866,37.4501288
"우신중학교","서울특별시 구로구 부일로 917 (궁동,우신중학교)",126.8262138,37.4961922
"공릉중학교","서울특별시 노원구 노원로1길 42 , 공릉중학교 (공릉동)",127.0836581,37.6223189
"노곡중학교","서울특별시 도봉구 노해로70길 95 , (창동,노곡중학교)",127.0533605,37.6480852
"노원중학교","서울특별시 노원구 동일로213길 26 (상계동,노원중학교)",127.059737,37.6489151
"노일중학교","서울특별시 노원구 동일로231길 24 (상계동,노일중학교)",127.0538628,37.6731101
"녹천중학교","서울특별시 노원구 월계로 376 (월계동)",127.0620087,37.6313108
"도봉중학교","서울특별시 도봉구 마들로 671 (도봉동, 도봉중학교)",127.0457066,37.6705276
"방학중학교","서울특별시 도봉구 시루봉로 188 (방학동)",127.0316064,37.6653358
"백운중학교","서울특별시 도봉구 도봉로129길 50 (도봉동, 백운중학교)",127.0359343,37.6564068
"북서울중학교","서울특별시 도봉구 도봉로169가길 33 (도봉동)",127.0430239,37.6813005
"불암중학교","서울특별시 노원구 한글비석로5길 45 , 불암중학교 (하계동)",127.0734375,37.6458328
"상경중학교","서울특별시 노원구 동일로227길 61 (상계동, 상경중학교)",127.0534723,37.6665733
"상계제일중학교","서울특별시 노원구 덕릉로86길 29-15 , 상계제일중학교 (중계동)",127.0780179,37.6614312
"상계중학교","서울특별시 노원구 노원로 398 (상계동)",127.068872,37.6526466
"상원중학교","서울특별시 노원구 수락산로 182 (상계동, 상원중학교)",127.059403,37.6716623
"수락중학교","서울특별시 노원구 동일로 1729 (상계동)",127.0545754,37.6827948
"신도봉중학교","서울특별시 도봉구 도봉로115길 16 (쌍문동)",127.0331989,37.6492547
"신방학중학교","서울특별시 도봉구 시루봉로 156 (방학동,신방학중학교)",127.0295049,37.6639035
"신상중학교","서울특별시 노원구 동일로216길 42 (상계동,신상중학교)",127.0636532,37.6512204
"신창중학교","서울 노원구 월계로45길 92 (월계동,신창중학교)",127.0475474,37.6283726
"온곡중학교","서울특별시 노원구 노원로 492 (상계동,온곡중학교)",127.0643572,37.66044
"월계중학교","서울특별시 노원구 월계로45가길 54  월계중학교 (월계동)",127.0521549,37.6305561
"을지중학교","서울특별시 노원구 덕릉로 580 (중계동) 을지중학교",127.0720135,37.6501096
"중계중학교","서울특별시 노원구 덕릉로76길 23 (중계동)",127.0754735,37.6550962
"중원중학교","서울특별시 노원구 공릉로 420  (중계2,3동 511-3)",127.068715,37.6420907
"중평중학교","서울특별시 노원구 동일로203길 87 (하계동,중평중학교)",127.0623482,37.636861
"창동중학교","서울특별시 도봉구 방학로 32 (방학동,창동중학교) (방학동)",127.0496429,37.6627119
"창북중학교","서울특별시 도봉구 노해로62길 33 , 창북중학교 (창동)",127.0385766,37.6494708
"창일중학교","서울특별시 도봉구 노해로66길 60 , 창일중학교 (창동)",127.0471549,37.6481094
"태랑중학교","서울특별시 노원구 화랑로51나길 51 , 태랑중학교 (공릉동)",127.0916234,37.6264462
"하계중학교","서울특별시 노원구 노원로 261-8 하계중학교 (하계동)",127.0715694,37.6407496
"한천중학교","서울특별시 노원구 공릉로 265 , 한천중학교 (공릉동)",127.072764,37.6309731
"효문중학교","서울특별시 도봉구 우이천로 432 (쌍문동, 효문중 고등학교 )",127.0182409,37.6522473
"광운중학교","서울특별시 노원구 광운로1길 24 (월계동,광운중학교)",127.0557228,37.6210568
"상명중학교","서울특별시 노원구 덕릉로 553 (중계동,상명중학교)",127.0679584,37.6493041
"선덕중학교","서울특별시 도봉구 시루봉로 53 , 선덕중학교 (쌍문동)",127.0269012,37.6564106
"염광중학교","서울특별시 노원구 월계로45가길 9 , 01874 (월계동)",127.0491809,37.6295827
"재현중학교","서울특별시 노원구 덕릉로82길 64 , 재현중.고등학교 (중계동)",127.0807395,37.6611696
"정의여자중학교","서울특별시 도봉구 노해로49길 69 (쌍문동)",127.0318063,37.6529105
"청원중학교","서울특별시 노원구 한글비석로 506 ,  청원중학교 (상계동)",127.0616772,37.6666244
"서울대학교사범대학부설여자중학교","서울특별시 종로구 대학로 64 (동숭동,서울사대부속여자중학교)",127.0038567,37.5774729
"금호여자중학교","서울특별시 중구 청구로 6 (신당동)",127.0200384,37.5578679
"덕수중학교","서울특별시 중구 마른내로9길 10 (인현동2가)",126.9972964,37.5653267
"선린중학교","서울특별시 용산구 원효로97길 33-4 (청파동3가)",126.9663628,37.5427169
"용강중학교","서울특별시 용산구 이촌로65가길 91 , 용강중학교 (이촌동)",126.9762488,37.5210403
"용산중학교","서울특별시 용산구 두텁바위로 74 , 용산중학교 (용산동2가)",126.9809698,37.5458985
"장원중학교","서울특별시 중구 동호로15길 93-34 , 장원중학교 (신당동)",127.0063639,37.5537683
"창덕여자중학교","서울특별시 중구 정동길 22 (정동)",126.9695822,37.5664694
"청운중학교","서울특별시 종로구 창의문로 51 , 청운중학교 (청운동)",126.9709696,37.5888097
"한강중학교","서울특별시 용산구 녹사평대로 73 (서빙고동)",126.9923454,37.523952
"경신중학교","서울특별시 종로구 혜화로 74 , 경신중학교 (혜화동)",127.0011888,37.5914766
"대경중학교","서울특별시 중구 매봉18길 111 (신당동)",127.0170724,37.5563646
"대신중학교","서울특별시 종로구 사직로 9 (행촌동)대신중학교",126.9617209,37.573367
"덕성여자중학교","서울특별시 종로구 율곡로3길 49 , 덕성여자중학교 (송현동)",126.9819868,37.5777826
"동성중학교","서울특별시 종로구 대학로 156 동성중학교 (혜화동90-7)",127.0021611,37.5857551
"배문중학교","서울특별시 용산구 효창원로 258 , 배문중학교 (서계동)",126.9644427,37.549864
"배화여자중학교","서울특별시 종로구 필운대로1길 34 배화여자중학교",126.9653816,37.5793895
"보성여자중학교","서울특별시 용산구 신흥로3가길 66 , 보성여자중고등학교 (용산동2가)",126.9844961,37.5426751
"상명대학교사범대학부속여자중학교","서울특별시 종로구 홍지문2길 20 , 상명대학교사범대학부속여자중학교 (홍지동)",126.9540384,37.6027418
"성심여자중학교","서울특별시 용산구 원효로19길 49 (원효로4가)",126.9542291,37.5341025
"신광여자중학교","서울특별시 용산구 청파로 263 학교법인신광학원 (청파동3가)",126.9648311,37.5463644
"오산중학교","서울특별시 용산구 보광로7길 17 , 오산중학교 (보광동)",126.999489,37.5239585
"장충중학교","서울특별시 중구 동호로15길 93 , 장충중학교 (신당동)",127.006215,37.5531032
"중앙중학교","서울특별시 종로구 창덕궁길 164 중앙중학교 (계동)",126.9867737,37.5860881
"한양중학교","서울특별시 중구 을지로 299 , 한양중학교 (신당동)",127.0117791,37.5653567
"환일중학교","서울특별시 중구 환일길 47 (만리동2가)",126.9621659,37.5538139
"가락중학교","서울특별시 송파구 송이로 45 , 가락중학교 (송파동)",127.1183396,37.5021391
"가원중학교","서울특별시 송파구 중대로10길 40-18 (가락동,가원중학교)",127.1229298,37.4909355
"강동중학교","서울특별시 강동구 풍산로 237 , 강동중학교 (강일동)",127.1778075,37.5696449
"강명중학교","서울특별시 강동구 상일로12길 56 , 강명중학교 (강일동)",127.1747732,37.5550568
"강일중학교","서울특별시 강동구 고덕로27길 12 , 강일중학교 (암사동414-17)",127.1383328,37.5552892
"거원중학교","서울특별시 송파구 양산로2길 30 , 거원중학교 (거여동)",127.1465348,37.4874894
"고덕중학교","서울특별시 강동구 동남로82길 94 (고덕동)",127.1610289,37.5601307
"둔촌중학교","서울특별시 강동구 진황도로61길 25-30 , 둔촌중학교 (둔촌동)",127.1463341,37.5306477
"명일중학교","서울특별시 강동구 양재대로156길 57 (고덕동)",127.1477463,37.557063
"문정중학교","서울특별시 송파구 문정로 73 (문정동)",127.1299473,37.4885685
"문현중학교","서울특별시 송파구 충민로 99 (장지동)",127.1279339,37.4805468
"방산중학교","서울특별시 송파구 오금로29길 31 (방이동)",127.1219039,37.5091513
"방이중학교","서울특별시 송파구 오금로11길 64 (방이동)",127.1082361,37.5142935
"서울체육중학교","서울특별시 송파구 강동대로 232 , 서울체육중.고등학교 (방이동)",127.1298523,37.5217289
"석촌중학교","서울특별시 송파구 송이로15길 13 (가락동)",127.1212477,37.5011612
"성내중학교","서울특별시 강동구 성안로7길 36 성내중학교 (성내동)",127.1295392,37.5286533
"세륜중학교","서울특별시 송파구 양재대로72길 41 , 세륜중학교 (오금동)",127.131471,37.508415
"송례중학교","서울특별시 송파구 위례순환로 429 (장지동)",127.1396227,37.4777414
"송파중학교","서울특별시 송파구 동남로 203 (가락동, 송파중학교)",127.1298624,37.4959229
"신명중학교","서울특별시 강동구 명일로24길 25 , 신명중학교 (길동)",127.149426,37.541624
"신암중학교","서울특별시 강동구 고덕로 65 , 신암중학교 (암사동)",127.1330624,37.555955
"신천중학교","서울특별시 송파구 백제고분로 11 (잠실동)",127.0816428,37.5075289
"아주중학교","서울특별시 송파구 올림픽로4길 69 , 아주중학교 (잠실동)",127.0763506,37.5050719
"오금중학교","서울특별시 송파구 오금로35길 20 , (오금중학교) (오금동)",127.1285746,37.5049964
"오륜중학교","서울특별시 송파구 양재대로 1242 , 오륜중학교 (방이동)",127.1387369,37.5160087
"오주중학교","서울특별시 송파구 동남로 281 , 오주중학교 (오금동)",127.1361736,37.5011862
"잠신중학교","서울특별시 송파구 잠실로 12 , 잠신중학교 (잠실동)",127.0877838,37.5157394
"잠실중학교","서울특별시 송파구 올림픽로35길 130 , 잠실중학교 (신천동)",127.0993758,37.5172097
"천일중학교","서울특별시 강동구 천중로 57 , 천일중학교 (천호동)",127.1275774,37.5458911
"천호중학교","서울 강동구 상암로 153 (천호동,천호중학교)",127.13927,37.5466448
"풍납중학교","서울특별시 송파구 올림픽로43길 20 (풍납동, 풍납중학교 )",127.1159444,37.5255375
"풍성중학교","서울특별시 송파구 강동대로2길 27 (풍납동, 풍성중학교)",127.1132908,37.5259311
"한산중학교","서울특별시 강동구 풍성로 251 (둔촌동,한산중학교)",127.14001,37.52832
"동북중학교","서울특별시 강동구 강동대로 305 (둔촌동)",127.1406733,37.5200101
"동신중학교","서울특별시 강동구 진황도로 72 , 동신중학교 (천호동)",127.1343268,37.5367808
"배명중학교","서울특별시 송파구 삼학사로 11 (삼전동)",127.095807,37.5013664
"배재중학교","서울특별시 강동구 고덕로 227 , 배재중학교 (고덕동)",127.1496025,37.5556498
"보성중학교","서울특별시 송파구 양재대로 1278 (방이동,보성중고등학교)",127.135179,37.5194576
"보인중학교","서울특별시 송파구 오금로49길 18 , 보인중학교 (오금동)",127.1388757,37.4972661
"상일여자중학교","서울특별시 강동구 천호대로219길 61 , 상일여자중학교 (상일동)",127.1703401,37.5496514
"성덕여자중학교","서울특별시 강동구 구천면로 396 , 성덕여자중학교 (천호동)",127.142176,37.550568
"영파여자중학교","서울특별시 송파구 올림픽로 565 , 영파여자중학교 (풍납동)",127.1202571,37.5326565
"일신여자중학교","서울특별시 송파구 송파대로38길 8 (송파동,일신여자중학교)",127.1135991,37.5017159
"정신여자중학교","서울특별시 송파구 올림픽로4길 16 , 정신여자중학교 (잠실동)",127.0727099,37.5092902
"한영중학교","서울특별시 강동구 동남로 832 (상일동,한영중학교)",127.1573165,37.5491453
"강신중학교","서울특별시 양천구 남부순환로 604 (신월동)",126.8388714,37.5150787
"경서중학교","서울특별시 강서구 양천로59길 31 (가양동)",126.8586383,37.5610442
"공진중학교","서울특별시 강서구 양천로55길 56 , 공진중학교 (가양동)",126.8510371,37.5664762
"공항중학교","서울특별시 강서구 방화대로 241 , 공항중학교 (공항동)",126.8154028,37.5628296
"금옥중학교","서울특별시 양천구 신정로 213 (신정동) 금옥중학교",126.8441801,37.5103101
"등명중학교","서울특별시 강서구 공항대로39길 39 (등촌동,등명중학교)",126.8433053,37.5601467
"등원중학교","서울특별시 강서구 화곡로65길 50 , 등원중학교 (등촌동)",126.8515914,37.5594064
"마곡중학교","서울특별시 강서구 마곡중앙5로 58 (마곡동)",126.8265243,37.5594238
"목동중학교","서울특별시 양천구 목동동로 172 (신정동)",126.8717016,37.5206085
"목운중학교","서울특별시 양천구 목동동로 235 (목동,목운초.중학교)",126.8729254,37.5267322
"목일중학교","서울특별시 양천구 목동동로8길 70 , (신정동, 목일중학교)",126.8741724,37.5134146
"방원중학교","서울특별시 강서구 금낭화로 268 , 방원중학교 (방화동)",126.8087358,37.5756696
"방화중학교","서울특별시 강서구 개화동로27길 9 (방화동)",126.8068782,37.5651074
"백석중학교","서울특별시 강서구 등촌로51나길 35 , 백석중학교 (등촌동)",126.858928,37.548223
"삼정중학교","서울특별시 강서구 금낭화로 210 삼정중학교 (방화동)",126.8107077,37.5816411
"성재중학교","서울특별시 강서구 허준로 36 (가양동)",126.8452929,37.5692295
"송정중학교","서울특별시 강서구 남부순환로 121 (공항동)",126.8150759,37.5537235
"수명중학교","서울특별시 강서구 수명로2길 16 , 수명중학교 (내발산동)",126.8235962,37.548812
"신남중학교","서울특별시 양천구 중앙로29길 109 , 신남중학교 (신월동)",126.8478605,37.5205455
"신목중학교","서울특별시 양천구 목동중앙로 88 (목동)",126.8728552,37.5368606
"신서중학교","서울특별시 양천구 중앙로 206 , 신서중학교 (신정동)",126.8556467,37.5158399
"신원중학교","서울특별시 양천구 가로공원로55길 19 , 신원중학교 (신월동)",126.8243187,37.5366468
"신월중학교","서울특별시 양천구 남부순환로29길 25 , 신월중학교 (신월동)",126.8284483,37.5407787
"신화중학교","서울특별시 양천구 남부순환로29길 35 , 신화중학교 (신월동)",126.8301236,37.5410075
"양강중학교","서울특별시 양천구 중앙로 319 (신월동,양강중학교)",126.8496413,37.5243526
"양동중학교","서울특별시 양천구 목동중앙북로 49 , 양동중학교 (목동)",126.869314,37.5477018
"양서중학교","서울특별시 양천구 남부순환로 380 (신월동)",126.8291403,37.5322157
"양천중학교","서울특별시 양천구 지양로7길 32 , 양천중학교 (신월동)",126.8307911,37.5196695
"염경중학교","서울특별시 강서구 양천로69길 35 , 염경중학교 (염창동)",126.8706748,37.5545066
"염창중학교","서울특별시 강서구 양천로67가길 83 , 염창중학교 (염창동)",126.871872,37.5535012
"월촌중학교","서울특별시 양천구 목동서로 31 (목동, 월촌중학교)",126.883007,37.537426
"화원중학교","서울특별시 강서구 강서로17나길 86 (화곡동)",126.8425137,37.5363887
"덕원중학교","서울특별시 강서구 강서로45길 91-44 , 덕원중학교 (내발산동)",126.8294567,37.5498397
"등촌중학교","서울특별시 강서구 공항대로 484-12 (등촌동,등촌중학교)",126.8594662,37.5523385
"마포중학교","서울특별시 강서구 화곡로 403 (등촌동)",126.8534143,37.5598894
"명덕여자중학교","서울특별시 강서구 강서로47길 34-10 (내발산동)",126.8347305,37.5536011
"봉영여자중학교","서울특별시 양천구 목동동로2길 68 (신정동)",126.8607466,37.5090728
"신정여자중학교","서울특별시 강서구 등촌로13아길 20 , 신정여자중학교 (화곡동)",126.8574143,37.5379249
"양정중학교","서울특별시 양천구 안양천로 1039 , 양정중학교(목동,양정고등학교) (목동)",126.8869526,37.5348353
"영도중학교","서울특별시 양천구 목동중앙남로 27 , 영도중학교 (목동,강서고등학교)",126.866561,37.5363813
"화곡중학교","서울특별시 강서구 강서로45길 70 (내발산동)",126.8328267,37.5488204
"개원중학교","서울특별시 강남구 영동대로 101 , 개원중학교 (개포동)",127.0717443,37.4916369
"개포중학교","서울특별시 강남구 선릉로 9 (개포동)",127.0721584,37.4937045
"경원중학교","서울특별시 서초구 신반포로33길 39 (잠원동)",127.0192056,37.5113743
"구룡중학교","서울특별시 강남구 선릉로 103 (개포동)",127.075224,37.4818842
"대명중학교","서울특별시 강남구 역삼로87길 26 (대치동)",127.0608974,37.5063402
"대왕중학교","서울특별시 강남구 광평로20길 7 (수서동)",127.0873271,37.483438
"대청중학교","서울특별시 강남구 양재천로 321 (대치동,대청중학교)",127.0582694,37.4905178
"대치중학교","서울특별시 강남구 남부순환로378길 39 (도곡동,대치중학교)",127.0476421,37.4842181
"도곡중학교","서울특별시 강남구 언주로57길 31 (도곡동,도곡중학교)",127.0449916,37.4923089
"반포중학교","서울특별시 서초구 신반포로 67 , 반포중학교 (반포동)",126.9920536,37.5029248
"방배중학교","서울특별시 서초구 동광로 144 (반포동)",126.9982545,37.4944786
"봉은중학교","서울특별시 강남구 영동대로128길 59 (삼성동,봉은중학교)",127.0623804,37.5188925
"서운중학교","서울특별시 서초구 서운로 115 (서초동)",127.0247491,37.493993
"서일중학교","서울특별시 서초구 서운로21길 2 (서초동,서일중학교)",127.0221646,37.499244
"서초중학교","서울특별시 서초구 반포대로13길 48 (서초동)",127.0087082,37.4854122
"세곡중학교","서울특별시 강남구 자곡로 81 , 세곡중학교 (자곡동)",127.0922007,37.4715425
"수서중학교","서울특별시 강남구 광평로59길 57 , 수서중학교 (수서동)",127.1024595,37.490713
"신구중학교","서울특별시 강남구 압구정로36길 17 (신사동)",127.0322212,37.5273302
"신동중학교","서울특별시 서초구 나루터로 27 , 신동중학교 (잠원동)",127.0132453,37.516486
"신반포중학교","서울특별시 서초구 신반포로19길 26 , 신반포중학교 (반포동)",126.9958306,37.5059523
"신사중학교","서울특별시 강남구 압구정로 123 , 신사중학교 (압구정동)",127.0210236,37.5246142
"압구정중학교","서울특별시 강남구 압구정로 225 , 압구정중학교 (압구정동)",127.032959,37.5302105
"언남중학교","서울특별시 서초구 동산로 55 , 언남중학교 (양재동)",127.0439166,37.4723755
"언북중학교","서울특별시 강남구 도산대로38길 27 , 언북중학교 (논현동)",127.0331412,37.5192827
"언주중학교","서울특별시 강남구 선릉로116길 57 , 언주중학교 (삼성동)",127.0466588,37.5145953
"역삼중학교","서울특별시 강남구 도곡로43길 10 (역삼동)",127.0490787,37.4956709
"영동중학교","서울특별시 서초구 성촌길 14 (우면동,영동중학교)",127.0253527,37.4657576
"원촌중학교","서울특별시 서초구 사평대로45길 10 (반포동,원촌중학교)",127.0135789,37.505904
"이수중학교","서울특별시 서초구 방배중앙로3길 32 , 이수중학교 (방배동)",126.9904197,37.4807728
"청담중학교","서울특별시 강남구 압구정로61길 36 (청담동) 청담중학교",127.0452673,37.5285466
"단국대학교사범대학부속중학교","서울특별시 강남구 도곡로64길 21 , 단국대학교사범대학부속중학교 (대치동1013)",127.0571493,37.4954388
"동덕여자중학교","서울특별시 서초구 효령로2길 123-5 , 동덕여자중고등학교 (방배동)",126.992426,37.4758739
"서문여자중학교","서울특별시 서초구 동광로12길 84 , 서문여자중학교 (방배동)",126.9845832,37.4888745
"세화여자중학교","서울특별시 서초구 신반포로 56-7 (반포동)",126.9922636,37.5018559
"숙명여자중학교","서울특별시 강남구 남부순환로 2807 , 숙명여자중학교 (도곡동)",127.0536862,37.4905422
"은성중학교","서울특별시 강남구 남부순환로359길 36 , 은성중학교 (도곡동)",127.0362425,37.4878358
"중동중학교","서울특별시 강남구 일원로8길 37 (일원동)",127.0786207,37.488319
"진선여자중학교","서울특별시 강남구 선릉로85길 27 , 713 진선여자중학교  (역삼동)",127.048465,37.501877
"휘문중학교","서울특별시 강남구 역삼로 541 (대치동)",127.0620662,37.504951
"강남중학교","서울특별시 동작구 대방동15길 29 , 강남중학교 (대방동)",126.9223505,37.5022844
"강현중학교","서울특별시 동작구 상도로13라길 22 , 강현중학교 (상도동)",126.9309984,37.5029825
"관악중학교","서울특별시 관악구 남부순환로237길 60 , 관악중학교 (봉천동)",126.96189,37.480656
"구암중학교","서울특별시 관악구 성현로 53 (봉천동)",126.9485751,37.4925845
"국사봉중학교","서울특별시 동작구 양녕로20길 20 (상도동)",126.9441046,37.4935736
"난우중학교","서울특별시 관악구 난곡로16길 32 , 난우중학교 (신림동)",126.9227737,37.4668845
"남서울중학교","서울특별시 관악구 남부순환로172길 97 , 남서울중학교 (신림동)",126.9213663,37.4815997
"남성중학교","서울특별시 동작구 남부순환로269길 166 , 남성중학교 (사당동)",126.9724003,37.4789892
"당곡중학교","서울특별시 관악구 봉천로13길 101 (봉천동) 당곡중학교",126.9332028,37.4918838
"대방중학교","서울특별시 동작구 여의대방로10길 24 (신대방동, 대방중학교)",126.9138111,37.4950979
"동작중학교","서울특별시 동작구 동작대로39가길 83 (동작동)",126.9772383,37.4949969
"문창중학교","서울특별시 동작구 여의대방로22나길 40 (신대방동)",126.921645,37.4958504
"미성중학교","서울특별시 관악구 문성로16길 40 , 미성중학교 (신림동)",126.9124785,37.475267
"봉림중학교","서울특별시 관악구 장군봉길 72 (봉천동,봉림중학교)",126.9382883,37.4806189
"봉원중학교","서울특별시 관악구 관악로24가길 15 , 봉원중학교 (봉천동)",126.958696,37.4841279
"사당중학교","서울특별시 동작구 사당로9가길 58 (사당동)",126.9688695,37.4876148
"삼성중학교","서울특별시 관악구 신림로3가길 39-24 (신림동)",126.9428252,37.4673643
"상도중학교","서울특별시 동작구 사당로2가길 72 , 상도중학교 (사당동)",126.9615569,37.4907226
"상현중학교","서울특별시 동작구 사당로 2길 2-19",126.9603553,37.4939484
"신관중학교","서울특별시 관악구 신림로48길 17-16 (신림동,신관중학교)",126.9343209,37.4800206
"신림중학교","서울특별시 관악구 신림로 40 , 신림중학교 (신림동)",126.9449477,37.4703793
"영등포중학교","서울특별시 동작구 등용로8길 5 , (대방동13-2)",126.9337092,37.5083322
"인헌중학교","서울특별시 관악구 인헌9길 35 , 인헌중학교 (봉천동)",126.969284,37.472851
"장승중학교","서울특별시 동작구 장승배기로10가길 25 , 장승중학교 (상도동)",126.9407221,37.5033585
"광신중학교","서울특별시 관악구 광신길 141 , 광신중학교 (신림동)",126.9250917,37.4652361
"남강중학교","서울특별시 관악구 난곡로34길 80 , 남강중고등학교 (신림동)",126.924733,37.4714269
"동양중학교","서울특별시 동작구 흑석로9길 94 , 동양중학교  (흑석동)",126.956751,37.5098191
"서울문영여자중학교","서울특별시 관악구 관악로 85 , 서울문영여자중학교 (봉천동)",126.9513935,37.4738859
"성남중학교","서울특별시 동작구 대방동길 74 (대방동)",126.9265387,37.505301
"성보중학교","서울특별시 관악구 남부순환로156길 39 , 성보중학교 (신림동,성보중학교)",126.9207947,37.4801177
"숭의여자중학교","서울특별시 동작구 여의대방로36길 79 , 숭의여자중학교 (대방동)",126.9291426,37.50793
"중앙대학교사범대학부속중학교","서울특별시 동작구 서달로 124 (흑석동)",126.96152,37.5040801
"경수중학교","서울특별시 성동구 뚝섬로13길 14 (성수동2가)",127.0583587,37.5397813
"경일중학교","서울특별시 성동구 성수일로 27 , 경일중학교 (성수동1가)",127.0483522,37.5435667
"광남중학교","서울특별시 광진구 아차산로70길 17-62 (광장동, 광남중학교)",127.1014027,37.5402625
"광양중학교","서울특별시 광진구 자양로3길 7 , 광양중학교  (자양동)",127.0858211,37.5302912
"광장중학교","서울특별시 광진구 광장로1길 1 광장중학교 (광장동,광장중학교)",127.101708,37.547095
"광진중학교","서울특별시 광진구 뚝섬로64길 45 (자양동)",127.0899425,37.5322529
"광희중학교","서울특별시 성동구 독서당로62길 46 (응봉동)",127.0339359,37.5511684
"구의중학교","서울특별시 광진구 광나루로30길 80 (화양동,구의중학교)",127.0792659,37.5428173
"동마중학교","서울특별시 성동구 마조로11길 18 (마장동)",127.0403012,37.5626557
"마장중학교","서울특별시 성동구 마장로35나길 31 (마장동)",127.042205,37.5682297
"무학중학교","서울특별시 성동구 행당로 120 , 무학중학교 (행당동,무학중학교)",127.03277,37.5579813
"성수중학교","서울특별시 성동구 서울숲길 18 (성수동1가)",127.0387013,37.547981
"성원중학교","서울특별시 성동구 성덕정9가길 13 (성수동2가,성원중학교)",127.0519631,37.5391784
"신양중학교","서울특별시 광진구 자양강변길 73 , 신양중학교 (자양동)",127.0632122,37.5334015
"양진중학교","서울특별시 광진구 워커힐로 32 , 양진중학교 (광장동)",127.0982084,37.5447896
"옥정중학교","서울특별시 성동구 한림말길 11 (옥수동)",127.0125119,37.5414774
"용곡중학교","서울특별시 광진구 용마산로22길 76 , 용곡중학교 (중곡동)",127.0888754,37.5660646
"자양중학교","서울특별시 광진구 뚝섬로41길 33 (자양동)",127.0745207,37.5352975
"행당중학교","서울특별시 성동구 왕십리로 189 , 행당중학교 (행당동)",127.0422292,37.554379
"건국대학교사범대학부속중학교","서울특별시 광진구 자양로 145-1 , 건국대학교사범대학부속중학교 (화양동)",127.0822051,37.5407636
"대원국제중학교","서울특별시 광진구 용마산로22길 26 (중곡동)",127.0889497,37.563079
"동국대학교사범대학부속여자중학교","서울특별시 광진구 광나루로36길 47 (구의동,동국대학교사범대학부속여자중고등학교)",127.0870007,37.5431763
"한양대학교사범대학부속중학교","서울특별시 성동구 마조로 42 (사근동,한대부중 고등학교)",127.0422967,37.5618699
"서울대학교사범대학부설중학교","서울특별시 성북구 월곡로 36 , 월곡로 36 (종암동,서울대학교사범대학부설중학교)",127.0389086,37.5949423
"강북중학교","서울특별시 강북구 한천로150길 67 (수유동)",127.0259441,37.6449188
"개운중학교","서울특별시 성북구 북악산로 935 (돈암동,개운중학교)",127.0254085,37.5950322
"길음중학교","서울특별시 성북구 길음로 144 (길음동)",127.0207617,37.6078026
"미양중학교","서울특별시 강북구 인수봉로 39 , 미양중학교 (미아동)",127.0121914,37.6234762
"번동중학교","서울특별시 강북구 오현로35길 87 , 번동중학교 (번동)",127.0365646,37.6322411
"북악중학교","서울특별시 성북구 정릉로12길 41 (정릉동)",127.0017022,37.6067612
"삼각산중학교","서울특별시 강북구 삼양로19길 141 (미아동)",127.0146577,37.6161958
"삼선중학교","서울특별시 성북구 동소문로3길 69 , 삼선중학교 (동소문동4가)",127.0075771,37.5912545
"석관중학교","서울특별시 성북구 한천로 526 , 석관중학교 (석관동)",127.0664709,37.6080223
"수송중학교","서울특별시 강북구 한천로122길 21 (번동)",127.0339379,37.6364725
"수유중학교","서울특별시 강북구 인수봉로37길 40 (수유동,수유중학교)",127.0109265,37.631337
"숭곡중학교","서울특별시 성북구 종암로 208 (하월곡동)",127.0313391,37.6084237
"월곡중학교","서울특별시 성북구 장월로 6 , 월곡중학교  (상월곡동)",127.0480815,37.6067858
"인수중학교","서울특별시 강북구 인수봉로75길 10 (수유동)",127.0099435,37.6438503
"장위중학교","서울특별시 성북구 장위로4길 70 , 장위중학교 (장위동)",127.04141,37.6113915
"종암중학교","서울특별시 성북구 종암로5길 80-17 , 종암중학교 (종암동)",127.0322968,37.5928659
"화계중학교","서울특별시 강북구 화계사길 63 (수유동)",127.0100377,37.6324666
"고려대학교사범대학부속중학교","서울특별시 성북구 정릉로 161 (정릉동,고려대학교사범대학부속중학교)",127.0010216,37.610391
"고명중학교","서울특별시 성북구 북악산로 870 , 고명중학교 (돈암동)",127.0198436,37.5975645
"남대문중학교","서울특별시 성북구 한천로95길 28 (장위동)",127.0557873,37.6186278
"동구여자중학교","서울특별시 성북구 성북로8길 71 , 동구여자중학교  (성북동)",127.0071028,37.5935994
"서라벌중학교","서울특별시 강북구 삼양로155길 37-9 , 서라벌중학교 (우이동)",127.0111149,37.6567312
"성신여자중학교","서울특별시 성북구 북악산로 918 , 성신여자중학교 (돈암동)",127.0233592,37.5936143
"성암여자중학교","서울특별시 강북구 도봉로29길 52 (미아동, 성암여자중학교)",127.0244484,37.6207354
"신일중학교","서울특별시 강북구 솔매로49길 20 (미아동)",127.0282661,37.6282824
"영훈국제중학교","서울특별시 강북구 도봉로13가길 19 (미아동)",127.0278332,37.613765
"용문중학교","서울특별시 성북구 인촌로17가길 46 (안암동2가)",127.0250507,37.5881284
"창문여자중학교","서울특별시 강북구 월계로 61 (미아동)",127.0362812,37.6131144
"한성여자중학교","서울특별시 성북구 삼선교로16길 118 , 한성여자중학교 (삼선동2가)",127.0116904,37.5819337
"홍익대학교사범대학부속중학교","서울특별시 성북구 성북로14가길 23 , 홍익대학교사범대학부속중학교 (성북동)",127.0027421,37.5938669
