"학원명","학원주소","lon","lat"
"서울커피바리스타학원","서울특별시 영등포구 양평로 111-1 , 2층 (양평동4가,명서빌딩)",126.8948516,37.537083
"한미간호조무사학원","서울특별시 영등포구 영등포로 216-1 , 4층 (영등포동3가)",126.910939,37.5181151
"경일자동차중장비정비기술학원","서울특별시 영등포구 영등포로86길 4 , 2층 (신길동)",126.8909343,37.5218818
"연합환경기술학원","서울특별시 구로구 경인로 548 3,4층 구로동",126.8848087,37.5047594
"수도기술고시통신직업전문학원","서울특별시 영등포구 경인로 882 , 2층 일부 (영등포동1가,여의도씨티아이)",126.9107891,37.5175535
"운성미술학원","서울특별시 영등포구 신길로41라길 19 2,3층 신길동",126.907202,37.5071402
"창조미술학원","서울특별시 영등포구 도신로4길 21 , 2층 (대림동)",126.8963018,37.5017065
"동심음악학원","서울특별시 구로구 구로중앙로27가길 5-2",126.885076,37.4976626
"새벧엘음악학원","서울특별시 금천구 범안로 1188 (독산동)",126.8937525,37.4663573
"숙연음악학원","서울특별시 금천구 시흥대로148길 22   3층 독산동",126.9000739,37.4749231
"신대원학원","서울특별시 구로구 도림로 31-1 2,3층 구로동",126.8879999,37.4872543
"동아요리기술학원","서울특별시 영등포구 경인로 875-1   2층 영등포동3가",126.9111189,37.5181907
"대교독서실","서울특별시 영등포구 국제금융로7길 22   대교B상가 201호 여의도동",126.9326509,37.5228955
"한양음악학원","서울특별시 금천구 시흥대로45길 39   3층 시흥동",126.8998164,37.4484462
"예지음악학원","서울특별시 구로구 고척로 230   한수빌딩 3층 고척동",126.8585107,37.505929
"뉴(New)이화음악학원","서울특별시 구로구 구로중앙로34길 36 , 2층 (구로동)",126.8909129,37.492979
"예당음악학원","서울특별시 구로구 개봉로17길 41 , 2층 (개봉동)",126.8535182,37.4912272
"예림미술학원","서울특별시 구로구 경서로 9",126.8564994,37.4983229
"정심음악학원","서울특별시 금천구 독산로74길 19 (독산동)",126.9034592,37.4687031
"소리사랑피아노학원","서울특별시 영등포구 신길로60길 40-3 (신길동)",126.9146621,37.5137983
"엘리트음악학원","서울특별시 영등포구 여의대방로 45  삼성아파트 상가 203호 신길동",126.9112836,37.4962922
"개봉한림독서실","서울특별시 구로구 개봉로17라길 25",126.8533709,37.4925818
"새예림음악학원","서울특별시 구로구 경서로 9",126.8564994,37.4983229
"피아노와함께학원","서울특별시 영등포구 국회대로29길 3 3층 당산동4가",126.9028354,37.5279732
"숙피아노바이올린학원","서울특별시 금천구 독산로 126 3,4층 시흥동",126.9053672,37.4584858
"민아음악학원","서울특별시 구로구 구로중앙로14길 24",126.892047,37.4934438
"정도보습학원","서울특별시 구로구 구로중앙로7길 28 , 극동상가 402-406호 (구로동, 극동아파트)",126.8896192,37.491098
"금조음악학원","서울특별시 영등포구 도림로47길 13",126.8998478,37.4962802
"인당독서실","서울특별시 구로구 고척로6길 58-4",126.8417194,37.496285
"신중앙컴퓨터학원","서울특별시 영등포구 도신로 116   대웅빌딩 301호 신길동",126.9049783,37.5080129
"엘림독서실","서울특별시 구로구 구로동로28길 84-17",126.8888586,37.4911937
"현대음악학원","서울특별시 구로구 오류로8길 34   3층 오류동",126.8425801,37.4914395
"새한양피아노음악학원","서울특별시 영등포구 국회대로38길 15 당산동3가",126.897468,37.526018
"한별음악학원","서울특별시 영등포구 대림로44길 10",126.8977637,37.502577
"태산영재학원","서울특별시 영등포구 여의대방로47길 34 ",126.9204888,37.509232
"새보라음악학원","서울특별시 금천구 금하로24길 20 2,3층 시흥동",126.9082974,37.4500566
"조상익음악학원","서울특별시 구로구 구로동로28길 84-17 , 2층 (구로동)",126.8886047,37.4911606
"지앤비영어전문학원","서울특별시 구로구 오류로8길 63   4층 오류동",126.8436426,37.4924978
"민속한복학원","서울특별시 영등포구 영신로 29 , 5층 (영등포동)",126.9079781,37.5140313
"동아제과제빵기술학원","서울특별시 영등포구 양산로 186 ,  4층 (영등포동6가,백상빌딩)",126.9036785,37.5227009
"뉴하늘소리음악학원","서울특별시 구로구 신도림로11길 8 (신도림동)",126.880063,37.5083213
"선음악학원","서울특별시 영등포구 대림로31가길 10",126.8964144,37.4953579
"명신미술학원","서울특별시 영등포구 신풍로 66",126.9133079,37.4998431
"예원음악학원","서울특별시 구로구 개봉로3길 82",126.8517062,37.486235
"혜진음악학원","서울특별시 구로구 구로중앙로28길 35-5",126.887469,37.4997197
"시사어학원","서울특별시 영등포구 여의대방로 55 4층",126.9127903,37.4968586
"오현음악학원","서울특별시 금천구 금하로24길 44",126.9082977,37.4489501
"동방디자인학원","서울특별시 영등포구 경인로 886 ,  5층 (영등포동1가,서울빌딩)",126.911033,37.5175951
"키즈랜드어학원","서울특별시 구로구 신도림로 18",126.8788971,37.5064875
"미래독서실","서울특별시 금천구 시흥대로141길 47",126.8974852,37.4749053
"이화피아노학원","서울특별시 영등포구 선유동2로 46 유원2차상가 207호당산동5가",126.8982838,37.5331208
"은하음악학원","서울특별시 영등포구 신길로 18  중원상가2층 신길동",126.9090841,37.4943088
"성광학원","서울특별시 구로구 구로동로22길 89 ",126.8889009,37.4881071
"모짜르트음악학원","서울특별시 금천구 독산로50길 74 (시흥동)",126.9081937,37.4623973
"은소래음악학원","서울특별시 영등포구 도신로 70 우성상가 303,304호 신길동",126.9000208,37.5052985
"새은파음악학원","서울특별시 금천구 독산로50길 98",126.9096353,37.4622998
"새누리음악학원","서울특별시 영등포구 디지털로69길 12 대림한신2차아파트상가 202호 대림동",126.9043954,37.4947367
"신동음악학원","서울특별시 영등포구 대림로31길 40  대림동",126.8946051,37.4968124
"미래음악학원","서울특별시 구로구 구일로8길 92   2층 구로동",126.876052,37.4967184
"장학학원","서울특별시 영등포구 대림로 203",126.8978946,37.498756
"여의도탑클래스학원","서울특별시 영등포구 국제금융로 78 홍우빌딩 11층 13,14호 여의도동",126.9312481,37.5208907
"분석과심화학원","서울특별시 영등포구 도신로4길 17   2층 대림동",126.8961629,37.502071
"백호미술학원","서울특별시 구로구 신도림로9길 20 2,3층 신도림동",126.8800632,37.508762
"신한샘학원","서울특별시 영등포구 도신로60길 8-1   3층 신길동",126.9170128,37.5110456
"예지원독서실","서울특별시 금천구 금하로 692 (시흥동, 예원빌딩)",126.9069022,37.4516458
"경진컴퓨터학원","서울특별시 금천구 범안로 1255   예진빌딩2층 독산동",126.9014308,37.4665623
"성민열관리기술학원","서울특별시 영등포구 경인로 872   5층 영등포동1가",126.9154146,37.5175274
"소라피아노음악학원","서울특별시 금천구 시흥대로94길 69",126.9011368,37.4637159
"소리엘피아노학원","서울특별시 영등포구 문래로20길 14 , 상가 201호 (문래동3가, 문래공원한신아파트)",126.8929792,37.5175671
"신중앙음악학원","서울특별시 영등포구 당산로31길 19",126.8943766,37.5267211
"메카(MECA)수학영어학원","서울특별시 영등포구 여의대방로 55 , 6층일부 (신길동,신길프라자)",126.9127556,37.4967644
"열린음악학원","서울특별시 금천구 시흥대로20길 13   3층 시흥동",126.9041588,37.4409808
"유니버학원","서울특별시 영등포구 도신로29아길 7   3층 영등포동",126.9060434,37.5093352
"한국UPI(유피아이)학원","서울특별시 금천구 가산로 106 , 201호 (가산동,주상복합두산아파트)",126.8936748,37.4754056
"지음음악학원","서울특별시 영등포구 당산로41길 23 현대상가 302,304호 당산동4가",126.8958121,37.5236775
"은정미술음악학원","서울특별시 구로구 도림로20길 18  2층 구로동",126.8924043,37.4889293
"인성속셈학원","서울특별시 금천구 독산로35길 33",126.9034746,37.4584367
"문래현대음악학원","서울특별시 영등포구 문래로4길 4 현대2차아파트상가 201,202호 문래동6가",126.8830537,37.520374
"평강보습학원","서울특별시 금천구 금하로 755 (시흥동)",126.9135638,37.4501538
"자매음악학원","서울특별시 구로구 중앙로5길 62   서울삼익가든상가 405호 고척동",126.8569277,37.49768
"모라니음악학원","서울특별시 영등포구 국제금융로7길 3 수정상가 303,304호 여의도동",126.9311893,37.5225233
"칸타빌레음악학원","서울특별시 구로구 구로중앙로7길 28   극동상가 302호 구로동",126.8897943,37.4909276
"센스음악학원","서울특별시 영등포구 당산로44길 3   삼성타운 5층 508호 당산동5가",126.9010058,37.5318988
"신대륙보습학원","서울특별시 금천구 시흥대로62길 37 2,3,4층 시흥동",126.9018123,37.4561687
"에듀이엔지스쿨학원","서울특별시 금천구 문성로 37   3층 독산동",126.9077706,37.4768759
"샘터속셈학원","서울특별시 금천구 탑골로 23",126.911658,37.4520492
"신미래학원","서울특별시 구로구 구일로4길 46 , 206호 (구로동, 현대연예인아파트)",126.877037,37.4924865
"파워스터디(Power Study)학원","서울특별시 금천구 시흥대로146길 18 2,3층 독산동",126.8997326,37.473835
"성균관독서실","서울특별시 영등포구 신길로 14 , 3층 (신길동,홍림빌딩)",126.9092561,37.4939036
"이화연수학학원","서울특별시 영등포구 당산로44길 3 삼성타운 207,208호 당산동5가",126.9010058,37.5318988
"비상아이비츠학원","서울특별시 영등포구 신길로 14 1,2층 신길동",126.909219,37.4939
"한백산업디자인학원","서울특별시 영등포구 경인로71길 6   6층 문래동2가",126.8928845,37.5130033
"성지속셈학원","서울특별시 구로구 경인로47길 82",126.8643852,37.5022852
"꿈나무웅변학원","서울특별시 영등포구 대방천로 187-1",126.9118818,37.4992218
"세종아카데미음악학원","서울특별시 금천구 금하로23길 19   2층 시흥동",126.9085035,37.4520552
"내가좋아하는음악학원","서울특별시 영등포구 디지털로38길 14   2층 대림동",126.9001862,37.4878523
"홍익잉글아트교육센타학원","서울특별시 구로구 구일로8길 92 , 3층 (구로동, 중앙구로하이츠)",126.8759259,37.4965415
"구로이엠아이학원","서울특별시 구로구 구일로4길 30 , 신영상가 3층 일부(301호,305호)및 4층 (구로동)",126.8764757,37.4918388
"신영음악학원","서울특별시 구로구 구일로4길30 신영상가 306",126.8764757,37.4918388
"바하음악학원","서울특별시 구로구 오류로 60",126.8403192,37.4899333
"대림엘리트학원","서울특별시 영등포구 디지털로66길 8   2층 대림동",126.9045456,37.4924809
"믿음음악학원","서울특별시 영등포구 도신로65길 1",126.9173088,37.5127134
"시민피아노학원","서울특별시 금천구 시흥대로146길 14",126.8993935,37.4738265
"다비드음악학원","서울특별시 구로구 구로중앙로8길 17",126.8927471,37.4922096
"신예일보습학원","서울특별시 구로구 경인로47길 134  대화빌딩 2,3층",126.8633158,37.5044292
"최강성지보습학원","서울특별시 영등포구 신길로42라길 1   2층 신길동",126.9127982,37.5076216
"임정원음악학원","서울특별시 금천구 독산로 86 , 3층 (시흥동)",126.9061142,37.4549228
"벽산음악학원","서울특별시 영등포구 선유서로21길 15 벽산상가 302,303호 양평동2가",126.8830742,37.5222646
"영음악학원","서울특별시 영등포구 영등포로11길 17",126.8880272,37.5243026
"한국방송예술음악학원","서울특별시 금천구 시흥대로94길 50 , 2층 (독산동, 독산동침례교회)",126.8893147,37.4542136
"미성음악학원","서울특별시 금천구 남부순환로128길 45 (독산동, 미성음악학원)",126.9080857,37.4785322
"새모람독서실","서울특별시 금천구 금하로 733-3",126.9113097,37.4507322
"에듀선플러스학원","서울특별시 영등포구 대림로29나길 6 , 2층 (대림동,미림빌딩)",126.8967065,37.4953345
"메가에스디(SD)학원","서울특별시 금천구 한내로 62 ,  1093-4외 3필지 힌신상가 3층 3110호,3120호,3121호 (독산동,한신아파트)",126.8894257,37.455519
"대한음악학원","서울특별시 금천구 독산로75길 32   1층 독산동",126.9006891,37.4691982
"밀알보습학원","서울특별시 금천구 독산로78다길 26",126.9054892,37.4695797
"대양학원","서울특별시 구로구 도림로 90 , 2,3,4층 (구로동,혜성빌딩)",126.8934181,37.4903417
"도담학원","서울특별시 구로구 고척로19길 41   4층 개봉동",126.8445532,37.5029714
"비전에스엔디(snd)학원","서울특별시 구로구 구일로10길 53 상가2층 201,202,203,204호 구로동",126.8751589,37.4959449
"반석독서실","서울특별시 구로구 고척로 123 (개봉동)",126.8476414,37.5021257
"유베스타보라매어학원","서울특별시 영등포구 여의대방로7길 13  2층",126.9127008,37.4975687
"하이미디어컴퓨터학원","서울특별시 구로구 경인로 557   4층 일부 구로동",126.8820641,37.4951854
"글로벌어학원","서울특별시 영등포구 영등포로 185-20 2,3층 영등포동6가",126.9045726,37.5206584
"서현독서실","서울특별시 금천구 시흥대로 262 (시흥동)",126.9000016,37.4570222
"하늘소리음악학원","서울특별시 구로구 고척로 85   거성푸르뫼아파트 상가 3층 개봉동",126.8435678,37.5008182
"구로글로벌어학원","서울특별시 구로구 시흥대로 577-11 , 3층 (구로동)",126.9018667,37.4843647
"고운음악학원","서울특별시 금천구 시흥대로150길 21-12   2층 독산동",126.9002425,37.4761447
"홍익조형미술학원","서울특별시 구로구 경인로43길 9   2층 고척동",126.8622096,37.4968896
"홍익가족어학원","서울특별시 구로구 오류로8길 63   2층 오류동",126.8436426,37.4924978
"서울공과전기학원","서울특별시 영등포구 당산로 67 , 6~9층 (당산동2가)",126.8943348,37.5213496
"한솔보습학원","서울특별시 영등포구 국제금융로 78 , 607호,608호,610호 (여의도동)",126.9312858,37.5208329
"한국방송작가학원","서울특별시 영등포구 국회대로 750 금산빌딩 4층 403,404,405,406호 여의도동",126.916606,37.5284589
"선음악학원","서울특별시 구로구 경인로31길 98   4층 일부 개봉동",126.8485357,37.5014758
"고려보습학원","서울특별시 금천구 시흥대로30길 12 (시흥동)",126.904659,37.4427956
"백호보습학원","서울특별시 구로구 신도림로9길 20 , 3층 (신도림동)",126.8800632,37.508762
"제2뉴탑클래스학원","서울특별시 구로구 구로동로42길 54-5 2,3층 구로동",126.8842349,37.4980241
"해온학원","서울특별시 금천구 금하로 678 , 3층 (시흥동)",126.9055898,37.4522869
"수도보습학원","서울특별시 금천구 시흥대로94길 72  2층",126.9013451,37.4636142
"문래장학학원","서울특별시 영등포구 선유로 59 , 7층 701호 (문래동6가,문래 아카데미)",126.8919792,37.5196223
"용문플러스학원","서울특별시 영등포구 국제금융로 78 , 1001호,1013호,1014호 (여의도동)",126.9312858,37.5208329
"예일학원","서울특별시 영등포구 가마산로 354",126.8983239,37.5000909
"정상학원","서울특별시 영등포구 가마산로61나길 13   2층 신길동",126.9061199,37.5068833
"대길보습학원","서울특별시 구로구 고척로 156 , 3층 (고척동)",126.8511802,37.503154
"하이브레인학원","서울특별시 구로구 고척로 82   거성푸르뫼2차아파트 상가 B동 3층 개봉동",126.843429,37.4999572
"스피드케이엠보습학원","서울특별시 구로구 경인로47다길 4   3층 고척동",126.8640123,37.50338
"도전보습학원","서울특별시 영등포구 도신로53길 16   3층 신길동",126.9153365,37.5121421
"캠퍼스보습학원","서울특별시 영등포구 시흥대로175가길 16 (대림동)",126.9030059,37.4880353
"탑에듀학원","서울특별시 구로구 개봉로3길 41 3,4층 개봉동",126.8540238,37.4861142
"신청산컴퓨터학원","서울특별시 구로구 경인로 338 , 2층 (개봉동)",126.8519631,37.4909499
"제이틴학원","서울특별시 영등포구 도림로 353   3층 도림동",126.8960349,37.5088456
"상진학원","서울특별시 구로구 고척로 149 , 6층 일부 (고척동,상암빌딩)",126.894616,37.5781711
"예지음악학원","서울특별시 금천구 탑골로 23-1",126.9117828,37.4520116
"한영보습학원","서울특별시 금천구 독산로75길 21 3층 (독산동)",126.9010881,37.4688928
"비스와트학원","서울특별시 금천구 독산로 87 시흥동",126.9056394,37.4550887
"미래뜰학원","서울특별시 금천구 독산로 246 , 3층 (독산동)",126.9024795,37.468676
"영등포카스속기학원","서울특별시 영등포구 영신로34길 30 , 3층 일부 (영등포동4가)",126.9039087,37.5193395
"백상기술학원","서울특별시 구로구 구로중앙로7길 28   413호 구로동",126.8897943,37.4909276
"세종음악학원","서울특별시 구로구 구로중앙로28길 53-8",126.8883682,37.5003995
"구로세종보습학원","서울특별시 구로구 도림로 69 , 외 1필지 4층 (구로동)",126.8910433,37.4895887
"코뿔소미술학원","서울특별시 영등포구 선유로 85-7   2층 양평동1가",126.8909662,37.5210225
"파란하늘학원","서울특별시 영등포구 도신로8길 17 , 4층 (대림동)",126.897312,37.503145
"당산해법수학학원","서울특별시 영등포구 당산로44길 3 삼성타운 5층 510,511호 당산동5가",126.9010058,37.5318988
"삼환독서실","서울특별시 영등포구 여의대방로43라길 6  신길프라자 5층 신길동",126.9201005,37.5079202
"참빛학원","서울특별시 영등포구 도림로112길 29-1 1,2층 도림동",126.903351,37.5095193
"와이비엠에듀케이션학원","서울특별시 영등포구 경인로 855 (영등포동3가)",126.9076445,37.5169563
"정명보습학원","서울특별시 구로구 경인로19길 29",126.8423323,37.497019
"대형소방설비학원","서울특별시 영등포구 영중로8길 6  성남빌딩번지 6층 영등포동3가",126.906276,37.5182784
"아람아마데우스음악학원","서울특별시 구로구 고척로3길 3",126.8403454,37.495402
"단혜보습학원","서울특별시 영등포구 영등포로12길 11 2층 양평동1가",126.887803,37.5234778
"청심학원","서울특별시 영등포구 여의대방로43라길 6  401호 신길동",126.9201005,37.5079202
"액터즈클리닉연극학원","서울특별시 영등포구 63로 32   라이프콤비 324호 여의도동",126.9390302,37.5189566
"유인음악학원","서울특별시 금천구 가산로7길 10   3층 가산동",126.8924652,37.4756125
"차별과특별함영수전문학원","서울특별시 영등포구 당산로38길 5 , 3층 (당산동4가,해승빌딩)",126.8990339,37.5290658
"성심보습학원","서울특별시 구로구 고척로52길 66   2층 개봉동",126.855845,37.5021496
"장학청림보습학원","서울특별시 영등포구 대림로 203 , 2층 (대림동,동도빌딩)",126.8978959,37.4987639
"브레인업독서실","서울특별시 구로구 구일로4길 29",126.8758626,37.4916996
"진학학원","서울특별시 금천구 금하로 773 2,3,4층 시흥동",126.9157351,37.4503783
"참좋은독서실","서울특별시 구로구 중앙로8길 17 , 2층 (고척동)",126.8637662,37.5026054
"서울이용학원","서울특별시 영등포구 영등포로 225 영신상가 2층 영등포동5가",126.9067,37.5198448
"신이화음악학원","서울특별시 금천구 가산로7길 63   4층 가산동",126.8901185,37.4739821
"필탑학원","서울특별시 구로구 개봉로3길 60   2층 개봉동",126.8530146,37.4863036
"새명문보습학원","서울특별시 구로구 구로중앙로22길 80   3층 구로동",126.8886315,37.4991964
"이레음악학원","서울특별시 구로구 경인로 382  한마을상가 301호",126.862339,37.496582
"다원독서실","서울특별시 구로구 구일로10길 49  , 3층303 (구로동)",126.8744343,37.4957011
"목동진학보습학원","서울특별시 구로구 경인로 382 (개봉동,한마을아파트)",126.8625447,37.4952998
"전망보습학원","서울특별시 영등포구 신길로 204   인의빌딩4층전체 신길동",126.9106166,37.5104294
"신성정보통신학원","서울특별시 영등포구 경인로 706 , 한양빌딩 5층 (문래동1가,한양빌딩)",126.8925905,37.5109845
"일신애스크관학원","서울특별시 영등포구 선유로 172 삼호아파트 상가 2층 양평동3가",126.8930007,37.5281859
"조경희미술학원","서울특별시 영등포구 당산로 82",126.896003,37.5219122
"이아이이(EiE)구로구일어학원","서울특별시 구로구 구일로2길 59 , 502호 일부 (구로동)",126.8767844,37.4893477
"동방건축학원","서울특별시 영등포구 경인로 886 , 4층 (영등포동1가,서울빌딩)",126.911033,37.5175951
"한솔요리학원","서울특별시 영등포구 경인로 829   1층 영등포동4가",126.8999222,37.5271216
"지피지기보습학원","서울특별시 영등포구 당산로 240  유상빌딩 2층 당산동6가",126.9030333,37.5346763
"새고운소리음악학원","서울특별시 구로구 신도림로 16  신도림대림아파트상가 302호",126.8818551,37.5051603
"제이와이(JY)학원","서울특별시 구로구 중앙로12길 17-8 고척LIG리가 2단지상가 202,203호 고척동",126.8620956,37.506043
"티엔티학원","서울특별시 영등포구 국회대로53길 23   3층 영등포동8가",126.9062495,37.52753
"뉴한샘학원","서울특별시 구로구 고척로30길 5   2층 개봉동",126.8487428,37.5019851
"한국요리학원","서울특별시 영등포구 영중로 45 영등포동6가",126.9031124,37.52211
"대림요리학원","서울특별시 영등포구 대림로29길 42 , 3층 일부 (대림동)",126.8953878,37.49404
"한빛음악학원","서울특별시 영등포구 신길로16길 11   영신빌딩 3층 신길동",126.9094504,37.4981808
"에스더연세보습학원","서울특별시 금천구 독산로64길 45   3층 독산동",126.9047679,37.4660193
"혜림음악학원","서울특별시 영등포구 당산로42길 16   3층301호 당산동4가",126.9008077,37.5296095
"예당독서실","서울특별시 구로구 고척로12길 16 (개봉동)",126.842852,37.4996164
"연세심포니음악학원","서울특별시 구로구 오류로8길 6 다동 401호 오류동",126.8409229,37.4907466
"아이탑컴퓨터학원","서울특별시 구로구 고척로 108 (개봉동, 성원빌딩)",126.8461231,37.5012349
"금천중앙보습학원","서울특별시 금천구 독산로54길 32   2층 시흥동",126.9072098,37.4639875
"서울독서실","서울특별시 금천구 시흥대로41길 3 성부빌딩5,6층 시흥동",126.9026747,37.4475758
"청호독서실","서울특별시 구로구 오류로8길 72   제일빌딩 3층일부 오류동",126.8441379,37.4925693
"유투엠(U2M)수학전문학원","서울특별시 구로구 공원로 27 대성스카이렉스 2층 207,208호 구로동",126.8909521,37.4993748
"중앙필음악학원","서울특별시 금천구 독산로78다길 15-3   4층 독산동",126.9046829,37.4694443
"여의도파고다어학원","서울특별시 영등포구 국제금융로2길 36 , 15층 일부 (여의도동)",126.9237844,37.5235941
"에이플러스독서실","서울특별시 구로구 경서로 12",126.8569934,37.4984088
"아발론교육동작어학원","서울특별시 영등포구 여의대방로 89  디에이치빌딩 3층 신길동",126.9139521,37.5062485
"연세엘리트보습학원","서울특별시 영등포구 선유로 201 현대6차A 3층 양평동3가",126.893701,37.5319542
"수산나음악학원","서울특별시 구로구 중앙로15길 125  삼익아파트상가 201호",126.8527334,37.5074842
"일지보습학원","서울특별시 구로구 오류로8마길 3",126.8455335,37.4931443
"정연국어전문학원","서울특별시 금천구 시흥대로41길 3   성부빌딩 4층 시흥동",126.9026747,37.4475758
"신세종보습학원","서울특별시 구로구 고척로52길21 경남2차아파트상가 301호",126.856372,37.5041514
"구로정철외국어학원","서울특별시 구로구 개봉로 60   4층 개봉동",126.8562706,37.49108
"삼익예음음악학원","서울특별시 금천구 독산로50길 89   삼익아파트 상가 301.303.304호시흥동",126.909313,37.463268
"교연유일왕수학학원","서울특별시 금천구 탑골로 28 1,2,3층 시흥동",126.9122129,37.4517362
"씨엠에스(CMS)금천영재학원","서울특별시 금천구 시흥대로 277 , 3층 (시흥동)",126.8984184,37.458305
"김신정음악학원","서울특별시 구로구 개봉로20길 6 현대아파트1단지상가 302호",126.8616497,37.4913753
"고려이스쿨제3관학원","서울특별시 구로구 개봉로17길 17 2,3층 개봉동",126.8547786,37.4914782
"우리독서실","서울특별시 영등포구 영신로57길 1 상가동4층 당산동4가",126.9028354,37.5279732
"개봉현대음악학원","서울특별시 구로구 개봉로20길 158  개봉훼미리2단지상가 2층 201호 개봉동",126.8615947,37.4915783
"스피치변화학원","서울특별시 영등포구 영중로 43 , 4층,5층 (영등포동6가)",126.9040348,37.5203084
"벧엘음악학원","서울특별시 영등포구 신풍로12길 10 2층 신길동",126.9127476,37.4992559
"현성보습학원","서울특별시 금천구 독산로 286 2층일부 3층 독산동",126.903441,37.4721972
"보현음악학원","서울특별시 영등포구 영등포로 118 , 성지빌딩 405호 (당산동2가)",126.8945941,37.5212575
"프라임학원","서울특별시 구로구 공원로 71 , 신협빌딩 2층 전부 (구로동,구로신협빌딩)",126.8882023,37.502791
"지캠프영등포당산보습학원","서울특별시 영등포구 당산로 163 3층 당산동4가",126.9031068,37.5285217
"최강멘토보습학원","서울특별시 영등포구 선유로53길 34-14   2층 양평동4가",126.8955894,37.5388433
"열린음악학원","서울특별시 구로구 신도림로 16  신도림2차대림A상가동305 신도림동",126.878151,37.506266
"엔터스카이(EnterSKY)학원","서울특별시 영등포구 국제금융로 78 , 홍우빌딩 1010호, 1015호 (여의도동)",126.9312481,37.5208907
"토마토영어전문보습학원","서울특별시 구로구 신도림로 16  신도림2차대림A상가동301호 신도림동",126.878151,37.506266
"구일어학원","서울특별시 구로구 구일로2길 51   3층 구로동",126.8772741,37.4893433
"새이화음악학원","서울특별시 금천구 독산로 110-1 2,3층 시흥동",126.9056385,37.4571665
"탑플랜구로원더랜드어학원","서울특별시 구로구 구로동로47길 20   2층 구로동",126.8812728,37.4982709
"동심원미술학원","서울특별시 영등포구 도신로 142   2층 신길동",126.9074832,37.5091818
"예일음악학원","서울특별시 영등포구 가마산로61다길 5   3층 신길동",126.9043429,37.5065055
"중앙단과학원","서울특별시 구로구 개봉로20길 6 , 4층 일부 (개봉동, 현대아파트 상가2동)",126.8600665,37.4919863
"성지미술학원","서울특별시 구로구 고척로1길 23 1층,2층 오류동",126.8395063,37.494818
"다섯손가락미술학원","서울특별시 구로구 개봉로18길 10   2층 개봉동",126.856545,37.4914746
"뉴탑클래스학원","서울특별시 구로구 디지털로27길 89 2,3층 가리봉동",126.8891233,37.4842374
"여의도독서실","서울특별시 영등포구 국제금융로 108 , 은하상가 3층 (여의도동,은하빌딩)",126.9335346,37.5186998
"알투스영어학원","서울특별시 구로구 개봉로 48 , 4층 (개봉동, 대성빌딩)",126.8563319,37.4898786
"임선생영어수학클리닉학원","서울특별시 금천구 은행나무로 18   2층 일부 시흥동",126.9046493,37.4502814
"교원학원","서울특별시 구로구 오류로8길 20  3층",126.8419011,37.4911085
"대원학원","서울특별시 영등포구 대방천로 175   3층 신길동",126.9105181,37.4992876
"개봉회계학원","서울특별시 구로구 개봉로 128 , 4층 (개봉동)",126.8567893,37.4970364
"리틀줄리어드음악학원","서울특별시 영등포구 영등포로11길 9   2층 양평동1가",126.8911925,37.521859
"아름다운사람들미용학원","서울특별시 영등포구 영중로2길 1 ,  12층, 13층 (영등포동3가)",126.9070607,37.516907
"지현컴퓨터학원","서울특별시 구로구 개봉로 54   4층 개봉동",126.8563607,37.4904366
"리즈음악학원","서울특별시 금천구 금하로 793  벽산B상가 406호 시흥동",126.918954,37.451862
"엠탑학원","서울특별시 금천구 범안로15길 4   2층 독산동",126.8934366,37.4666994
"정상어학원","서울특별시 금천구 금하로 773   동광빌딩5층 시흥동",126.91559,37.4503534
"파워아이네트학원","서울특별시 구로구 개봉로16가길 10-41   2층 개봉동",126.8582116,37.4905969
"세종학원","서울특별시 구로구 개봉로42 3층",126.8563883,37.4893683
"키즈음악학원","서울특별시 금천구 금하로 753 3,4층 시흥동",126.9133603,37.4501591
"이시와이어학원","서울특별시 구로구 신도림로19길 7 , 601호~608호 (신도림동,성광빌딩)",126.8844556,37.5111606
"대우독서실","서울특별시 영등포구 도신로 116   대웅빌딩3층 신길동",126.9049783,37.5080129
"무지개펀키즈어학원","서울특별시 영등포구 당산로36길 11 2,3,4층 당산동4가",126.899038,37.5280081
"한맥프라임학원","서울특별시 영등포구 여의대방로43라길 20 1층일부 3층 신길동",126.9202563,37.5089587
"신길영수학원","서울특별시 영등포구 도림로63길 1   3층 신길동",126.9036826,37.4976764
"대진학원","서울특별시 구로구 새말로 83 , 3층 (구로동)",126.8902185,37.5070431
"산소해냄독서실","서울특별시 구로구 신도림로19길 7   성광빌딩 4층 신도림동",126.8845635,37.5112343
"정일학원","서울특별시 구로구 신도림로19길 7   성광빌딩 5층 신도림동",126.8845635,37.5112343
"고려이스쿨학원","서울특별시 구로구 개봉로17길 25   3층 개봉동",126.8543175,37.4914611
"에스엘피어학원","서울특별시 영등포구 대림로 247 대림프라자 4,5층 대림동",126.8962485,37.5024854
"알프레드음악학원","서울특별시 구로구 신도림로19길 7   성광빌딩 5층 신도림동",126.8845635,37.5112343
"중앙학원","서울특별시 구로구 경인로59길 8 , 태영프라자 608호 (신도림동)",126.8833333,37.5063889
"제일학원","서울특별시 구로구 구로중앙로27나길 32 1,2,3층 구로동",126.8852202,37.4961043
"에스앤피학원","서울특별시 영등포구 신길동 4364 태창빌딩 2층",126.9171441,37.4976255
"한솔플러스수학학원","서울특별시 금천구 독산로84길 15   2층 일부 독산동",126.904041,37.4722911
"영등포정철어학원","서울특별시 영등포구 영신로9라길 16   5층 영등포동",126.9053848,37.5133054
"대우뮤즈음악학원","서울특별시 영등포구 도신로29아길 7   국송빌딩 4층 영등포동",126.9033992,37.5101712
"민선생독서실","서울특별시 구로구 고척로27길 126  동양빌딩 5층 개봉동",126.8451508,37.5074563
"하늘교육여의도학원","서울특별시 영등포구 국제금융로 78 홍우빌딩 1012,1013,1014호 여의도동",126.9312481,37.5208907
"리틀모짜르트음악학원","서울특별시 영등포구 디지털로54길 28   2층 대림동",126.9031424,37.4885249
"튼튼영어마스터클럽학원","서울특별시 금천구 독산로50길 76   3층 시흥동",126.9083929,37.4623811
"리틀브릿지어학원","서울특별시 구로구 고척로 149",126.850169,37.5030865
"참빛음악학원","서울특별시 구로구 구일로4길 49   2층 구로동",126.8757601,37.4926529
"에이이제이(AEJ)수학전문학원","서울특별시 금천구 금하로28길 4 , 2층 (시흥동,신용빌딩)",126.9121787,37.4498104
"예일독서실","서울특별시 영등포구 선유서로21길 15 벽신상가 4층 양평동2가",126.8830742,37.5222646
"큰뜻독서실","서울특별시 구로구 개봉로20길 14   성암빌딩 6층 개봉동",126.8563168,37.4925972
"명문학원","서울특별시 구로구 고척로27길 126  동양빌딩2층 개봉동",126.8451851,37.5074746
"신나는음악학원","서울특별시 구로구 고척로27길 126  동양빌딩401호 개봉동",126.8451508,37.5074563
"유베스타고척어학원","서울특별시 구로구 고척로 228-6 , 3층 (고척동,종만빌딩)",126.8582376,37.5057472
"연세수학학원","서울특별시 영등포구 문래로 94-7 3층 301,302호 문래동3가",126.8923341,37.5184818
"더쎈학원","서울특별시 구로구 경인로 352 금석빌딩 3층 개봉동",126.8593442,37.4967357
"정철영어주니어여의도어학원","서울특별시 영등포구 여의대방로 394  우정빌딩4층 여의도동",126.9328086,37.5194009
"엘리트에듀학원","서울특별시 금천구 독산로58나길 48   2층 독산동",126.9065496,37.4649987
"아이비학원","서울특별시 구로구 개봉로20길 6 3층 개봉동",126.8585354,37.4919831
"지지이(gge)원일학원","서울특별시 금천구 탑골로 23-1",126.9117828,37.4520116
"메디아이신도림학원","서울특별시 영등포구 경인로 706 , 3층 일부 (문래동1가,한양빌딩)",126.8925905,37.5109845
"정광학원","서울특별시 영등포구 도신로48길 9-2   3층 신길동",126.9132577,37.5101758
"현대엘리트보습학원","서울특별시 영등포구 국회대로37길 21   경희빌딩 4층 당산동4가",126.9003186,37.5287102
"우성제2보습학원","서울특별시 영등포구 여의대방로7길 9 2층 신길동",126.9127321,37.4972807
"연세화공기술전문학원","서울특별시 영등포구 영신로 29   광동빌딩4층 영등포동",126.9079781,37.5140313
"월광음악학원","서울특별시 영등포구 도신로29길 12   3층 도림동",126.9049878,37.5095867
"샛별음악학원","서울특별시 금천구 남부순환로126길 51 , 3층 (독산동)",126.9071137,37.4780402
"제이에이학원","서울특별시 금천구 가산로 99 두산아파트 상가동 3층 302호,303호 가산동",126.8917131,37.4760163
"한길학원","서울특별시 영등포구 국제금융로 78   5층 507A호,507B호 여의도동",126.9312858,37.5208329
"태영음악학원","서울특별시 구로구 경인로59길 8   태영빌딩프라자 605호 신도림동",126.8833105,37.5063991
"행복한아이들미술학원","서울특별시 영등포구 신길로42길 10   조양빌딩 3층 신길동",126.911811,37.5077908
"현대지성학원","서울특별시 영등포구 선유동2로 29   현대2차아파트 상가3층 301호,302호 일부 양평동3가",126.8954508,37.5318709
"성지학원","서울특별시 영등포구 영등포로 118  성지빌딩 2층 당산동2가",126.8951235,37.5208786
"하늘교육신도림학원","서울특별시 구로구 경인로59길 8   태영빌딩 412호 신도림동",126.8833105,37.5063991
"매쓰(Math)타운학원","서울특별시 영등포구 도림로313 건영아파트상가 2층 203호 204호",126.9013121,37.505041
"신도림케이투독서실","서울특별시 구로구 경인로59길 8   태영빌딩5층501,502호 신도림동",126.8833105,37.5063991
"다비다영수전문학원","서울특별시 금천구 독산로 117   2층 시흥동",126.9051256,37.4576889
"지앤비도림학원","서울특별시 영등포구 가마산로61가길 9-13 , 2층 (신길동)",126.9061058,37.506065
"백가수학보습학원","서울특별시 영등포구 국제금융로 78 , 홍우빌딩 903호,906호 (여의도동)",126.9312481,37.5208907
"대연학원","서울특별시 금천구 금하로 763 , 303호,304호 (시흥동,벽산아파트 중심상가동)",126.9145594,37.4503206
"하이포인트학원","서울특별시 영등포구 국제금융로 78 , 1008호 (여의도동,홍우빌딩)",126.9312481,37.5208907
"비욘드어학원","서울특별시 영등포구 신길로42라길 1 2,3층 신길동",126.9127982,37.5076216
"베리타스학원","서울특별시 구로구 고척로 1-4 세양빌딩 2,3층 일부 오류동",126.8406794,37.4951244
"스터디캠프학원","서울특별시 금천구 독산로 4 , 2층 (시흥동)",126.9036972,37.4484579
"표현주의미술학원","서울특별시 구로구 고척로 154   3층 고척동",126.8508388,37.5030002
"수베스트(秀Best)학원","서울특별시 구로구 구로중앙로14길 33 , 2층 201호 (구로동)",126.8923254,37.493814
"케이이엠학원","서울특별시 구로구 경인로 397   골든타워빌딩 6층 고척동",126.8637523,37.4977766
"김영제과제빵학원","서울특별시 영등포구 가마산로46길 14 , 302호 (대림동, 제일빌딩)",126.90084,37.5011525
"오감수학학원","서울특별시 영등포구 국제금융로 78   홍우빌딩8층 807-A호 여의도동",126.9312481,37.5208907
"학사영수크리닉학원","서울특별시 구로구 경인로19길 36-7 1,3층 오류동",126.8429685,37.4974172
"헬로이화보습학원","서울특별시 구로구 오리로 1265 우신상가2,3층 궁동",126.8295971,37.4946798
"뉴리틀모짜르트음악학원","서울특별시 영등포구 도림로61길 19   3층 대림동",126.9018379,37.498381
"일대일학원","서울특별시 구로구 중앙로5길 62 , 상가 307호,311호 (고척동,서울가든아파트)",126.8605106,37.502485
"랭콘잉글리쉬영등포어학원","서울특별시 영등포구 버드나루로 135 당산빌딩2,3층 당산동",126.9070794,37.5301272
"대양고등부학원","서울특별시 구로구 도림로 75   4층 구로동",126.8916948,37.4899571
"뉴아이비독서실","서울특별시 영등포구 영신로19길 28  3층",126.9049465,37.5135771
"스카이보습학원","서울특별시 금천구 금하로 760   3층 시흥동",126.9139874,37.4498576
"오투(O2)산소독서실","서울특별시 금천구 독산로108길 99   3층 독산동",126.9093224,37.4802574
"첼린져학원","서울특별시 영등포구 도신로 51 , 4층 402호 (도림동,송덕빌딩)",126.8983124,37.5055686
"가우스아이보습학원","서울특별시 영등포구 국제금융로 78   홍우빌딩 909호 여의도동",126.9312481,37.5208907
"신현대에듀학원","서울특별시 금천구 벚꽃로 73   금천현대아상가 301호 독산동",126.8903334,37.4623549
"수학원","서울특별시 구로구 가마산로 229   3층 구로동",126.8863532,37.4942102
"이오브이학원","서울특별시 구로구 부일로19길 10 3,4층 궁동",126.8366777,37.4937477
"정수학원","서울특별시 영등포구 양산로 186 백상빌딩 3층 영등포동6가",126.9036785,37.5227009
"지성학원","서울특별시 구로구 개봉로 54   3층 개봉동",126.8563607,37.4904366
"대치에이스(ACE)학원","서울특별시 구로구 중앙로1길 25   2층 고척동",126.8634572,37.4978459
"대림예일보습학원","서울특별시 영등포구 도림천로21길 33   2층 대림동",126.9029677,37.4883287
"예원클래식음악학원","서울특별시 금천구 시흥대로148길 37-18   3층 독산동",126.9010374,37.4757547
"도림해법학원","서울특별시 영등포구 도신로 63   3층 도림동",126.8960349,37.5088456
"창작미술학원","서울특별시 구로구 서해안로24길 21-4   4층 오류동",126.8393959,37.4894575
"드림하이학원","서울특별시 구로구 서해안로24길 21-4  3층 오류동",126.8393959,37.4894575
"진(JIN)음악학원","서울특별시 구로구 고척로 49  동부골든A상가 3층 오류동",126.839596,37.4993461
"정인티앤에스학원","서울특별시 영등포구 국제금융로 78 , 910호,911호 (여의도동, 홍우빌딩)",126.9312481,37.5208907
"은정이제이학원","서울특별시 구로구 도림로20길 18   3층 구로동",126.8924043,37.4889293
"오픈북어학원","서울특별시 영등포구 국제금융로 106   행진빌딩1층 여의도동",126.9331975,37.5188732
"세영소방전기기술학원","서울특별시 영등포구 경인로71길 6 , 3층일부,4층일부,5층,  경인로 714, 3층(문래동1가) (문래동2가,삼승빌딩)",126.8910628,37.5137064
"제이드학원","서울특별시 금천구 독산로 82 2,3,4,5층 시흥동",126.9061257,37.454603
"육영사관학원","서울특별시 영등포구 도림로 294   3층 신길동",126.903513,37.5040127
"김기남전기학원","서울특별시 영등포구 영신로19길 5-4 2,3층일부 영등포동",126.907242,37.5140903
"메디탑간호학원","서울특별시 구로구 오리로 1298 , 2층 (궁동)",126.8291166,37.5067334
"세계탑학원","서울특별시 금천구 시흥대로47길 28   4층 시흥동",126.9004486,37.4498766
"해오름학원","서울특별시 구로구 개봉로 27   3층 개봉동",126.8559896,37.488148
"신영진컴퓨터학원","서울특별시 구로구 경인로59길 8 , 606호, 609호일부 (신도림동)",126.8833546,37.5063288
"에임하이학원","서울특별시 영등포구 양평로 5 천우빌딩 2층일부 3층 당산동5가",126.9050332,37.5320377
"정은숙음악학원","서울특별시 금천구 금하로 763 벽산아파트 중심상가동 3층 306-2,307,308호 시흥동",126.918124,37.4520061
"바른길로학원","서울특별시 구로구 고척로27길 126 , 3층 301호 (개봉동)",126.8451851,37.5074746
"우리학원","서울특별시 구로구 오류로 73   3층 오류동",126.8405551,37.4911286
"에이본어학원","서울특별시 영등포구 국제금융로 78 홍우빌딩 1011,905,714,710호일부 여의도동",126.9312481,37.5208907
"수도전기직업전문학원","서울특별시 영등포구 경인로 882 , 1층일부, 2층일부 및 경인로874, 세림빌딩 4층 (영등포동1가, 여의도씨티아이))",126.9098109,37.5171785
"김기남정보통신학원","서울특별시 영등포구 영신로19길 7   3층 영등포동",126.9069031,37.5142196
"유피엠학원","서울특별시 금천구 시흥대로 480   2층 독산동",126.8990571,37.4763373
"일신특목관학원","서울특별시 영등포구 선유로 88 , 3층, 4층 (양평동1가, 윤당제1빌딩)",126.8908989,37.5211408
"인베스트학원","서울특별시 영등포구 여의대방로 209 , 2층,3층 (신길동)",126.9144774,37.5113178
"참아름음악학원","서울특별시 영등포구 당산로44길 3   삼성타운 605호 당산동5가",126.9010058,37.5318988
"옥스포드2관학원","서울특별시 금천구 독산로85길 25   2층 독산동",126.9015668,37.4723366
"유앤아이학원","서울특별시 영등포구 당산로44길 3   삼성타운 4층 404호 당산동5가",126.9010058,37.5318988
"에임하이프리미엄학원","서울특별시 영등포구 당산로44길 3   삼성타운5층505~507호 당산동5가",126.901043,37.5318517
"이용수국어광장학원","서울특별시 영등포구 신풍로 113 시원빌딩 301,302호 신길동",126.9189494,37.5000697
"이(e)명문학원","서울특별시 영등포구 신길로60다길 4   2층 신길동",126.9132471,37.5141078
"새중앙독서실","서울특별시 영등포구 신길로 19   3층 대림동",126.9085772,37.4944077
"한우리독서논술학원","서울특별시 영등포구 당산로44길 3   삼성타운 5층 502호 당산동5가",126.9010058,37.5318988
"샘이깊은학원","서울특별시 영등포구 국제금융로 78 , 홍우빌딩 605호 (여의도동)",126.9312481,37.5208907
"엔젤무용학원","서울특별시 영등포구 당산로44길 3   삼성타운7층713호 당산동5가",126.9010058,37.5318988
"프라임독서실","서울특별시 영등포구 당산로44길 3 삼성타운7층704,705호 당산동5가",126.9010058,37.5318988
"에스엠토킹스쿨학원","서울특별시 금천구 금하로 694 삭암빌딩 2,3층 시흥동",126.9071316,37.4515704
"고려아카데미학원","서울특별시 금천구 시흥대로20길 27 2,3층 시흥동",126.9042568,37.4415484
"대한논리정독문래학원","서울특별시 영등포구 당산로44길 3 삼성타운 310,311호 당산동5가",126.9010058,37.5318988
"씨엠영어학원","서울특별시 금천구 시흥대로41길 3 , 3층 (시흥동)",126.9026581,37.447558
"아이다토무용학원","서울특별시 영등포구 국제금융로6길 33 , 2층 235호,236호,237호 (여의도동)",126.926893,37.5207606
"오진택기술사학원","서울특별시 영등포구 영신로17길 8 , 1층일부,2층,3층 (영등포동, 정립중앙교회)",126.9070905,37.5139321
"문성왕수학교실학원","서울특별시 금천구 시흥대로150길 37-12 , 2,3층 (독산동)",126.9011294,37.4764196
"해움터보습학원","서울특별시 금천구 독산로 275   2층 독산동",126.9028699,37.4713575
"비티엘학원","서울특별시 구로구 개봉로11길 35-17 1층일부 개봉동",126.8541635,37.4872581
"청담에이프릴어학원","서울특별시 구로구 경인로65길 44 , 403호일부, 405호일부, 406호 (신도림동, 보미플라자)",126.8785419,37.5049037
"이지보습학원","서울특별시 구로구 경인로65길 44 , 외 2필지 보미프라자 401호,402호 (신도림동,보미플라자)",126.8850358,37.5094846
"명문엔학원","서울특별시 금천구 문성로 49 신건빌딩 2,3층 독산동",126.9089941,37.4770142
"진학고등관학원","서울특별시 금천구 시흥대로 208 , 4층,5층,6층,7층 (시흥동, 영보빌딩)",126.9017764,37.4524389
"이보영의토킹클럽당산어학원","서울특별시 영등포구 당산로44길 3 삼성타운 304호305호 당산동5가",126.9010058,37.5318988
"수학의아침학원","서울특별시 영등포구 당산로44길 3   삼성타운 504호 당산동5가",126.9010058,37.5318988
"신성보습학원","서울특별시 영등포구 가마산로48길 30-1   2층 신길동",126.9026757,37.5006378
"제이투학원","서울특별시 영등포구 도신로62길 11 2,3층 신길동",126.918073,37.5112571
"나우누리학원","서울특별시 금천구 금하로 763  벽산아파트 중심상가동 302호 시흥동",126.9183272,37.4480497
"늘찬학원","서울특별시 금천구 탑골로2길 46   3층 시흥동",126.9128377,37.4505787
"오류동삼성영어학원","서울특별시 구로구 오류로 62 , 2층 1호 (오류동)",126.8404395,37.4901219
"하늘교육구일영재학원","서울특별시 구로구 구일로8길 56   2층 205호 구로동",126.8740612,37.4956173
"이보영의토킹클럽문래보습학원","서울특별시 영등포구 문래로 79-4   태양프라자 2층 문래동3가",126.8909564,37.5197754
"다온독서실","서울특별시 구로구 경인로 373   근상골드타워 5층 502호 고척동",126.8625002,37.5011414
"파워주니어영어수학학원","서울특별시 구로구 도림로20길 14   3층 구로동",126.8921911,37.4891237
"리틀팍스어학원","서울특별시 영등포구 여의대방로 55 , 5층,6층일부 (신길동,신길프라자)",126.9127556,37.4967644
"에릭스어학원이보영의토킹클럽","서울특별시 구로구 신도림로 29 2,3층 신도림동",126.8792918,37.5074761
"클라임오투독서실","서울특별시 영등포구 선유로 52   3층 문래동3가",126.9014909,37.515038
"탑수석학원","서울특별시 구로구 오류로8길 57   대성빌딩5층 501호 오류동",126.8433846,37.492361
"현대독서실","서울특별시 영등포구 대림로 245   2층 대림동",126.8963702,37.5022802
"맥학원","서울특별시 구로구 구로중앙로28길 73 구로하우비 202호 구로동",126.8893254,37.5007554
"강남학원","서울특별시 금천구 시흥대로64길 13 , 2층 (시흥동)",126.9036613,37.4396859
"유니원학원","서울특별시 영등포구 국제금융로 78 , 홍우빌딩 805호 (여의도동)",126.9304477,37.5210395
"엡실론수학전문학원","서울특별시 영등포구 당산로44길 3 삼성타운 4층 408,409호 당산동5가",126.9010058,37.5318988
"당산능률주니어랩영어학원","서울특별시 영등포구 당산로44길 3   삼성타운 4층 403호 당산동5가",126.901043,37.5318517
"제니스해법학원","서울특별시 구로구 경인로 352 금석빌딩 211호 개봉동",126.8590964,37.4964388
"홍익조형아트미술학원","서울특별시 영등포구 당산로44길 3   삼성타운 3층 6호 당산동5가",126.9010058,37.5318988
"엠비씨아카데미뷰티미용학원","서울특별시 영등포구 영등포로36길 9  송호빌딩2층 영등포동4가",126.903712,37.518965
"하이스터디학원","서울특별시 구로구 경인로 643 동아2차아파트 상가 204,226호 신도림동",126.8868674,37.5084224
"구로외대어학원","서울특별시 구로구 가마산로 248 대신빌딩 4,5층 일부 구로동",126.8882581,37.4946531
"월스트리트잉글리쉬여의도어학원","서울특별시 영등포구 의사당대로 97 , 12층 일부 (여의도동,교보증권)",126.9245871,37.5224837
"유성학원","서울특별시 구로구 도림로 57 , 3,4층 (구로동)",126.8901255,37.4888737
"최혜진무용학원","서울특별시 영등포구 신길로 42  썬프라자커뮤니티상가 4층 신길동",126.9086066,37.496429
"루카스영어학원","서울특별시 영등포구 신길로 34 5층 신길동",126.9087248,37.4956101
"크라벨어학원","서울특별시 영등포구 영중로 131-10   자원회관3층 영등포동8가",126.9045725,37.5283299
"위즈아일랜드당산어학원","서울특별시 영등포구 당산로 237   그린빌빌딩 2층 당산동6가",126.9022221,37.5348469
"신나는그림나라미술학원","서울특별시 구로구 고척로 229   3층 고척동",126.8584372,37.5062366
"메카학원","서울특별시 구로구 경인로 377   근상골든타워 802호 고척동",126.8625002,37.5011414
"김태정음악학원","서울특별시 금천구 금하로1길 93",126.8894998,37.4539785
"금천대학학원","서울특별시 금천구 시흥대로 332-1   2층 독산동",126.8978827,37.4631521
"아카데미라운지신도림독서실","서울특별시 구로구 경인로65길 44 보미플라자 3층 303,305,306,307호 신도림동",126.8852079,37.509554
"개봉현대독서실","서울특별시 구로구 개봉로 63   3층 개봉동",126.8556774,37.4913419
"와이비엠에듀케이션구로어학원","서울특별시 구로구 시흥대로 551   4층 구로동",126.9005188,37.4825185
"동작청담어학원","서울특별시 영등포구 여의대방로 89 익녕빌딩 501, 601호 신길동",126.9165684,37.4972601
"영림아카데미학원","서울특별시 영등포구 여의대방로65길 12 10층 1002호 1003호 여의도동",126.9300084,37.5195806
"위슬런아이디학원","서울특별시 영등포구 여의대방로 89 , 401호 (신길동, 익녕빌딩)",126.9165684,37.4972601
"구로대성엔학원","서울특별시 구로구 오리로 1301 2,3층 궁동",126.828743,37.5065351
"문래용문플러스학원","서울특별시 영등포구 문래로 92 401,402호 문래동3가",126.8922276,37.5191872
"신도림케이투(K2)학원","서울특별시 구로구 경인로59길 8 태영프라자 5층 503,504호 신도림동",126.8833333,37.5063889
"하이프라임어학원","서울특별시 금천구 가산디지털1로 168 , C-101호 (가산동, 우림 라이온스밸리)",126.8826202,37.4800992
"에스케이와이(SKY)세계로학원","서울특별시 구로구 중앙로15길 80",126.8554897,37.5069054
"애플트리잉글리쉬학원","서울특별시 구로구 경인로59길 8 , 314호 (신도림동)",126.8833546,37.5063288
"뮤엠영어해법수학학원","서울특별시 구로구 개봉로16길 6 , 2층 (개봉동)",126.8565942,37.4898784
"이엠학원","서울특별시 영등포구 당산로38길 8 , 2층 (당산동4가, 영광빌딩)",126.8990061,37.528788
"베스트이엠학원","서울특별시 구로구 경인로65길 44 보미플라자 201,202호 신도림동",126.8852079,37.509554
"뮤엠영어고척학원","서울특별시 구로구 중앙로1길 51   영동빌딩 4층 고척동",126.8623455,37.4971774
"신경숙외국어학원","서울특별시 영등포구 여의대방로 386 진주상가 502,505,506호 여의도동",126.9319198,37.5188731
"멘토학원","서울특별시 구로구 고척로16길 72   2층 오류동",126.8434785,37.4977123
"황규선무용학원","서울특별시 영등포구 대림로 245 , 5층 (대림동,대림동근생빌딩)",126.8963702,37.5022802
"글탑학원","서울특별시 구로구 고척로23길 34 , 3층 (개봉동,영신빌딩)",126.8461786,37.503068
"이보영의토킹클럽독산보습학원","서울특별시 금천구 시흥대로 440 , 306호 (독산동)",126.8988832,37.4728558
"신일등학원","서울특별시 구로구 구로중앙로27길 28-1 , 1층 일부, 2~3층 (구로동)",126.8844623,37.4979452
"구로남대성N학원","서울특별시 구로구 경인로 164   대원빌딩 6층 오류동",126.8385254,37.4901258
"서원학원","서울특별시 영등포구 당산로44길 3 , 606호 (당산동5가, 삼성타운)",126.901043,37.5318517
"영재학원","서울특별시 금천구 독산로 119 , 2층 (시흥동)",126.9051088,37.4579104
"모드컴퓨터산업디자인학원","서울특별시 영등포구 영등포로 208   70-2 영등포동4가",126.9042274,37.5195154
"솔로몬독서실","서울특별시 구로구 구로동로26길 106 에벤에셀 3,4층 구로동",126.8898758,37.4900039
"메가오투독서실","서울특별시 구로구 도림로 65   4층 구로동",126.8908614,37.4893464
"미오음악학원","서울특별시 영등포구 선유로9나길 12 두레상가빌딩 2층 201,203,204호 문래동5가",126.885965,37.516837
"원투원학원","서울특별시 구로구 중앙로15길 126 , 2층 (고척동)",126.8532333,37.5078639
"더퍼포즈학원","서울특별시 영등포구 도신로 38 , 3층 (대림동)",126.8972196,37.504584
"한우리구로독서논술학원","서울특별시 구로구 경인로 352 금석상가빌딩 3층 201, 202호 개봉동",126.8557494,37.4888722
"현대이스턴영어학원","서울특별시 금천구 벚꽃로 73   현대아파트 상가동 209호 독산동",126.8902608,37.4625204
"이오브이어학원","서울특별시 구로구 부일로19길 10   4층 일부 궁동",126.8366777,37.4937477
"세광음악학원","서울특별시 영등포구 대방천로 173 2,3층 신길동",126.9102228,37.499293
"현대피아노음악학원","서울특별시 금천구 벚꽃로 73 현대아파트 상가 2층211,212호 독산동",126.8902608,37.4625204
"목동위너스학원","서울특별시 구로구 중앙로14길 31 , 4층 일부 (고척동,신성빌딩)",126.8631037,37.5075827
"이보영의토킹클럽보라매어학원","서울특별시 영등포구 신풍로 113 시원빌딩 201,202,203호 신길동",126.9189494,37.5000697
"필하모닉음악학원","서울특별시 영등포구 당산로44길 3 삼성타운 2층 204,214호 당산동5가",126.9010058,37.5318988
"솔빛학원","서울특별시 금천구 시흥대로45길 39   2층 시흥동",126.8998164,37.4484462
"큰학원","서울특별시 구로구 구로중앙로18길 53  우진체리쉬 201,203호",126.8919244,37.4960141
"능률주니어랩영어학원","서울특별시 구로구 개봉로3길 82 가동 3층 개봉동",126.8517062,37.486235
"차일드유학원","서울특별시 영등포구 문래로 94-7   문래건영아파트 상가동 2층 일부 문래동3가",126.892257,37.5183725
"맨하탄음악학원","서울특별시 영등포구 당산로 34 로데오왁상가 224,225호 문래동3가",126.895836,37.5173997
"에듀독서실","서울특별시 영등포구 여의대방로 394 4층 401호, 402호, 407호 여의도동",126.9327683,37.5193677
"청운학원","서울특별시 영등포구 문래로4길 4 현대아파트상가동 3층 302호, 303호, 304호 문래동6가",126.8830537,37.520374
"해법영어제니스잉글리쉬학원","서울특별시 구로구 오류로 60   2층 오류동",126.8403192,37.4899333
"신샘독서실","서울특별시 구로구 구일로 110 , 604호,605호 (구로동, 해원리버파크)",126.872004,37.4950273
"씨엠에스벽산캠퍼스학원","서울특별시 금천구 금하로 750 관악우방아파트 상가2동 2,3,4층 시흥동",126.912242,37.449972
"해법리더학원","서울특별시 영등포구 대방천로 173   3층 신길동",126.9102228,37.499293
"우성제일보습학원","서울특별시 영등포구 여의대방로7길 9 3층 신길동",126.9127321,37.4972807
"뉴미래독서실","서울특별시 구로구 새말로 75 3,4층 구로동",126.8885422,37.5049153
"김재규경찰학원","서울특별시 영등포구 영등포로 414 2~5층 신길동",126.923766,37.5125075
"열린보습학원","서울특별시 영등포구 도림로 285-1   2층 신길동",126.9033467,37.5032444
"랭귀지큐브구로엘시(LC)어학학원","서울특별시 구로구 디지털로 306 대륭포스트타워2차 405호 구로동",126.897285,37.485904
"코넬영어학원","서울특별시 금천구 금하로 755-3 2,3층 시흥동",126.913678,37.4501503
"에듀나인학원","서울특별시 구로구 구로중앙로 21 2층일부,3층일부 구로동",126.8912353,37.4918999
"더아이비학원","서울특별시 영등포구 국제금융로 78 , 롯데캐슬아이비 201호, 201-1호 (여의도동)",126.9318875,37.5200722
"정통영어학원","서울특별시 구로구 신도림로 78  동아3차아파트 상가 202호 신도림동",126.8841746,37.5095123
"뉴정진학원","서울특별시 금천구 금하로 793  벽산아파트 상가B동 2층 201호 시흥동",126.918124,37.4520061
"알알이아카데미학원","서울특별시 영등포구 도신로 90   2층 신길동",126.9024459,37.5069123
"온수이용학원","서울특별시 구로구 경인로3길61 광장빌딩 3층",126.8244349,37.4916045
"당산줄리어드음악학원","서울특별시 영등포구 당산로38길 13   2층 당산동4가",126.8999165,37.528778
"아이사랑미술학원","서울특별시 구로구 신도림로19길 16  현대아파트 상가 2층 201호 신도림동",126.8840088,37.5119989
"와이비엠잉글루영재학원","서울특별시 금천구 금하로 793 , 상가 B동 305호,306호,307호 (시흥동, 벽산아파트)",126.918124,37.4520061
"아이맥스보습학원","서울특별시 영등포구 가마산로79길 46  푸른숲마을 상가동 2층 신길동",126.9182855,37.5080504
"뉴(New)이레음악학원","서울특별시 금천구 독산로58나길 48   3층 독산동",126.9065496,37.4649987
"토마토음악학원","서울특별시 구로구 경인로40길 11  영화상가 3층 개봉동",126.8598938,37.4959779
"여의도베리타스보습학원","서울특별시 영등포구 여의대방로 375 아일렉스타워 10층 1003호,1004호 여의도동",126.9307807,37.518858
"강경원소방기술학원","서울특별시 영등포구 영등포로36길 9  송호빌딩 3층 영등포동4가",126.903712,37.518965
"튼튼영어마스터클럽당산학원","서울특별시 영등포구 당산로44길 3   삼성타운 7층 702호 당산동5가",126.9010058,37.5318988
"선화뮤직스튜디오음악학원","서울특별시 영등포구 여의대방로 383 5층 505,506,523,525호 여의도동",126.9314898,37.519303
"한솔플러스(자기주도학습관)학원","서울특별시 영등포구 선유서로9길 5 문래현대5차아파트상가동2층,3층 203호,204호,302호 문래동5가",126.8832579,37.5175391
"해법당산보습학원","서울특별시 영등포구 양평로22길 13   6층 양평동5가",126.8946246,37.5397839
"잉글리쉬무무구로5동제1보습학원","서울특별시 구로구 새말로 79   구일빌딩 3층 구로동",126.8887855,37.5050407
"고척숙명음악학원","서울특별시 구로구 중앙로8길 10-11 2,3층 고척동",126.8641171,37.5021393
"대영독서실","서울특별시 구로구 고척로6길 58-1 오류동송원빌딩 4,5층 오류동",126.8419231,37.4961275
"와이비엠잉글루보습학원","서울특별시 구로구 신도림로19길 16  현대아파트 상가 3층 301호 신도림동",126.8840088,37.5119989
"제3한솔보습학원","서울특별시 구로구 고척로 140 제일빌딩 2,3,4층, 5층 일부 고척동",126.8496053,37.5023791
"능률주니어랩도림1보습학원","서울특별시 영등포구 도신로29길 10   2층 도림동",126.9050629,37.5094045
"대성엔직영학원","서울특별시 금천구 남부순환로 1372 , 2층 (독산동, 현경빌딩)",126.9033206,37.4794465
"셜대수보습학원","서울특별시 구로구 고척로 229   5층 고척동",126.8584372,37.5062366
"웰컴독서실","서울특별시 영등포구 양평로 5   9층 당산동5가",126.8988084,37.5333121
"루카스수학학원","서울특별시 영등포구 신길로 40  2층 신길동",126.9085911,37.4960135
"뉴탑보습학원","서울특별시 영등포구 디지털로53길 23 2,3층 대림동",126.8998087,37.4923954
"오투비타민독서실","서울특별시 영등포구 당산로54길 26   2층 당산동6가",126.9055716,37.5338201
"미래인티엘에스(TLS)학원","서울특별시 구로구 경인로 403 원메디타운빌딩 7층 701,702호 고척동",126.8625002,37.5011414
"에듀퍼스트보습학원","서울특별시 영등포구 양산로 186   백상빌딩 2층 영등포동6가",126.9036785,37.5227009
"금천간호학원","서울특별시 금천구 시흥대로 202   대의빌딩 2층 일부 시흥동",126.9008414,37.450992
"그린컴퓨터아트학원","서울특별시 구로구 새말로 97   테크노마트 6층 일부",126.8902185,37.5070431
"펠튼영어학원","서울특별시 영등포구 도림로 323 건영아파트상가 2층 205호 신길동",126.9013121,37.505041
"한양학원","서울특별시 영등포구 경인로 711 , 1층일부,2층,3층일부,4층일부 (문래동2가,청광빌딩)",126.8928405,37.5117622
"한빛정보통신학원","서울특별시 구로구 구로중앙로 135-1   청자빌딩 2층 구로동",126.8832029,37.4994858
"희망독서실","서울특별시 구로구 새말로 38-17 3,4층 구로동",126.8852834,37.5026563
"멘토스보습학원","서울특별시 구로구 중앙로14길 15   3층 고척동",126.8619643,37.5068653
"잉글리쉬무무문래제1학습관보습학원","서울특별시 영등포구 문래로 98   한영빌딩 2층 문래동3가",126.892757,37.5192057
"비상잉글리시아이개봉학원","서울특별시 구로구 개봉로20길 158  현대홈타운2단지아파트 상가 202호 개봉동",126.8615947,37.4915783
"권오철영어학원","서울특별시 금천구 금하로 762-1   두성빌딩2층 시흥동",126.9021468,37.4515753
"이지스학원","서울특별시 구로구 도림로 81   3층 구로동",126.892148,37.4902082
"최강보습학원","서울특별시 금천구 은행나무로 4   3층 시흥동",126.903157,37.4498495
"라바학원","서울특별시 금천구 시흥대로 160 3층 시흥동",126.9034253,37.4483436
"강남대종학원","서울특별시 영등포구 여의대방로 79 2,3층 신길동",126.923888,37.5144891
"대일건축토목학원","서울특별시 영등포구 경인로 874 3층일부 5층 영등포동1가",126.9098115,37.5171541
"우리평생학원","서울특별시 영등포구 경인로 841 , 7층 일부 (영등포동4가,영등포우체국)",126.9061909,37.5164685
"네오고대학원","서울특별시 구로구 구로동로 126-2   3층 구로동",126.884556,37.4898962
"잉글리쉬무무시흥5동학원","서울특별시 금천구 금하로24길 31   2층 시흥동",126.908538,37.4495209
"최강학원","서울특별시 영등포구 도신로 65 , 2층 (도림동)",126.9087035,37.5119116
"공신학원","서울특별시 구로구 신도림로 16 , 202호,207호,208호 (신도림동, 신도림 대림아파트 주상가동)",126.880714,37.5057794
"개봉뉴스터디학원","서울특별시 구로구 개봉로 60   3층 개봉동",126.8562706,37.49108
"고척성균관독서실","서울특별시 구로구 경서로 81 2,3층 고척동",126.8606459,37.5040891
"케이피에이(KPA)교원임용고시학원","서울특별시 영등포구 영등포로 414  비동 2,3층",126.923766,37.5125075
"프리미어독서실","서울특별시 금천구 금하로 753 2,3,4층 시흥동",126.9133603,37.4501591
"뮤엠영어독산동학원","서울특별시 금천구 독산로78다길 15-3 (독산동)",126.9046829,37.4694443
"뮤엠영어시흥동학원","서울특별시 금천구 독산로40길 13 , 2층 (시흥동)",126.9055117,37.4599739
"도신리니어학원","서울특별시 영등포구 대림로34길 15   2층 대림동",126.8998508,37.4990058
"엠아이티스쿨학원","서울특별시 금천구 탑골로 25",126.9119515,37.4519924
"사과나무독서실","서울특별시 구로구 도림로 92 , 5,6층 (구로동)",126.8935647,37.4904467
"씨티에이정도학원","서울특별시 영등포구 경인로77길49 리버뷰신안인스빌109동 301,302호",126.8886418,37.5141366
"탁틴학원","서울특별시 구로구 신도림로 16 , 대림아파트 주상가동 306호 (신도림동,신도림 대림아파트)",126.880714,37.5057794
"대한논리정독학원","서울특별시 구로구 개봉로20길 14   성암빌딩 301호 개봉동",126.8563168,37.4925972
"윈스턴영어학원","서울특별시 구로구 구일로 110   해원리버파크 303호 구로동",126.872004,37.4950273
"난파음악학원","서울특별시 구로구 구로중앙로27길 28-9 2층 구로동",126.8846379,37.498228
"펠릭스학원","서울특별시 구로구 새말로 31  롯데아파트 상가 301호 구로동",126.8841316,37.5032924
"토토빌어학원","서울특별시 구로구 새말로 52  종우빌딩 4층 구로동",126.8863825,37.503429
"엠이케이(M.E.K)학원","서울특별시 금천구 가산로7길 10",126.8924652,37.4756125
"잉글리쉬무무신도림제1학원","서울특별시 구로구 신도림로19길 7 307/308호",126.8844556,37.5111606
"킨더메르헨미술학원","서울특별시 영등포구 영신로 259   호산당빌딩3층 당산동5가",126.9010187,37.5322248
"시매쓰학원","서울특별시 영등포구 당산로44길 3   삼성타운 402호 당산동5가",126.9010058,37.5318988
"허브보습학원","서울특별시 금천구 독산로73길 15   층 독산동",126.9059194,37.4538631
"서전학원","서울특별시 구로구 중앙로15길 65 2,3층 고척동",126.8561334,37.5065224
"케이지씨에이(KGCA)게임아카데미학원","서울특별시 구로구 디지털로26길 61 , 에이스하이엔드타워2차 205호 일부 (구로동,에이스 하이엔드타워Ⅱ)",126.8953389,37.481234
"여의도글로벌통역학원","서울특별시 영등포구 국제금융로6길 33 , 915호 (여의도동,맨하탄빌딩)",126.926893,37.5207606
"잉글리쉬무무대림2보습학원","서울특별시 영등포구 대림로21길 7   4층 대림동",126.9004441,37.4926338
"애플캠퍼스학원","서울특별시 영등포구 도신로4길 19 2,3층 대림동",126.8962707,37.5018161
"드림액트성우학원","서울특별시 영등포구 양산로 126  당산동복합빌딩 3층 당산동1가",126.8982342,37.521711
"이앤유학원","서울특별시 금천구 독산로 205 4층 독산동",126.9021575,37.4651049
"지앤비어학원","서울특별시 영등포구 국회대로37길 19 2,3층 당산동4가",126.9002445,37.5285951
"금동지앤비영어전문학원","서울특별시 금천구 금하로 724-1 , 4층 및 5층 (시흥동)",126.9101249,37.450369
"게임제작학원","서울특별시 구로구 디지털로33길 11   에이스테크노타워8차 206호 구로동",126.8955076,37.4856821
"유니센스일대일영어학원","서울특별시 영등포구 양산로 121 2층 당산동3가",126.9017777,37.5236438
"잉글리쉬무무즐거운학원","서울특별시 구로구 중앙로6길 9 2층",126.8643563,37.5006036
"뮤엠영어학원","서울특별시 영등포구 도신로29길 15 , 4층 (도림동,율산빌딩)",126.9045061,37.5097627
"한국네일미용학원","서울특별시 영등포구 경인로 875-1   3층 영등포동3가",126.9110276,37.5181682
"윤선생영어숲구로학원","서울특별시 구로구 구로중앙로18길 61   아미고빌 201호 구로동",126.8922775,37.4962914
"비바체음악학원","서울특별시 구로구 부일로11길 101 , 3층 (궁동)",126.8308325,37.495679
"꿈꾸는나무미술학원","서울특별시 구로구 오리로17길 70   1층 궁동",126.8287276,37.497676
"맑은소리음악학원","서울특별시 금천구 금하로 657 3층 시흥동",126.9039917,37.4535966
"비상잉글리시아이하이리온학원","서울특별시 구로구 경인로 373   문화골든타워 501호 고척동",126.8625002,37.5011414
"비오비(B.O.B)실용음악학원","서울특별시 구로구 오류로8길 72   3층일부 오류동",126.8441379,37.4925693
"김정화탑(TOP)학원","서울특별시 구로구 신도림로 16 , 301호,305호 (신도림동, 신도림 대림아파트)",126.880714,37.5057794
"동경요리학원","서울특별시 구로구 경인로 544 4층 구로동",126.8791198,37.5030963
"잉클윙클어학원","서울특별시 구로구 가마산로27길 66",126.8901504,37.4995729
"에이플러스(A+)영어수학논술학원","서울특별시 영등포구 여의대방로43라길 6 신길프라자 204호",126.9127556,37.4967644
"인섹시큐리티정보통신학원","서울특별시 금천구 가산디지털1로 137   아이티밸리2차 2001호 일부 가산동",126.8881386,37.4667551
"윤수학학원","서울특별시 구로구 고척로 237  부성빌딩 4층 일부 고척동",126.859307,37.506571
"아이오학원","서울특별시 금천구 디지털로 130 , 1007호 (가산동,남성프라자 (에이스9))",126.8817091,37.4754508
"스킨엔젤스피부미용학원","서울특별시 영등포구 당산로 214 삼성래미안4차아파트상가 301호 당산동5가",126.9030334,37.5319821
"금천정상ACE어학원","서울특별시 금천구 탑골로4길 63 대성빌딩 1,2,3,4층 시흥동",126.9148912,37.450585
"해법수학영어학원","서울특별시 구로구 고척로 208   대흥빌딩 2층 일부 고척동",126.8505394,37.5008461
"서울분석수학학원","서울특별시 구로구 개봉로20길 14   성암빌딩 7층 개봉동",126.8563168,37.4925972
"리틀소시에여의도어학원","서울특별시 영등포구 여의대방로65길 24   호성빌딩 5층 여의도동",126.92917,37.5202896
"교사랑학습관학원","서울특별시 금천구 시흥대로 152 2층 시흥동",126.9036197,37.4477228
"윤선생영어금천학원","서울특별시 금천구 탑골로 5   6층 시흥동",126.9100745,37.4510425
"키즈칼리지영등포어학원","서울특별시 영등포구 문래로 89   문래아카데미Ⅱ 4층 문래동3가",126.8919792,37.5196223
"오목독서실","서울특별시 영등포구 영등포로46길 7 , 3층 일부 (영등포동3가)",126.9078807,37.5184653
"비엠(BM)수학전문학원","서울특별시 구로구 신도림로19길 7 203호 및 407호 일부,408호 신도림동",126.8844556,37.5111606
"대한논리정독구로학원","서울특별시 구로구 경인로59길 8   태영프라자 615호 신도림동",126.8833333,37.5063889
"리더스영어학원","서울특별시 구로구 도림로22길 8  이화우성상가 301호 구로동",126.8938688,37.4897371
"리더스(Leaders')해법학원","서울특별시 구로구 구일로10길 27 , SK허브수 B동 203호 일부 (구로동,SK허브수)",126.8726485,37.4955694
"다니엘학원","서울특별시 영등포구 도신로 75   연만빌딩3층 도림동",126.8960068,37.5094016
"구일정석보습학원","서울특별시 구로구 구일로10길 49   2층 202호 구로동",126.8744343,37.4957011
"양태경실용음악학원","서울특별시 영등포구 국회대로29길 13  유원제일아파트 상가동 2층 1호 당산동4가",126.897591,37.528732
"대한논리정독대림학원","서울특별시 영등포구 시흥대로 649   학성빌딩 301호 대림동",126.90684,37.4899972
"윤선생영어숲구로서부학원","서울특별시 구로구 구일로 110   해원리버파크 603호 구로동",126.872004,37.4950273
"루가(LUKE)학원","서울특별시 구로구 개봉로16길 18   2층 개봉동",126.8571721,37.4899489
"더존비즈(Biz)아카데미학원","서울특별시 영등포구 당산로48길 6 , 3층 일부 (당산동6가, 대호빌딩)",126.9029611,37.5342239
"대성엔(N)신길학원","서울특별시 영등포구 영등포로 364 , 301호 (신길동,대하빌딩)",126.9096998,37.519206
"이엔지파워학원","서울특별시 구로구 오류로 64 , 2층, 3층 (오류동)",126.8407216,37.4902364
"정수도배인테리어필름학원","서울특별시 금천구 시흥대로73길 11 무지개아파트 상가동 406,407호 시흥동",126.8983126,37.456119
"현대예음음악학원","서울특별시 영등포구 선유로 201 6차 상가 302호 양평동3가",126.8935394,37.5317726
"위드유(WITHU)편입학원","서울특별시 영등포구 여의대방로62길 2 , 6층, 7층 (신길동, 봉덕빌딩)",126.9266684,37.5137773
"정인보습학원","서울특별시 영등포구 시흥대로173길 13  신대림자이 110호 대림동",126.9023958,37.4864877
"에스제이(SJ)보습학원","서울특별시 금천구 독산로67길 19 , 2층 (독산동)",126.9015277,37.4648116
"월드용접전문기술학원","서울특별시 영등포구 영신로 29 2,3층 영등포동",126.9079781,37.5140313
"예스(YES)영어정석수학전문학원","서울특별시 구로구 중앙로15길 151 한일유엔아이아파트상가 201호 고척동",126.8512336,37.5079008
"당산리더스해법학원","서울특별시 영등포구 버드나루로 137 , 금복빌딩 3층 (당산동)",126.9070415,37.5303224
"에스오알(SOR)실용음악학원","서울특별시 구로구 고척로 108   4층 개봉동",126.8460957,37.5012195
"열공독서실","서울특별시 영등포구 영등포로84길 16 3,4,5층신길동",126.9216958,37.5118173
"라임센스실용음악학원","서울특별시 영등포구 대림로27가길 10   3층 일부 대림동",126.8988313,37.4958797
"모드디자인컴퓨터학원","서울특별시 영등포구 영중로 5 2,3,4층 영등포동4가",126.9061597,37.5168681
"엘리제피아노학원","서울특별시 구로구 오리로 1303   두산빌딩 2층 궁동",126.8289067,37.5003075
"잉글리쉬무무당산제2학원","서울특별시 영등포구 양평로22길 14 3층 양평동4가",126.8946246,37.5397839
"두산(斗産)아카데미학원","서울특별시 금천구 독산로40길 45   2층 시흥동",126.9068905,37.4609138
"팡스터디학원","서울특별시 영등포구 가마산로79길 7 삼성래미안아파트상가1동 301,302,303,304,305호신길동",126.9191437,37.5046802
"눈높이러닝센터개봉학원","서울특별시 구로구 개봉로3길 59   2층 개봉동",126.852967,37.4860121
"꿈을그리는미술피아노멜로디학원","서울특별시 구로구 고척로 153 2,3층 고척동",126.8507575,37.5032833
"소리샘음악학원","서울특별시 구로구 고척로21나길 42   3층 개봉동",126.8433475,37.502391
"파토스보습학원","서울특별시 영등포구 영중로22길 4 2층 영등포동5가",126.9063208,37.5214829
"랭콘잉글리쉬어학원","서울특별시 영등포구 여의대방로47길 13 , 2,3,4,5층 (신길동)",126.9224495,37.5087985
"윤선생우리집앞영어교실우신보습학원","서울특별시 영등포구 도신로 196   2층 일부 신길동",126.9130417,37.5110334
"올림피아드학원","서울특별시 금천구 가산로 111   동보빌딩 7층 가산동",126.8928971,37.4756
"대한전기학원","서울특별시 영등포구 도영로 20   인수빌딩 2층 도림동",126.8956914,37.5081297
"우선학원","서울특별시 금천구 독산로 125-1   5층 시흥동",126.9048859,37.4585498
"신길해법학원","서울특별시 영등포구 도신로60길 15-2",126.9174383,37.5104818
"눈높이러닝센터개봉현대학원","서울특별시 구로구 개봉로20길 6 상가 303 304 305호 일부",126.8585354,37.4919831
"박은경수학전문학원","서울특별시 구로구 경인로 338   4층 개봉동",126.8519907,37.4906997
"바이크아카데미학원","서울특별시 영등포구 선유로 258 , 4층 일부 (양평동4가, 대일빌딩)",126.8960904,37.5361297
"대지학원","서울특별시 영등포구 당산로38길 1   3층 당산동4가",126.894833,37.529137
"수학답게수학전문학원","서울특별시 영등포구 여의대방로 185   3층 신길동",126.9142009,37.5147906
"박대희영어전문학원","서울특별시 구로구 도림로26길 10   해맑은미소빌딩 7층 구로동",126.8942427,37.4909423
"영어숲고척보습학원","서울특별시 구로구 경인로47길 118   2층 고척동",126.8637262,37.5038232
"클라비어음악학원","서울특별시 구로구 오리로 1265 우신상가203,205호 궁동",126.8295971,37.4946798
"대명학원","서울특별시 금천구 금하로23길 20  건우빌딩 5층 시흥동",126.9088406,37.451992
"덕림학원","서울특별시 구로구 중앙로15길 29   3층 고척동",126.8581456,37.5062959
"금천한우리보습학원","서울특별시 금천구 탑골로 5   7층 시흥동",126.9100745,37.4510425
"수인음악학원","서울특별시 구로구 부일로17길 121   2층 궁동",126.8301689,37.4969929
"한미레파통역학원","서울특별시 영등포구 여의나루로 71   외 2필지 동화빌딩 1204호 여의도동",126.9269202,37.5237336
"아트앤스마트미술학원","서울특별시 영등포구 국제금융로 78  홍우빌딩 807-B호 여의도동",126.9304477,37.5210395
"당산에듀플렉스보습학원","서울특별시 영등포구 당산로44길 3   삼성타운 501호 당산동5가",126.9010058,37.5318988
"스카이(sky)맥학원","서울특별시 영등포구 도림로 229 , 2층 (신길동)",126.9046634,37.4988938
"엠.프렌즈미술학원","서울특별시 구로구 개봉로16가길 10-39 1,2층 개봉동",126.8580968,37.490639
"제이지(JZ)실용음악학원","서울특별시 구로구 경인로65길 44   보미프라자 3층 신도림동",126.8852079,37.509554
"피아체음악학원","서울특별시 구로구 개봉로18길 10   3층 개봉동",126.856545,37.4914746
"매스플러스학원","서울특별시 영등포구 국제금융로 108   2층 여의도동",126.9335346,37.5186998
"와이비엠잉글루영등포제1학원","서울특별시 영등포구 영신로19길 28   연일빌딩 4층 영등포동",126.9049465,37.5135771
"뮤직주음악학원","서울특별시 구로구 경인로 373   문화골든타워 803호 고척동",126.8625002,37.5011414
"눈높이러닝센터신도림학원","서울특별시 구로구 경인로59길 8 태영프라자 418,419호일부 신도림동",126.8833333,37.5063889
"영수옥스포드학원","서울특별시 금천구 독산로50길 89 , 305호,306호 (시흥동, 삼익아파트)",126.909313,37.463268
"솔아전통국악학원","서울특별시 구로구 구로동로42길 60",126.8841862,37.4982543
"젤러스미술학원","서울특별시 구로구 구일로 110 , 501호 (구로동, 해원리버파크)",126.872004,37.4950273
"예원피아노학원","서울특별시 영등포구 여의대방로 417   대교아파트 상가 208호 및 210호 여의도동",126.934114,37.5220672
"유엘에이(U.L.A)우주제2관어학원","서울특별시 구로구 오류로8라길 50 , 4층 (오류동,평강제일교회)",126.8446033,37.4921639
"능률주니어영어전문학원","서울특별시 영등포구 양평로22길 7 , 3층 (양평동5가)",126.894811,37.5391688
"레인보우트레인영어학원","서울특별시 영등포구 가마산로41길 6 4층일부 대림동",126.8986032,37.5017109
"아이비티주니어학원","서울특별시 영등포구 당산로44길 3 , 407호,414호 일부 (당산동5가, 삼성타운)",126.901043,37.5318517
"한국경영혁신학원","서울특별시 영등포구 국제금융로 108   은하빌딩 6층 일부 여의도동",126.9335308,37.5187065
"잉글리쉬무무서울양평제1보습학원","서울특별시 영등포구 선유서로 117   월드프라자 501호 양평동3가",126.8860996,37.5261207
"눈높이러닝센터라온학원","서울특별시 구로구 구일로10길 49   다원그린빌상가 3층302호 구로동",126.8744343,37.4957011
"싸이먼아트센터학원","서울특별시 금천구 가산디지털2로 14 대륭테크노타운 319,320호 가산동",126.8842592,37.4694061
"더탑수학학원","서울특별시 구로구 구일로10길 27   SK허브수상가 B동 201호 구로동",126.8726485,37.4955694
"윤선생영어숲시흥동부학원","서울특별시 금천구 독산로 125-1   2층 시흥동",126.9048859,37.4585498
"하늘독서실","서울특별시 영등포구 도신로 65 , 3층 (도림동)",126.9082493,37.5104035
"반올림음악학원","서울특별시 구로구 고척로21길 49   2층 개봉동",126.8452356,37.5036079
"한솔리더스학원","서울특별시 구로구 구로중앙로14길 7   2층 구로동",126.8911936,37.4931123
"아름다운사람들어드벤스학원","서울특별시 영등포구 영중로 28 점프밀라노10층 1003,1004호 영등포동3가",127.0266055,37.5012103
"눈높이러닝센터큰꿈학원","서울특별시 금천구 독산로 218   창영빌딩 5층 독산동",126.9019986,37.4663108
"푸른소리샘음악학원","서울특별시 구로구 개봉로17라길 21   2층 일부 개봉동",126.8533905,37.4923315
"조이뮤직실용음악학원","서울특별시 구로구 고척로 176 2층 일부 고척동",126.8533055,37.5038838
"흙이랑미술학원","서울특별시 구로구 경인로59길 8   태영프라자 6층 614호 신도림동",126.8833546,37.5063288
"지에스판잉글리쉬어학원","서울특별시 영등포구 영등포로 32 우남푸르미아오피스텔 2층 205,206,207호 양평동2가",126.8846743,37.5226218
"(주)경희커피바리스타학원","서울특별시 영등포구 경인로 863 3,4층 영등포동3가",126.9087565,37.5188374
"영등포리더스간호학원","서울특별시 영등포구 영중로 46 , 3층 (영등포동5가)",126.9054943,37.5223051
"신영학원","서울특별시 구로구 구일로4길 30   신영상가 302호 구로동",126.8764757,37.4918388
"엠퍼스트학원","서울특별시 영등포구 당산로44길 3 , 708호 (당산동5가, 삼성타운)",126.901043,37.5318517
"피아노포르테음악학원","서울특별시 구로구 개봉로16길 37-8 2,3층 개봉동",126.8584187,37.4904367
"대림씨엠피실용음악학원","서울특별시 구로구 가마산로 286   SR친오애주상복합아파트 305호 구로동",126.8921929,37.4965817
"정상독서실","서울특별시 금천구 가산로 96   3층 독산동",126.8943483,37.4744885
"나경아카데미학원","서울특별시 영등포구 디지털로53길 22   4층 일부 대림동",126.9001463,37.492276
"대림통신농업기술학원","서울특별시 영등포구 대림로 153 , 3층일부, 4층일부 (대림동,이충호산부인과)",126.8998125,37.4943478
"한성냉동용접학원","서울특별시 영등포구 경인로112길 8 , 가동2층일부,3층일부,나동전체 (영등포동1가)",126.9137916,37.5178206
"튼튼영어매스터클럽구로보습학원","서울특별시 구로구 도림로 90   혜성빌딩 302호 구로동",126.8933966,37.4904037
"씨앤엘학원","서울특별시 구로구 경인로59길 8 태영프라자 616,617호 신도림동",126.8833333,37.5063889
"팝콘실용음악학원","서울특별시 영등포구 국회대로 553   3층 일부 당산동4가",126.8995556,37.5287389
"스마트(SMART)러닝센터구로학원","서울특별시 구로구 경인로59길 8 태영프라자 514,515호 신도림동",126.8833333,37.5063889
"삼성영어보습학원","서울특별시 영등포구 양평로17길 36 상가 201,202 양평동4가",126.8937775,37.53404
"대림해법학원","서울특별시 영등포구 대림로22길 33   2층 일부 대림동",126.9040319,37.4953595
"코삽스뷰티학원","서울특별시 영등포구 영등포로 256  우성타워 B동 3층 영등포동3가",126.9095609,37.5186783
"썬(SUN)아카데미학원","서울특별시 금천구 가산디지털1로 151   이노플랙스1차 2층 203호 일부 및 204호 가산동",126.8815925,37.4786827
"리더스학원","서울특별시 금천구 독산로74길 14",126.9031073,37.4685683
"하이업보컬학원","서울특별시 영등포구 선유로 276   2층 양평동4가",126.8977259,37.5374477
"에스비씨(SBC)인증원학원","서울특별시 금천구 벚꽃로 254 , 701,702호 (가산동,월드메르디앙벤처센타)",126.8853977,37.4776551
"한국종합기술학원","서울특별시 영등포구 대림로 204 , 문화빌딩 2층 (대림동)",126.898507,37.4986806
"생각의힘보습학원","서울특별시 금천구 시흥대로 150  2층",126.9036523,37.4475844
"스파르타학원","서울특별시 구로구 도림로10길 32 2,3층 구로동",126.8890292,37.48548
"9재(才)학당보습학원","서울특별시 금천구 금하로 749   3층 시흥동",126.9131329,37.4501759
"탑최상위보습학원","서울특별시 영등포구 도림로 281   2층 신길동",126.9036166,37.5028072
"대방고시학원","서울특별시 영등포구 영등포로 422  정오빌딩 6층 일부 신길동",126.924783,37.512256
"신일류수학학원","서울특별시 영등포구 도신로 75 , 연안빌딩 2층 전체 (도림동,연안빌딩)",126.9007565,37.5066241
"대성엔(N)학원","서울특별시 구로구 경인로 619-3 , 210호 (신도림동,신도림3차푸르지오)",126.8840082,37.5068182
"프레이즈라라어학원","서울특별시 구로구 신도림로 20 ",126.8787185,37.5065597
"로맥경영학원","서울특별시 영등포구 여의대방로67길 11   잡지회관 5층 일부 여의도동",126.9302396,37.5197098
"메이저실용음악학원","서울특별시 구로구 구일로 110",126.872004,37.4950273
"루트매쓰(MATH)학원","서울특별시 영등포구 국제금융로 78   홍우빌딩 1009호 여의도동",126.9304477,37.5210395
"한국퀼트학원","서울특별시 금천구 가산디지털2로 115 , 대륭테크노타운 3차 802호 (가산동, 대륭테크노타운Ⅲ)",126.883294,37.470048
"대성건축조경학원","서울특별시 영등포구 도림로41길 11-2 , 2층 (대림동,다우빌딩)",126.8977016,37.4949588
"이화아트패션학원","서울특별시 영등포구 대림로27가길 5 , 3층일부 (대림동, 태안빌딩)",126.8985945,37.4956026
"구로정보기술학원","서울특별시 구로구 디지털로 221 , 1층일부, 2층일부 (가리봉동)",126.8905675,37.4801693
"대림학원","서울특별시 영등포구 도림로 176 , 남영빌딩 4층 5층 (대림동,남영빌딩)",126.899438,37.4955091
"쥬신게임개발학원","서울특별시 구로구 디지털로33길 27 , 211호,1105호 (구로동, 삼성IT밸리)",126.894647,37.486126
"서울부동산경(공)매전문학원","서울특별시 구로구 구로동로 240   6층일부 구로동",126.8826973,37.4999675
"키즈빈미술학원","서울특별시 영등포구 경인로77길 49 리버뷰신안인스빌 109동 201,202,203호 문래동4가",126.8886418,37.5141366
"현대기술학원","서울특별시 영등포구 영신로20길 8 가동2층 나동1층 영등포동",126.908643,37.5150592
"에스이엠(S.E.M)학원","서울특별시 구로구 중앙로14길 27   신도교회빌딩 4층 고척동",126.8628712,37.5072899
"잉글루(engloo)당산제1학원","서울특별시 영등포구 선유로53길 34-9 2층 양평동4가",126.8951788,37.5387565
"한국양조학원","서울특별시 금천구 벚꽃로 244   벽산디지털밸리5차 1306호 일부 가산동",126.8852475,37.4763735
"금천미용전문학원","서울특별시 금천구 시흥대로 183",126.9018762,37.45018
"삼성영어영등포학원","서울특별시 영등포구 여의대방로7길 9 , 4층  (신길동)",126.9127321,37.4972807
"금성전기정보학원","서울특별시 영등포구 가마산로 338 , 4층 일부, 5층 (대림동)",126.8969901,37.4991954
"프리미어학원","서울특별시 구로구 중앙로6길 5-15  청구아파트 상가 2층 고척동",126.8638173,37.5014697
"개봉해법영수학원","서울특별시 구로구 개봉로16길 26   미래빌딩 2층 개봉동",126.8576866,37.4899476
"가리봉기술학원","서울특별시 구로구 구로동로 10 , 4층 전부 (가리봉동,정풍빌딩)",126.887453,37.4827101
"김앤문학원","서울특별시 구로구 구일로10길 27   SK허브수상가 B동 204호 구로동",126.8726485,37.4955694
"한국기술교육학원","서울특별시 영등포구 시흥대로175길 17 , 2층 일부 (대림동)",126.9034459,37.4884169
"램브란트의풍차미술학원","서울특별시 구로구 경인로59길 8   태영프라자 404호 신도림동",126.8833333,37.5063889
"아나인학원","서울특별시 영등포구 국제금융로6길 30   백상빌딩 1002-2 여의도동",126.9265314,37.521706
"더존영어보습학원","서울특별시 금천구 시흥대로26길 6   2층 시흥동",126.9040517,37.4415826
"성진독서실","서울특별시 금천구 독산로 213   3층 독산동",126.9017801,37.4657159
"윌수학학원","서울특별시 구로구 중앙로 65   2층 고척동",126.8617788,37.5033693
"에니스어학원","서울특별시 금천구 가산디지털1로 205 케이씨씨웰츠밸리 203,204호 가산동",126.8796633,37.4838255
"잉글리쉬베이어학원","서울특별시 구로구 경인로59길 8 , 509호,510호,511호 (신도림동)",126.8833546,37.5063288
"삼성영어벽산학원","서울특별시 금천구 금하로 763   벽산아파트 상가 1-308 시흥동",126.918124,37.4520061
"뉴중앙컴퓨터학원","서울특별시 금천구 시흥대로39길 16   한영상가 가-202 시흥동",126.9015412,37.4432532
"강한영수학원","서울특별시 구로구 구로중앙로28길 65   3층일부 구로동",126.8888995,37.5004144
"한솔학원","서울특별시 금천구 시흥대로26길 11 , 2층 (시흥동, 백운한비치3차)",126.9045843,37.4421056
"눈높이러닝센터시흥드림학원","서울특별시 금천구 독산로 123   2층 시흥동",126.9050617,37.4581964
"플라톤아카데미학원","서울특별시 영등포구 영신로57길 1 한강아파트상가동 301~304호 당산동4가",126.9028354,37.5279732
"멘토아카데미학원","서울특별시 영등포구 국제금융로 78 홍우빌딩 907.914호 여의도동",126.9312481,37.5208907
"시매쓰수학학원","서울특별시 구로구 경인로59길 8 , 403호,712호 (신도림동)",126.8833546,37.5063288
"세스토킹클래스(CEStalkingclass)학원","서울특별시 구로구 오류로8길 16  세명프라자 205호 오류동",126.8415035,37.4909334
"튼튼영어마스터클럽양평동5가학원","서울특별시 영등포구 양평로24길 12 , 3층 (양평동5가)",126.8921551,37.5400997
"베스티안학원","서울특별시 구로구 개봉로 55 , 홍인빌딩 3층,4층 (개봉동,홍인빌딩)",126.855681,37.4905174
"엘리트여의도어학원","서울특별시 영등포구 국제금융로 78 , 1101호,1102호,1103호 (여의도동,홍우빌딩)",126.9304477,37.5210395
"최강명진학원","서울특별시 금천구 독산로 192 , 3층 (독산동,독산2동새마을금고)",126.8971468,37.4716839
"모아수학전문학원","서울특별시 영등포구 여의대방로 55  신길프라자 3층 일부",126.9127556,37.4967644
"서울예원실용음악학원","서울특별시 영등포구 선유로 258 두정빌딩 4층 401,404호 양평동4가",126.8977378,37.535334
"레알편입학원","서울특별시 영등포구 영중로 140 , 드림프라자 301호 (영등포동8가,드림프라자)",126.905394,37.5283387
"요미요미신도림학원","서울특별시 구로구 경인로59길 8 태영프라자 416,417호 신도림동",126.8833333,37.5063889
"한솔브레인신도림학원","서울특별시 구로구 경인로59길 8 태영프라자 401,402호 신도림동",126.8833333,37.5063889
"탑플러스(Top+)보습학원","서울특별시 영등포구 선유로 63 , 305호 (문래동6가, EEU동신타워)",126.889059,37.519705
"프라임플러스학원","서울특별시 구로구 개봉로 53   3층 개봉동",126.8557265,37.4903485
"베스트독서실","서울특별시 구로구 신도림로 20  3층 302호",126.8787185,37.5065597
"뮤직스토리음악학원","서울특별시 구로구 새말로 85  방주빌딩 201,202호",126.889328,37.505312
"임마누엘뮤직아카데미실용음악학원","서울특별시 구로구 개봉로16길 17   2층 3층 개봉동",126.8572158,37.4901214
"매스튜터수학학원","서울특별시 구로구 오류로 54-3   3층 오류동",126.8402246,37.489763
"윤선생영어숲영등포서부점학원","서울특별시 영등포구 도신로29아길 7   2층 영등포동",126.9060434,37.5093352
"와이비엠(YBM)잉글루문래1학원","서울특별시 영등포구 선유로 33  문래대림아파트 상가 101동 101호 문래동5가",126.8882297,37.5169004
"뿌앙발레학원","서울특별시 영등포구 여의대방로 386   진주상가 504호 여의도동",126.9319198,37.5188731
"참학원","서울특별시 구로구 고척로60길 30 벽산블루밍아파트 상가 201,202호 고척동",126.8644826,37.495597
"대림동포기술학원","서울특별시 영등포구 도림로 126 , 3층,4층 (대림동,풍림빌딩)",126.8964518,37.4923757
"개봉역스터디센터프라임독서실","서울특별시 구로구 개봉로20길 6  현대훼미리아파트 상가제2동401호 개봉동",126.8600665,37.4919863
"으뜸학원","서울특별시 구로구 오리로 1304 , 4층 (궁동,우진빌딩)",126.8293749,37.497735
"예가직업전문기술학원","서울특별시 금천구 시흥대로57길 35 2층 201,202호 시흥동",126.8999748,37.4537584
"아담리즈구로학원","서울특별시 구로구 경인로59길 8 ,  태영프라자 516호,507호 (신도림동)",126.8833546,37.5063288
"엠케이(MK)피부미용학원","서울특별시 영등포구 국회대로38길 8   5층 당산동3가",126.898784,37.526261
"생각하는수학페르마박정어학원","서울특별시 금천구 시흥대로 164   153플레이스빌딩 5층 시흥동",126.903246,37.4488601
"김기남방송영상직업전문학원","서울특별시 영등포구 영신로17길 3 , 3층, 4층일부 (영등포동)",126.9076751,37.5141033
"시흥주니퍼실용음악학원","서울특별시 금천구 시흥대로 187   5층 시흥동",126.9017306,37.4504751
"가우스학원","서울특별시 구로구 오류로8길 6 3층 오류동",126.8409229,37.4907466
"스마트덴탈학원","서울특별시 영등포구 영등포로 347   한독타워 15층",126.9177052,37.515421
"신올림피아드학원","서울특별시 구로구 경인로 643  신도림동아2차아파트 상가205동210호 신도림동",126.886564,37.508698
"소울보이스보컬학원","서울특별시 구로구 경인로59길 8   태영프라자 409호 신도림동",126.8833333,37.5063889
"쑥쑥리더스영어학원","서울특별시 구로구 도림로 72   3층 구로동",126.8916581,37.4893062
"베스트배관용접학원","서울특별시 영등포구 도신로 238  2층",126.9176054,37.5123845
"서울기술학원","서울특별시 금천구 금하로 611 , 3층 (시흥동, 금성빌딩)",126.8993428,37.4544128
"잉글리쉬무무당산제1학원","서울특별시 영등포구 당산로44길 3   삼성타운 312호 당산동5가",126.9010058,37.5318988
"솔루션공과전자학원","서울특별시 금천구 가산디지털2로 108   뉴티캐슬 204호 가산동",126.8806482,37.4778772
"눈높이러닝센터시흥벽산학원","서울특별시 금천구 탑골로4길 63 5,6층 시흥동",126.9148912,37.450585
"눈높이러닝센터대림큰숲학원","서울특별시 영등포구 대림로 231   2층 대림동",126.8967579,37.5011431
"자연국악학원","서울특별시 금천구 독산로 3   가동 2층 시흥동",126.9035623,37.4487134
"우등생보습학원","서울특별시 금천구 한내로 69-15  1317동 203호독산동 주공13단지아파트",126.8870458,37.4578101
"잉글리쉬파크보습학원","서울특별시 금천구 시흥대로39길 11   201호 시흥동",126.9025378,37.4468946
"예스(YES)영어전문학원","서울특별시 구로구 고척로 49 , 214호,215호,216호 (오류동,동부골든아파트)",126.839596,37.4993461
"브라이튼어학원","서울특별시 영등포구 선유동2로 13 , 4층,5층 (양평동3가, 청구빌딩)",126.8948451,37.5303891
"한국아동청소년코칭학원","서울특별시 영등포구 도신로 181   성지빌딩 4층 신길동",126.9113665,37.5110959
"창조적소수학원","서울특별시 금천구 시흥대로90길 32 (독산동)",126.8997017,37.4617499
"당산정이조영어학원","서울특별시 영등포구 당산로44길 3 , 212호,213호 (당산동5가, 삼성타운)",126.901043,37.531852
"푸른독서실","서울특별시 영등포구 도신로29아길 7 (영등포동)",126.9033992,37.5101712
"자연음악학원","서울특별시 금천구 시흥대로 165 (시흥동)",126.9011945,37.4477976
"뮤엠영어신도림학원","서울특별시 구로구 경인로59길 8 , 604호 일부 (신도림동)",126.8833546,37.5063288
"굿커피바리스타학원","서울특별시 영등포구 당산로30길 8 , 3층 (당산동3가,영삼빌딩)",126.8973952,37.5253717
"헤파수학영어전문학원","서울특별시 구로구 부일로11길 40 , 1,2층 (궁동)",126.8313305,37.4949473
"와이즈독서실","서울특별시 영등포구 양평로 114 , 2층 (양평동4가)",126.8943019,37.537832
"두드림학원","서울특별시 구로구 경인로 619-3 ,  205호 (신도림동,신도림3차푸르지오)",126.8840082,37.5068182
"포도나무독서실","서울특별시 구로구 가마산로 286 , 301,302호 (구로동,SR 친오애 주상복합 아파트)",126.8921929,37.4965817
"유엘에이(ULA)우주어학원","서울특별시 구로구 오류로8라길 50 , 2층 일부 (오류동,평강제일교회)",126.8446033,37.4921639
"씨엘에스(CLS)어학원","서울특별시 영등포구 국제금융로 79 , 2층 (여의도동)",126.9324988,37.5212881
"헤세드영어학원","서울특별시 영등포구 신길로 18 , 3층 (신길동,중원상가)",126.9090841,37.4943088
"서울건설기능학원","서울특별시 영등포구 양산로 34 , 3층 (양평동1가)",126.8915658,37.5210957
"신도림정이조영어학원","서울특별시 구로구 경인로65길 44 , 보미프라자상가 503,507,509호 (신도림동,보미플라자)",126.8850358,37.5094846
"이스트만음악학원","서울특별시 영등포구 양평로22길 16 , 401호 (양평동4가)",126.8946246,37.5397839
"와이키즈신도림학원","서울특별시 구로구 신도림로 20 , 2층 (신도림동)",126.8787185,37.5065597
"전문고대영어학원","서울특별시 구로구 고척로 196 , 2층 (고척동)",126.855137,37.5045242
"엘피스영어수학전문학원","서울특별시 구로구 고척로6길 29 , 3층 (오류동)",126.8405917,37.4969569
"베캠에듀학원","서울특별시 구로구 경인로65길 44 , 보미프라자 403,405호 (신도림동,보미플라자)",126.8850358,37.5094846
"눈높이러닝센터신길우신학원","서울특별시 영등포구 도신로48길 9-2 , 2층 (신길동)",126.9132577,37.5101758
"하이김샘학원","서울특별시 영등포구 영신로 238 , 501호,502호,503호,504호 (영등포동8가,미소로)",126.9042,37.5285937
"지성의숲학원","서울특별시 금천구 독산로 31 , 2층,3층,4층,5층 (시흥동,금양빌딩)",126.9055749,37.450126
"하늘교육문래학원","서울특별시 영등포구 문래로 79-17 , (3층) (문래동3가)",126.8906855,37.5205009
"조은독서실","서울특별시 금천구 시흥대로39길 16 , 1필지 2층1호,5호 (시흥동,한영상가(나동))",126.9022997,37.4472582
"메타에스(S)코드학원","서울특별시 구로구 구일로10길 49 , 2,3층 (구로동, 다원그린빌)",126.8744343,37.4957011
"눈높이러닝센터남구로학원","서울특별시 구로구 디지털로31길 86 , 2층 202.207 (구로동,삼성래미안아파트)",126.8919801,37.4875707
"지편전실내건축실용학원","서울특별시 영등포구 경인로 827-1 , 2층 (영등포동4가,영인빌딩)",126.9048392,37.5159841
"지오실용음악학원","서울특별시 구로구 경인로 340-1 , 2층 (개봉동)",126.8529688,37.4911426
"김영피부미용학원","서울특별시 구로구 도림천로 336-1 , 101호, 하나세인스톤V (구로동)",126.8919242,37.5005413
"더(The)학원","서울특별시 영등포구 여의대방로 185 , 4층 (신길동)",126.9138285,37.5146556
"온수이(e)그리니학원","서울특별시 구로구 부일로9길 133 , 온수빌리브 205호 (온수동,온수 빌리브)",126.8221836,37.4968568
"세영학원","서울특별시 영등포구 당산로44길 3 , 삼성타운 206호 (당산동5가,삼성타운)",126.9010058,37.5318988
"에스클래스수학학원","서울특별시 구로구 신도림로 16 , 신도림대림아파트주상가동 308호 (신도림동,신도림 대림아파트)",126.880714,37.5057794
"신소라음악학원","서울특별시 금천구 금하로1길 97 , 2층 (독산동)",126.8893207,37.453939
"구로건설종합학원","서울특별시 구로구 구로동로 159 , 3층 일부 (구로동)",126.8831909,37.4927179
"서울영화연기연출학원","서울특별시 영등포구 영등포로 422 , 4층1호,2호,3호일부 (신길동)",126.9247831,37.5122564
"소리엘음악학원","서울특별시 금천구 금하로23길 24 , 2층 (시흥동,로얄빌딩)",126.9088002,37.4522024
"줄리어드음악학원","서울특별시 금천구 시흥대로39길 46 , 2층 (시흥동)",126.9025354,37.4376201
"삼성영어수학학원","서울특별시 구로구 천왕로 32 , 천왕에이스프라자 406호,502호 (천왕동)",126.8397876,37.4805808
"지민전산회계학원","서울특별시 금천구 시흥대로 351 , 2층 203호 (독산동,류성빌딩)",126.8971198,37.4649165
"상아탑학원","서울특별시 구로구 천왕로 32 , 천왕에이스프라자 503-506호 (천왕동)",126.8397876,37.4805808
"뮤직엣지음악학원","서울특별시 구로구 오리로3길 3 , 천왕도시개발지구 C-4,C-4.5 에이스프라자 403,404호 (천왕동)",126.838681,37.486686
"예림인테리어목공목조주택학원","서울특별시 구로구 경인로 22 , 2층 (오류동,지평회관)",126.8358268,37.4890476
"코끼리미술가방미술학원","서울특별시 영등포구 선유로 63 (문래동6가,EEU동신타워)",126.889059,37.519705
"대원위험물기술학원","서울특별시 영등포구 당산로 163 , 402호 (당산동4가,보라빌딩)",126.8978117,37.5291491
"천명학원","서울특별시 영등포구 영등포로 33 , 201호 (양평동2가,목동비즈타워)",126.885202,37.523344
"국가대표뮤직랩학원","서울특별시 영등포구 신길로38길 3-7 , 1층 (신길동)",126.9114811,37.5064129
"미래기술학원","서울특별시 영등포구 경인로 727 , 4층 일부 (문래동2가)",126.8926425,37.512853
"스마트컴퓨터디자인학원","서울특별시 영등포구 당산로 233 , 701호 (당산동6가,홍익빌딩)",126.9019848,37.5345203
"나인플러스전자설계교육학원","서울특별시 금천구 가산디지털1로 84 , 201호 (가산동,에이스하이엔드타워8)",126.8854431,37.4733398
"대영멘토학원","서울특별시 금천구 시흥대로 165 , 남서울힐스테이트1단지상가 3층(304,305,306호) (시흥동)",126.9030028,37.4470881
"심해하이츠수학전문학원","서울특별시 구로구 천왕로 36 , 천왕센타프라자 405호,406호 (천왕동)",126.8621767,37.5155945
"미래의직업기술학원","서울특별시 영등포구 신풍로 46 , 3층일부 및 4층 (신길동)",126.9110152,37.4998635
"에스비(SB)발레아카데미학원","서울특별시 영등포구 국제금융로 78 , 홍우빌딩 808-A호 (여의도동)",126.9312481,37.5208907
"오르다보습학원","서울특별시 영등포구 도림로 190 , 4층 (대림동)",126.8996734,37.4930609
"일드림학원","서울특별시 구로구 디지털로27길 127 , 4층 일부 (가리봉동)",126.8870975,37.4846716
"드림스온에듀원격학원","서울특별시 영등포구 선유동2로 13 , 6층, 청구빌딩 (양평동3가)",126.8948451,37.5303891
"에코스터디원격학원","서울특별시 금천구 가마산로 96 , 212호 일부 (가산동, 대륭테크노타운8)",126.876932,37.484936
"전문가.집단학원","서울특별시 구로구 구로중앙로18길 68 , 상가 3층 2호 (구로동,현대아파트)",126.8930076,37.496153
"아뜰리에뷰티아카데미미용학원","서울특별시 영등포구 영중로 46 , 홍익빌딩5층 (영등포동5가)",126.9054468,37.5223037
"크레용펀키즈어학원","서울특별시 영등포구 여의대방로39길 12 , 1층,2층 (신길동)",126.9201165,37.5035142
"더엠실용음악학원","서울특별시 구로구 천왕로 106 , 106 골드프라자 701호 702호 (천왕동)",126.838681,37.486686
"에스피어학원","서울특별시 구로구 고척로6길 63 , 2층 (오류동)",126.8410256,37.4953672
"맑은소리스피치학원","서울특별시 영등포구 양평로 59 , 601호 (당산동5가)",126.9010187,37.5322248
"봉플러스(Bong+)학원","서울특별시 금천구 시흥대로 196 , 6층 일부 (시흥동,세진빌딩)",126.9022284,37.4513655
"한국게임개발교육학원","서울특별시 구로구 디지털로 242 , 604호 (구로동,한화비즈메트로1차)",126.8926653,37.4808224
"천왕이용학원","서울특별시 구로구 오리로 1154-7 (오류동)",126.8387982,37.4875288
"세레니티커피아카데미학원","서울특별시 영등포구 당산로 163 , 302호 (당산동4가,보라빌딩)",126.8978117,37.5291491
"인스티브이금융보험학원","서울특별시 금천구 서부샛길 606 , 대성D-POLIS 지식산업센터 215호,216호,217-1호 (가산동)",126.8771363,37.4803245
"현(弦)스카이학원","서울특별시 구로구 오리로 1289 , 4층 (궁동, 신성교회)",126.8913131,37.503291
"대림요리전문학원","서울특별시 영등포구 대림로 199 , 2층 일부 (대림동,건용빌딩)",126.8978959,37.4985139
"씨엔에스(CNS)피부미용학원","서울특별시 영등포구 대림로 170 , 7층 (대림동,세종빌딩)",126.9733032,37.5717841
"비상독서실","서울특별시 구로구 오류로 47 , 3,4층 일부 (오류동,오남빌딩)",126.8394134,37.4889838
"해피뮤직실용음악학원","서울특별시 구로구 고척로22길 16 , 1층일부,3층일부 (개봉동)",126.8465762,37.5007133
"수담학원","서울특별시 구로구 개봉로16길 26 , 3층 (개봉동,미래빌딩)",126.8576866,37.4899476
"쎈학원","서울특별시 구로구 구로중앙로14길 33 , 3층 일부 (구로동)",126.8923254,37.493814
"에이치앤제이형설학원","서울특별시 구로구 새말로 85 , 3층  (구로동)",126.889328,37.505312
"아이넷사이버스쿨원격학원","서울특별시 영등포구 가마산로34길 3 , 3층 (대림동,우성빌딩)",126.8964516,37.4985417
"데이터베이스전문학원","서울특별시 영등포구 국회대로62길 14 , 303호 (여의도동,한국스카웃연맹)",126.9164767,37.5266497
"훈스커피랩학원","서울특별시 금천구 가산디지털1로 2 , 904호 (가산동,우림라이온스밸리 2차)",126.88837,37.4668787
"이이영어전문학원","서울특별시 구로구 천왕로 36 , 천왕센타프라자 502호 (천왕동)",126.8621767,37.5155945
"M2S(엠투에스)보이스연기학원","서울특별시 영등포구 국회대로62길 5 (여의도동)",126.9162694,37.5278044
"커피베이(COFFEEBAY)학원","서울특별시 금천구 벚꽃로 254 , 201-2호 (가산동,월드메르디앙벤처센타)",126.8853977,37.4776551
"일신성심관학원","서울특별시 영등포구 선유동2로 13 , 2층 (양평동3가, 청구빌딩)",126.8948599,37.5303762
"튼튼영어마스터클럽개봉학원","서울특별시 구로구 개봉로16길 19 , 2층 (개봉동)",126.8573198,37.4901242
"에쓰엠씨아카데미미용학원","서울특별시 영등포구 대림로23길 30-1 , 골드타워 5층 6층 (대림동)",126.8975903,37.4926027
"제시써니영어학원","서울특별시 금천구 범안로17길 9 , 한아마인드아파트 406호 (독산동,한아마인드아파트)",126.8941194,37.4670177
"스카이라인학원","서울특별시 영등포구 영중로 145 , 109호, 210호 (영등포동8가,영등포삼환아파트)",126.9050055,37.5294269
"아이수박씨원격학원","서울특별시 구로구 디지털로33길 48 , 대륭포스트타워7차 2001호,2010호 (구로동)",126.8946188,37.4872097
"수박씨닷컴원격학원","서울특별시 구로구 디지털로33길 48 , 대륭포스트타워 7차 2001호,2010호 (구로동)",126.8946188,37.4872097
"케이메카학원","서울특별시 구로구 공원로6가길 52 , 정진빌딩3층 (구로동,정진빌딩)",126.8900917,37.5036144
"대원정보통신학원","서울특별시 구로구 구로동로 104 , 3층  (구로동)",126.8849636,37.4878808
"탑스타연기학원","서울특별시 영등포구 국제금융로 78 , 홍우빌딩 908호 (여의도동)",126.9304477,37.5210395
"행복한제빵학원","서울특별시 영등포구 대림로33길 4 , 3층 (대림동)",126.8979626,37.4978953
"기백학원","서울특별시 구로구 구일로 110 ,  해원리버파트 602호 (구로동,해원리버파크)",126.872004,37.4950273
"중앙애견미용학원","서울특별시 영등포구 경인로114가길 11 , 창방아파트 102동 2층 (영등포동1가,창방아파트)",126.9142827,37.5173175
"한국바리스타학원","서울특별시 영등포구 영중로 36 , 3층 (영등포동3가)",126.9080863,37.5190286
"김사랑여의도밸리댄스학원","서울특별시 영등포구 여의대방로65길 12 , 에리트빌딩803호,807호 (여의도동)",126.9300311,37.5195675
"세종독서실","서울특별시 구로구 고척로21나길 85-6 , 건영아파트상가 201호, 301호 (개봉동,건영아파트)",126.8408736,37.5010959
"한성교육센터학원","서울특별시 영등포구 대림로 154 , 3층 일부 (대림동,기영빌딩)",126.9003402,37.4947366
"이지영수전문학원","서울특별시 구로구 개봉로11길 35 , 2층 (개봉동)",126.8560377,37.4866248
"우리미술학원","서울특별시 구로구 구로중앙로7길 28 , 극동상가 302호 (구로동,극동아파트)",126.8896192,37.491098
"한신입시미술학원","서울특별시 금천구 한내로 62 , 3층 (독산동,한신아파트)",126.8894257,37.455519
"보광엘리트학원","서울특별시 금천구 독산로80길 24 ,  1층 2층 (독산동)",126.904323,37.4707078
"꿈틀에듀원격학원","서울특별시 영등포구 당산로50길 3 , 2층 (당산동6가,꿈을담는틀)",126.9034587,37.5349304
"목동유앤아이학원","서울특별시 구로구 도림로23길 2 , 5층 (구로동)",126.8935757,37.4910839
"오라클자바커뮤니티학원","서울특별시 구로구 디지털로32가길 16 , 301호 (구로동,파트너스타워 2차)",126.898563,37.4827936
"아베바학원","서울특별시 구로구 천왕로 36 , 천왕센타프라자404호 (천왕동)",126.8621767,37.5155945
"성미학원","서울특별시 금천구 시흥대로39길 46 , 3층 (시흥동)",126.9025354,37.4376201
"한국직업전문학원","서울특별시 영등포구 대림로 146 , 2층 (대림동)",126.9007627,37.4941172
"일류학원","서울특별시 금천구 문성로 43 , 4층",126.9083461,37.4769479
"오라클자바교육학원","서울특별시 구로구 디지털로33길 11 , 에이스테크노타워8차 1405호 (구로동,에이스 테크노타워8)",126.8955076,37.4856821
"이지아카데미학원","서울특별시 구로구 구로동로42길 69 , 2층 (구로동)",126.8839006,37.4986751
"국제비즈니스교육학원","서울특별시 구로구 구로동로 126 , 5층 (구로동)",126.8844769,37.4897386
"한샘학원","서울특별시 영등포구 도신로 115 , 3층 (도림동,명신빌딩)",126.8970956,37.5049566
"이청솔학원","서울특별시 영등포구 도신로 115 , 2층 (도림동,명신빌딩)",126.8986032,37.5017109
"케이지아이티뱅크구로점학원","서울특별시 금천구 벚꽃로 244 ,  벽산디지털밸리5차 212,213,214호 (가산동,벽산디지털밸리V)",126.8852475,37.4763735
"씽크빅학습센터금천학원","서울특별시 금천구 독산로65길 8 , 3층 (독산동)",126.9022274,37.4644243
"온사진연구원사진학원","서울특별시 금천구 시흥대로 155 , 227호,229호 (시흥동)",126.9025746,37.4479384
"진요리학원","서울특별시 영등포구 대림로27가길 10 , 2층 (대림동)",126.8988313,37.4958797
"신도림뷰티아카데미학원","서울특별시 구로구 새말로18길 39 , 지상1층일부 (구로동)",126.8922812,37.5035555
"한국텔레마케팅학원","서울특별시 영등포구 선유로 59 , 문래아카데미 702호 (문래동6가,문래 아카데미)",126.8919792,37.5196223
"대림정보기기전문학원","서울특별시 구로구 도림로 104 ,  일진빌딩 4층 (구로동,일진빌딩)",126.8944814,37.4911677
"이종란메이크업예술학원","서울특별시 영등포구 영등포로37길 5 , 3층,4층일부 (영등포동5가)",126.9053157,37.5207455
"대한법률학원","서울특별시 영등포구 경인로 727 , 3층일부 (문래동2가,종도빌딩)",126.8943959,37.5124288
"수풀림학원","서울특별시 구로구 개봉로3길 84 , 2층 (개봉동)",126.8515622,37.4861894
"유디티(UDT)대입전문학원","서울특별시 구로구 중앙로 34 , 3층 (고척동)",126.8636585,37.5010546
"이놀실용음악학원","서울특별시 금천구 금하로 724-1 , 3층 (시흥동)",126.9100115,37.450395
"김도규수학학원","서울특별시 금천구 시흥대로 204 , 성보빌딩6층 일부 (시흥동,성보빌딩)",126.9018852,37.4521867
"메가플러스(MEGA+)학원","서울특별시 영등포구 국제금융로 78 , 홍우빌딩 803호일부, 804호 (여의도동)",126.9312481,37.5208907
"위버지니어스학원","서울특별시 영등포구 국제금융로6길 26 , 한국노총 11층일부 (여의도동,한국노총중앙근로자복지센타)",126.9269466,37.521919
"위너스보습학원","서울특별시 구로구 천왕로 36 , 센타프라자 603호,604호 (천왕동)",126.8621767,37.5155945
"인(IN)해법수학영어학원","서울특별시 구로구 신도림로19길 7 , 성광빌딩 407-1호,408호 (신도림동,성광빌딩)",126.8845635,37.5112343
"이솝에듀케어학원","서울특별시 구로구 경인로59길 8 ,  태영프라자 410호 (신도림동)",126.8833333,37.5063889
"대치영어전문학원","서울특별시 구로구 개봉로 68 , 4층 (개봉동)",126.8562654,37.4917152
"김재민영어학원","서울특별시 구로구 개봉로18길 16 , 3층 (개봉동)",126.8565551,37.4871749
"씨엠스타학원","서울특별시 구로구 새말로 97 , 6층 54~57호, 294~297호,314~317호, 336~339호,366~369호 (구로동,신도림테크노마트)",126.8902185,37.5070431
"서울실내건축학원","서울특별시 영등포구 영등포로 225 , 307,307A호,315호 (영등포동5가)",126.9066395,37.519882
"목동2관정상어학원","서울특별시 구로구 경인로 397 , 골든타워빌딩 2층 일부 (고척동,골든타워빌딩)",126.9646376,37.5637294
"윤선생우리집앞 영어교실대림스마트학원","서울특별시 영등포구 도신로 32 , 성원아파트상가동 301,302,303호 (대림동,성원아파트)",126.8966459,37.5039854
"파워학원","서울특별시 영등포구 도림로 213 , 2층, 3층 (신길동)",126.903701,37.4975775
"상록학우회학원","서울특별시 영등포구 영신로40길 15 , 2층 (영등포동6가,거양빌딩)",126.9029781,37.5213445
"아이팰리딩클럽학원","서울특별시 영등포구 당산로44길 3 , 301호, 302호 (당산동5가,삼성타운)",126.9010058,37.5318988
"미술로생각하기학원","서울특별시 영등포구 당산로44길 3 , 삼성타운 607호 (당산동5가,삼성타운)",126.9010058,37.5318988
"케임브리지어학원","서울특별시 금천구 가산로 111 , 동보빌딩 4층 (가산동,동보빌딩)",126.8928971,37.4756
"씽씽중국어학원","서울특별시 영등포구 여의대방로65길 12 , 엘리트빌딩 701호,702호 (여의도동)",126.9300084,37.5195806
"한양패션전문학원","서울특별시 구로구 가마산로27길 14 , 8층일부 (구로동, 씨큐어넷빌딩)",126.891841,37.4976806
"성원수학영어전문학원","서울특별시 영등포구 국회대로37길 23 , 범우빌딩 3층 (당산동4가)",126.9003948,37.5288158
"제이 앤 수(J&Su)영어학원","서울특별시 구로구 중앙로14길 31 , 신성빌딩 3층 일부 (고척동,신성빌딩)",126.8293471,37.4965407
"아이맥학원","서울특별시 구로구 오리로 1290 , 2층 (궁동,삼덕빌딩)",126.829736,37.4967074
"파티럽학원","서울특별시 영등포구 당산로38길 13-4 , 3층 (당산동4가)",126.899914,37.5287587
"신대방페르마수학학원","서울특별시 영등포구 여의대방로7길 13 , 하송빌딩3층일부 (신길동)",126.9127008,37.4975687
"홍익공감미술학원","서울특별시 구로구 신도림로19길 7 , 성광빌딩 3층 305,306호 (신도림동,성광빌딩)",126.8845635,37.5112343
"케이디비(KDB)미용학원","서울특별시 구로구 구로동로47길 20 ,  3층일부 (구로동,삼정빌딩)",126.8812864,37.4982359
"문래뮤엠영어학원","서울특별시 영등포구 문래로 89 ,  2층 201회 (문래동3가,문래비즈타워)",126.8919362,37.5196161
"투탑학원","서울특별시 금천구 시흥대로 196 , 4층 402호 (시흥동, 세진빌딩)",126.9022284,37.4513655
"뉴하이탑독서실","서울특별시 구로구 고척로 228-6 , 6층 (고척동,종만빌딩)",126.8582376,37.5057472
"이(e)해법영어수학학원","서울특별시 구로구 천왕로 36 , 401호일부 (천왕동)",126.8415075,37.4803813
"에이비스영어학원","서울특별시 영등포구 당산로44길 3 , 삼성타운 706호 (당산동5가,삼성타운)",126.9010058,37.5318988
"뮤즈음악학원","서울특별시 구로구 천왕로 36 , 천왕센타프라자 402호 (천왕동)",126.8621767,37.5155945
"금장버섯학원","서울특별시 영등포구 도림로41길 11-10 , 2층 (대림동, 우경빌딩)",126.8972294,37.494681
"와이즈리더영어독서전문학원","서울특별시 구로구 경인로 619-3 , 213호 (신도림동,신도림3차푸르지오)",126.8840082,37.5068182
"공잘원보습학원","서울특별시 영등포구 대림로35나길 12 , 2층 (대림동)",126.8971347,37.4976686
"지니어스학원","서울특별시 금천구 금하로 760-1 , 4층 (시흥동)",126.914181,37.4498369
"라임스터디원격학원","서울특별시 영등포구 국회대로62길 21 , 동성빌딩6층 일부 (여의도동,동성빌딩)",126.9171988,37.5266775
"눈높이러닝센터문래학원","서울특별시 영등포구 문래로 79-4 , 5층 일부 (문래동3가, 태양프라자)",126.8909564,37.5197754
"떼뜨슐레어학원","서울특별시 구로구 경인로 661 , 504호 (신도림동,신도림1차푸르지오)",126.8876466,37.5094291
"이현호의해피가곡성악학원","서울특별시 구로구 중앙로 67 , 2층 (고척동)",126.8616532,37.5035194
"고척영수전문보습학원","서울특별시 구로구 고척로52길 48 , 303호,305호 (고척동,고척대우아파트상가)",126.8554,37.5029571
"수학의고수학원","서울특별시 영등포구 영신로19길 32-2 , 2층 (영등포동)",126.9045919,37.5134602
"탑텐잉글리쉬학원","서울특별시 구로구 새말로9길 45 , 3호,4호,7호 (구로동,신도림현대아파트상가)",126.8860358,37.504874
"조셉영어학원","서울특별시 금천구 시흥대로 204 , 6층 (시흥동,성보빌딩)",126.9018852,37.4521867
"엔케이(NK)트레이닝센터학원","서울특별시 영등포구 여의대방로65길 6 , 7층 (여의도동,센터빌딩)",126.930476,37.519151
"헤리티지(Heritage)음악학원","서울특별시 영등포구 당산로31길 24 , 2층 (당산동3가)",126.8973226,37.524105
"나무빛미술학원","서울특별시 구로구 디지털로31길 86 , 114호,210호 (구로동)",126.8918232,37.4876957
"아이두영수전문학원","서울특별시 영등포구 양평로20길 17 , 2층 (양평동4가)",126.8960914,37.5359298
"디딤돌탑(TOP)학원","서울특별시 영등포구 신길로 14 , 1층 (신길동,홍림빌딩)",126.9092561,37.4939036
"씨에이피부미용남성전문학원","서울특별시 구로구 도림로 104 , 3층 일부 (구로동,일진빌딩)",126.8943132,37.4910703
"씨이오창조인재개발학원","서울특별시 금천구 디지털로9길 33 , 306호 (가산동,IT 미래 TOWER)",126.8860088,37.4788772
"씽크벨(ThinkBell)학원","서울특별시 영등포구 영중로 145 , 상가동 201호 (영등포동8가,영등포삼환아파트)",126.9050055,37.5294269
"정재헌요리학원","서울특별시 영등포구 도림로41길 9 , 3층 일부 (대림동,청파빌딩)",126.8977835,37.4947724
"문래엠에이(M.A)실용음악학원","서울특별시 영등포구 문래로 98 , 402호 (문래동3가,한영빌딩)",126.892757,37.5192057
"아트만미술학원","서울특별시 구로구 천왕로 36 , 천왕센타프라자 205호 (천왕동)",126.8621767,37.5155945
"솔렉스어학원","서울특별시 구로구 경인로 403 , 원메디타운-A 602호 (고척동)",126.8625002,37.5011414
"김샘학원","서울특별시 영등포구 영신로 238 , 505호~509호 (영등포동8가,미소로)",126.9042,37.5285937
"이레이어시스템학원","서울특별시 금천구 디지털로9길 33 , 305호 (가산동,IT 미래 TOWER)",126.8860088,37.4788772
"슈테른음악학원","서울특별시 금천구 시흥대로47길 29 , 2층 (시흥동)",126.9025125,37.43842
"더조은컴퓨터학원","서울특별시 구로구 디지털로 306 , 212호,218호,219호 (구로동,대륭포스트타워2)",126.897285,37.485904
"예향무용학원","서울특별시 구로구 디지털로27길 69 , 4층 (가리봉동)",126.8901147,37.4839458
"반디독서실","서울특별시 영등포구 신길로 70 , 301호 (신길동)",126.9086024,37.4986608
"슈퍼매스수학학원","서울특별시 금천구 독산로108길 101 , 3층 (독산동)",126.905747,37.4568575
"에듀라인(Eduline)원격학원","서울특별시 금천구 가산디지털1로 212 , 1403호 일부 (가산동,코오롱 디지털타워 애스턴)",126.8805925,37.484432
"뮤직홈음악학원","서울특별시 금천구 시흥대로 399 , 2층 (독산동,시티렉스(CT-LEX))",126.8972301,37.4693508
"대림정보기술학원","서울특별시 구로구 구로중앙로 22 , 2층,3층 (구로동)",126.8916932,37.4921367
"스피치리더십학원","서울특별시 구로구 시흥대로 545-1 , 2층 일부, 3층 일부 (구로동)",126.9002323,37.4819365
"뉴비전학원","서울특별시 영등포구 대방천로12길 3 , 2층 (신길동)",126.9090239,37.4988377
"지앤비대림어학원","서울특별시 영등포구 대림로 245 , 3층 (대림동,대림동근생빌딩)",126.8963702,37.5022802
"메카피아창도기술교육학원","서울특별시 금천구 가산디지털1로 145 , 2004호 (가산동,에이스하이엔드타워3)",126.881681,37.478165
"민족부사관장교학원","서울특별시 영등포구 영중로 22 , 6층 일부 (영등포동3가)",126.907807,37.5177549
"와이비엠잉글루영어전문학원","서울특별시 구로구 고척로33길 29 , 2층 (고척동)",126.8484583,37.5038664
"강철수능내신학원","서울특별시 구로구 중앙로15길 132-17 , 106호,107호,108호,201호 일부 (고척동,삼익1단지아파트)",126.8531222,37.5085119
"눈높이러닝센터도림학원","서울특별시 영등포구 도림로 382 , 2층 (도림동)",126.9087035,37.5119116
"뮤직월드음악학원","서울특별시 영등포구 선유서로 76 , 201호,203호 (양평동1가,상가동)",126.8887635,37.523167
"서울종합기술학원","서울특별시 영등포구 대림로 179 , 4층일부, 5층일부 (대림동, 대림빌딩)",126.898757,37.4967641
"차일드유영어해법수학학원","서울특별시 구로구 개봉로3가길 46 , 2층 (개봉동)",126.8534441,37.4842389
"마실음악학원","서울특별시 영등포구 여의대방로47길 14 , 2층 (신길동)",126.9222001,37.5089999
"한성보습학원","서울특별시 금천구 문성로 32 , 2층 (독산동,남성빌딩)",126.907229,37.4764057
"그레인실용음악학원","서울특별시 영등포구 선유로43가길 24 , 201호~204호 (양평동3가,거성파스텔아파트)",126.8919234,37.531482
"백산인재개발센터학원","서울특별시 금천구 디지털로9길 99 , 209호 (가산동,스타밸리)",126.8848307,37.4816074
"라당스무용학원","서울특별시 구로구 경인로67길 23 , 101-303 (신도림동, 신도림2차푸르지오)",126.889291,37.5106974
"뷰티플가든발레학원","서울특별시 영등포구 여의대방로 394 , 4층 408호 (여의도동)",126.9327683,37.5193677
"기타와사람들학원","서울특별시 영등포구 양평로 36 , 4층 일부 (당산동6가,삼원빌딩)",126.9026637,37.5337463
"선유탑2관학원","서울특별시 영등포구 양평로24길 12 , 2층 (양평동5가)",126.8921551,37.5400997
"희망이음원격학원","서울특별시 구로구 디지털로 306 , 101-2 일부 (구로동,대륭포스트타워2)",126.897285,37.485904
"손사에듀학원","서울특별시 영등포구 양산로 139 , 4층 일부 (당산동3가,한성빌딩)",126.8972369,37.5255183
"다니엘스터디학원","서울특별시 구로구 고척로30길 6 , 3층 (개봉동,원광빌딩)",126.8485194,37.5019532
"젬씨학원","서울특별시 구로구 고척로 96 , 3층 (개봉동,원우빌딩)",126.8449092,37.5007853
"베토벤음악학원","서울특별시 구로구 천왕로 36 , 천왕센터프라자 3층 305호 (천왕동)",126.8621767,37.5155945
"아이비리그학원","서울특별시 금천구 금하로 750 , 203호,204호 (시흥동,관악우방아파트)",126.9136755,37.4493853
"호림관광통역학원","서울특별시 영등포구 대림로 194 , 3층 (대림동)",126.8987061,37.49825
"리얼스파르타공무원학원","서울특별시 영등포구 경인로 886 , 2층, 3층 일부 (영등포동1가,서울빌딩)",126.911033,37.5175951
"뉴스타아이티(IT)교육학원","서울특별시 금천구 벚꽃로 114 , 2층 (독산동, 대명플라스틱)",126.8902337,37.4653512
"네일챔피언학원","서울특별시 영등포구 영중로 31 , 2층 일부 (영등포동4가)",126.9048646,37.5190267
"한수학전문학원","서울특별시 금천구 금하로 762-1 , 3층 (시흥동,두성빌딩)",126.9021468,37.4515753
"케이투위더스(K2Withus)1관학원","서울특별시 영등포구 양평로 110 , 5층 (양평동4가)",126.89542,37.5331444
"이화무용학원","서울특별시 금천구 시흥대로 399 , 214호 (독산동,시티렉스(CT-LEX))",126.8972301,37.4693508
"래쉬프랑스대림캠퍼스학원","서울특별시 영등포구 도림로 132 , 4층 (대림동)",126.8996734,37.4930609
"플러스하다학원","서울특별시 금천구 범안로17길 23 , 202호 (독산동, 우정오피스텔)",126.8939929,37.4675345
"한글로영어학원","서울특별시 영등포구 시흥대로173길 13 , 206호 (대림동, 신대림자이)",126.9023958,37.4864877
"코엔국어영어전문학원","서울특별시 금천구 시흥대로 202 , 2층 일부 (시흥동, 대의빌딩)",126.9008414,37.450992
"미도움미술학원","서울특별시 금천구 금하로 762-1 , 4층 (시흥동, 두성빌딩)",126.9021468,37.4515753
"학관노경영전문학원","서울특별시 구로구 가마산로25길 9-9 (구로동)",126.8899216,37.4963846
"한가람독서실","서울특별시 구로구 오류로 73 , 4층,5층 (오류동)",126.8405551,37.4911286
"공단기6관고시학원","서울특별시 영등포구 여의대방로62길 2 , 2층 일부, 3층 (신길동, 봉덕빌딩)",126.9266705,37.5137903
"경단기6관고시학원","서울특별시 영등포구 여의대방로62길 2 , 4층 (신길동, 봉덕빌딩)",126.9266705,37.5137903
"길실용음악학원","서울특별시 구로구 부일로15길 25-5 , 2층,3층 일부 (궁동, 금강빌딩)",126.8331395,37.4938804
"눈높이러닝센터대동학원","서울특별시 영등포구 대림로21길 7 , 2층 (대림동)",126.9004441,37.4926338
"피아노리브레구로디지털센터학원","서울특별시 구로구 디지털로32가길 16 , 302호 (구로동, 파트너스타워 2차)",126.898563,37.4827936
"모아소방전기학원","서울특별시 영등포구 영신로32길 29 , 2층 (영등포동4가)",126.9043306,37.519028
"넷스쿨영등포속기학원","서울특별시 영등포구 영중로10길 6 , 405호, 406호 (영등포동3가, 델리타운)",126.9061617,37.5189774
"한국아이티강사협동조합학원","서울특별시 구로구 디지털로26길 5 , 307호 (구로동, 에이스 하이-엔드타워)",126.8953389,37.481234
"대림국제학원","서울특별시 영등포구 대림로33길 9 , 2층 (대림동, 백광빌딩)",126.8975349,37.4975974
"씽씽중국어한자학원","서울특별시 영등포구 당산로44길 3 , 4층 414호 일부,414-1호 (당산동5가, 삼성타운)",126.901043,37.5318517
"한국산업직업전문학원","서울특별시 영등포구 경인로 767 , 4층 (문래동3가)",126.9019621,37.5149973
"이화수학매니저학원","서울특별시 구로구 고척로 148 , 4층 (고척동)",126.8501607,37.5027459
"궁동해법수학학원","서울특별시 구로구 오리로 1262 , 2층 (궁동)",126.8291166,37.5067334
"메디치아이티교육학원","서울특별시 금천구 가산디지털1로 186 , 303-1호 (가산동, JEI PLATZ)",126.8817895,37.4817399
"쓰리디(3D)프린팅교육학원","서울특별시 구로구 디지털로 288 , 202호 (구로동, 대륭포스트타워1)",126.8954883,37.4835267
"필즈수학학원","서울특별시 구로구 경인로 403 , 원메디타운-A 501호 (고척동)",126.8625002,37.5011414
"필즈원에듀학원","서울특별시 구로구 경인로 403 , 원메디타운-A,502호 (고척동)",126.8625002,37.5011414
"천왕스카이학원","서울특별시 구로구 천왕로 106 , 골드프라자 6층 604호 (오류동)",126.8385254,37.4901258
"제이비엠수학보습학원","서울특별시 영등포구 여의대방로 25 , 114호,203호 (신길동, 보라매 경남아너스빌)",126.9091997,37.4948387
"큐연기학원","서울특별시 영등포구 선유로 27 , 307호 (문래동5가, 대륭오피스텔)",126.887952,37.5165949
"케이팝서울학원","서울특별시 영등포구 도림로 176 , 2층 (대림동, 남영빌딩)",126.901433,37.490895
"글로벌발레무용학원","서울특별시 영등포구 당산로38길 8 , 3층 (당산동4가, 영광빌딩)",126.8990061,37.528788
"와이비엠시사영어학원","서울특별시 영등포구 가마산로 364 , 4층 401호 (대림동, 성락빌딩)",126.8990432,37.5009347
"눈높이러닝센터오남학원","서울특별시 구로구 오류로8길 6 , 3층 (오류동, 새마을금고회관)",126.8408739,37.4907638
"동포부자제빵학원","서울특별시 영등포구 대림로 174 , 3층 (대림동)",126.8995404,37.4963404
"서울학원","서울특별시 영등포구 경인로 706 , 4층 일부,7층 일부 (문래동1가, 한양빌딩)",126.8925905,37.5109845
"새한전기기술사학원","서울특별시 영등포구 영등포로 422 , 3층 1호, 2호, 3층일부 (신길동)",126.9247831,37.5122564
"글로벌코리아아카데미학원","서울특별시 구로구 시흥대로 563 , 4층 일부 (구로동)",126.9014123,37.4833531
"해법엘리트영어학원","서울특별시 구로구 오리로 1262 (궁동)",126.8289067,37.5003075
"케이투위더스(K2withus)2관학원","서울특별시 영등포구 양평로 110 , 4층 (양평동4가)",126.8948564,37.5372182
"지지경매강북학원","서울특별시 영등포구 당산로 233 , 1001호 (당산동6가, 당산동홍익빌딩)",126.9019848,37.5345203
"블루기타실용음악학원","서울특별시 영등포구 당산로30길 6 , 3층 (당산동3가)",126.8971991,37.5254293
"숙명새솔음악학원","서울특별시 구로구 가마산로27길 66 , 101호 (구로동, 아스타 빌)",126.8901504,37.4995729
"고려검정고시원격학원","서울특별시 영등포구 경인로 706 , 4층 일부 (문래동1가, 한양빌딩)",126.8925905,37.5109845
"수피부미용학원","서울특별시 영등포구 가마산로 313 , 5층 일부 (대림동)",126.894319,37.498419
"잡튜브학원","서울특별시 영등포구 대림로 178 , 5층 일부 (대림동, 한경빌딩)",126.8994236,37.4966531
"사론음악학원","서울특별시 구로구 부일로9길 87 , 2층 (온수동)",126.8242124,37.4960633
"차이나관광학원","서울특별시 구로구 구로중앙로28길 31 , 3층 302호 (구로동, 성화빌딩)",126.8873152,37.4995687
"나파평생교육학원","서울특별시 영등포구 국회대로30길 14 , 3층 (당산동3가)",126.8952923,37.5269946
"피아노리브레여의도센터학원","서울특별시 영등포구 여의대방로67길 22 , 3층 (여의도동)",126.929985,37.5206625
"고척예원음악학원","서울특별시 구로구 중앙로6길 9 , 3층 (고척동)",126.8643563,37.5006036
"금장제빵학원","서울특별시 영등포구 대림로 172 , 대륙빌딩7층 (대림동)",126.9062556,37.5193726
"드림컴트루(Dream Come True)학원","서울특별시 구로구 경인로 352 , 3층 (개봉동, 금석빌딩)",126.8593442,37.4967357
"씽크빅학습센터신도림학원","서울특별시 구로구 신도림로19길 7 , 3층 (신도림동, 성광빌딩)",126.8845635,37.5112343
"이웸영어학원","서울특별시 금천구 독산로 217 , 2층 (독산동, 경일빌딩)",126.9015909,37.4661013
"예종그레이스발레아카데미학원","서울특별시 구로구 부일로 933 , B동 1층 (궁동)",126.8308241,37.4933385
"오케이(OK)학원","서울특별시 구로구 부일로 933 , B동 1층 (궁동)",126.8308241,37.4933385
"미주컴퓨터학원","서울특별시 구로구 구로중앙로28길 31 , 성우빌딩 201호 (구로동, 성화빌딩)",126.8873152,37.4995687
"마스터프렙원격학원","서울특별시 금천구 가산디지털1로 131 , A동 301-나호, BYC HIGHCIYT (가산동)",126.8823128,37.4769739
"에듀플렉스에듀코치개별지도신도림학원","서울특별시 구로구 경인로 643  , 205동 206-1호 (신도림동)",126.8805914,37.5077345
"클연기학원","서울특별시 구로구 새말로 97 , 신도림테크노마트 6층 일부 (구로동, 신도림테크노마트)",126.8902185,37.5070431
"에듀대림관광가이드학원","서울특별시 영등포구 대림로 170 , 도명빌딩 4층 (대림동, 세종빌딩)",126.9094229,37.4869877
"엠프렌즈어학원","서울특별시 구로구 개봉로16길 37-10 , 2,3,4층 (개봉동)",126.8583855,37.4906139
"금천지이씨어학원","서울특별시 금천구 독산로 31  , 2층,3층 (시흥동)",126.9055749,37.450126
"공인단기학원","서울특별시 영등포구 여의대방로62길 2 , 5층 (신길동, 봉덕빌딩)",126.9266705,37.5137903
"동성맥학원","서울특별시 금천구 독산로65길 8 , 2층 (독산동)",126.9059104,37.4531639
"비상연기학원","서울특별시 영등포구 양평로 59 , 701호 (당산동5가)",126.9010187,37.5322248
"꿈을키우는아이들미술학원","서울특별시 구로구 천왕로 32 , 603호, 604호 (천왕동)",126.838681,37.486686
"더제이댄스스포츠아카데미학원","서울특별시 영등포구 가마산로 360 , 4층 (대림동, 성일빌딩)",126.8987918,37.500653
"오름수학학원","서울특별시 구로구 경인로31길 98 , 3층 (개봉동)",126.8485357,37.5014758
"티아이에스정보기술교육센터학원","서울특별시 영등포구 선유동2로 70 , 이화빌딩 2층 (당산동5가)",126.8985615,37.534454
"솔로몬에듀원격학원","서울특별시 금천구 두산로 70  , 현대지식산업센터 A동 T-204호 (독산동)",126.89589,37.469824
"눈높이러닝센터신길3동학원","서울특별시 영등포구 가마산로65길 4 , 2층 (신길동)",126.9071804,37.5062119
"탑독서실","서울특별시 영등포구 도영로 20 , 5층 (도림동, 인수빌딩)",126.8956914,37.5081297
"마스터학원","서울특별시 구로구 고척로 156 , 4층 (고척동)",126.8511802,37.503154
"아발론신도림어학원","서울특별시 구로구 경인로59길 8 , 703호,706호,707호 (신도림동)",126.8833546,37.5063288
"마더경영회계아카데미학원","서울특별시 구로구 새말로 18 , 8층 (구로동, 수덕빌딩)",126.8831398,37.5019189
"진스토리학원","서울특별시 영등포구 여의대방로69길 7 , 충무빌딩 904,905,1004,1005호 (여의도동)",126.9311976,37.5197897
"갈루아해법학원","서울특별시 영등포구 국제금융로 78 , 801호 (여의도동)",126.9312858,37.5208329
"리엔리(Lee&Lee)댄스스포츠학원","서울특별시 금천구 남부순환로 1394 , 4층 (독산동)",126.9056282,37.4798953
"지티리그영어학원","서울특별시 영등포구 당산로38길 13 , 3층 (당산동4가)",126.8982838,37.5331208
"엠비이아카데미학원","서울특별시 영등포구 여의나루로 81 , 11층 1호 (여의도동)",126.9277194,37.5242813
"고담요리학원","서울특별시 영등포구 도림로 318 , 3층 (신길동)",126.9022354,37.5059156
"솔바이올린학원","서울특별시 영등포구 국제금융로6길 33 , 맨하탄빌딩 7층 7호 (여의도동)",126.9268688,37.5206978
"이영애발레아카데미학원","서울특별시 구로구 오리로 1149 , 3층 (오류동, 랑데르)",126.8451806,37.4974857
"뮤직채널아카데미원격학원","서울특별시 구로구 디지털로33길 50 , 907호 (구로동, 벽산 디지털밸리7)",126.8945928,37.4867181
"서울국제커피아카데미학원","서울특별시 금천구 가산디지털1로 1 , 1506호 (가산동, 더루벤스밸리)",126.8870784,37.4662108
"리딩타운어학원","서울특별시 금천구 시흥대로 167 , 3층일부, 4층 (시흥동, 국민은행시흥동점)",126.902397,37.448798
"샌프란영어학원","서울특별시 영등포구 영신로 238 , 407호 (영등포동8가, 미소로)",126.9042,37.5285937
"대서학원","서울특별시 구로구 고척로 108 , 2층 (개봉동, 성원빌딩)",126.8461231,37.5012349
"해법영어학원","서울특별시 구로구 천왕로 36 , 401호일부 (천왕동)",126.8415075,37.4803813
"국제미용학원","서울특별시 구로구 구로동로 35 , 2층 (가리봉동)",126.8858745,37.4848655
"연세수학전문학원","서울특별시 영등포구 버드나루로 135 , 3층, 301호 (당산동, 당산빌딩)",126.9070794,37.5301272
"블레싱아카데미학원","서울특별시 구로구 서해안로 2320 , 5층,6층 (오류동)",126.8425866,37.492556
"데프댄스(DEF Dance)학원","서울특별시 영등포구 영중로 79 , 2층 (영등포동7가)",126.9048963,37.5234348
"디이에프(DEF)댄스학원","서울특별시 영등포구 영중로 79 , 2층일부 (영등포동7가)",126.9048963,37.5234348
"브레멘음악학원","서울특별시 영등포구 영등포로35길 27-1 , 2층,3층 (영등포동6가, 제10호)",126.9043283,37.5226682
"더우수학원","서울특별시 영등포구 선유서로 35 , 3층 301호~304호 (문래동6가, 한신아파트)",126.8840565,37.5192004
"바디사운드학원","서울특별시 영등포구 당산로 67 , 4층 (당산동2가, 재원빌딩)",126.8950502,37.5212446
"케이투위더스(K2Withus)3관학원","서울특별시 영등포구 선유로 233 , 6층 (양평동4가, 누리빌딩)",126.8957563,37.5337873
"투탑영수전문학원","서울특별시 구로구 개봉로 72 , 4층 (개봉동)",126.8562896,37.4919812
"플레어셀레브꽃예술학원","서울특별시 영등포구 당산로30길 11 , 2층 (당산동3가)",126.89734,37.524955
"수학의달인신도림학원","서울특별시 구로구 경인로65길 44 , 5층 510호 (신도림동, 보미플라자)",126.8852079,37.509554
"와이비엠잉글루학원","서울특별시 금천구 시흥대로 165 , 314동 301호 (시흥동, 남서울힐스테이트아파트)",126.9030028,37.4470881
"드림앤뮤직학원","서울특별시 금천구 시흥대로 399 , 512호 (독산동, 시티렉스(CT-LEX))",126.8972301,37.4693508
"기꺼이연기뮤지컬학원","서울특별시 영등포구 국회대로34길 17 , 3층 (당산동3가)",126.8942592,37.527084
"현수학학원","서울특별시 영등포구 선유로 63 , 7층 705호 (문래동6가, EEU동신타워)",126.889059,37.519705
"고척컴퓨터학원","서울특별시 구로구 고척로 143 , 2층 (고척동)",126.8497139,37.5028974
"구로관광학원","서울특별시 구로구 디지털로32가길 18 , 609호 (구로동, H.K TOWER)",126.8985074,37.4826548
"강서바리스타전문학원","서울특별시 영등포구 당산로47길 10 , 3층 (당산동6가, 두기빌딩)",126.9020889,37.5350928
"에이플러스학원","서울특별시 영등포구 대림로39길 15 , 2층 (대림동)",126.8958985,37.4995222
"위너영어학원","서울특별시 구로구 개봉로20길 14 , 2층 (개봉동, 성암빌딩)",126.8563168,37.4925972
"이엠에듀학원","서울특별시 구로구 천왕로 36 , 2층 201호 (천왕동, 천왕센타프라자)",126.8347364,37.4780766
"커널연구회교육학원","서울특별시 금천구 두산로 70 , 현대지식산업센터 A동 2611호 (독산동)",126.89589,37.469824
"펜포인트학원","서울특별시 구로구 새말로18길 32 , 5층 (구로동, 신흥빌딩)",126.8925352,37.5052352
"휴스피치학원","서울특별시 영등포구 도영로 23 , 502호 (도림동, 정남빌딩)",126.8958814,37.5085955
"정연미술학원","서울특별시 구로구 구일로2길 60 , 201동 206,207호 (구로동, 구일우성아파트)",126.8768791,37.4901992
"영림해법학원","서울특별시 영등포구 도림천로21길 29-1 , 2층 (대림동)",126.9026838,37.4880242
"김정화탑수학학원","서울특별시 구로구 신도림로 16 , 303호,304호 (신도림동, 신도림 대림아파트)",126.880714,37.5057794
"소시아뜨리에미술학원","서울특별시 영등포구 문래로 79-17 , 4층 (문래동3가)",126.8906855,37.5205009
"한국아이티인재개발학원","서울특별시 금천구 가산디지털1로 186 , 204호 (가산동, JEI PLATZ)",126.8817895,37.4817399
"믿음학원","서울특별시 영등포구 가마산로88길 7 , 3층 (신길동)",126.9206395,37.503319
"일신학원","서울특별시 영등포구 선유동2로 13 , 3층 (양평동3가, 청구빌딩)",126.8948384,37.5303418
"눈높이러닝센터당산학원","서울특별시 영등포구 영신로 238 , 2층 201호 (영등포동8가, 미소로)",126.9042,37.5285937
"멘토수학·논술학원","서울특별시 금천구 독산로 8 , 4층 401호 (시흥동, 백운타워)",126.904018,37.4484672
"카쌈아트학원","서울특별시 금천구 가산디지털1로 88 , 2006호 (가산동, IT프리미어타워)",126.8853145,37.4738223
"대림김영제빵학원","서울특별시 영등포구 도림로31길 26-1 , 1층,2층,3층 (대림동)",126.8950023,37.4946464
"해법학원","서울특별시 구로구 개봉로20길 6 , 상가1동 304호 (개봉동, 현대아파트)",126.8600665,37.4919863
"(주)지유에듀테인먼트원격학원","서울특별시 금천구 가산디지털1로 2 , 709호 (가산동, 우림라이온스밸리 2차)",126.88837,37.4668787
"비전컴퓨터학원","서울특별시 영등포구 영등포로5길 19 , 902호, 903호 (양평동2가, 동아프라임밸리)",126.8842567,37.5241382
"조셉영어2관학원","서울특별시 금천구 시흥대로 204 , 5층 502호 (시흥동, 성보빌딩)",126.9018852,37.4521867
"한일영어훈련소학원","서울특별시 구로구 경인로65길 44 , 2층 207호,208호 일부 (신도림동, 보미플라자)",126.8852079,37.509554
"아카데미라운지여의도독서실","서울특별시 영등포구 국제금융로7길 15 , 2층 일부 (여의도동, 여의상가)",126.9319411,37.5244655
"모아독서실","서울특별시 영등포구 영중로 138-1 , 3층 301호 (영등포동8가, 드림프라자)",126.9060424,37.5286219
"연세이룸학원","서울특별시 구로구 고척로6길 58-1 , 3층 일부 (오류동)",126.8419231,37.4961275
"조인음악학원","서울특별시 영등포구 여의대방로 394 , 501호일부 (여의도동, 우정빌딩)",126.9328086,37.5194009
"해법중국어신도림직영학원","서울특별시 구로구 신도림로 16 , 2층 203호 (신도림동, 신도림 대림아파트 주상가동)",126.880714,37.5057794
"여의도위드피아노학원","서울특별시 영등포구 국제금융로8길 19 , 403호일부,404호,405호일부 (여의도동, 중앙빌딩)",126.9066445,37.5192338
"아이바디발레학원","서울특별시 구로구 경인로47길 126 , 3층 (고척동)",126.8634677,37.5041667
"빛과소금액터스쿨연기학원","서울특별시 영등포구 국회대로30길 12 , 2층 (당산동3가)",126.8972295,37.5262838
"그레이스음악학원","서울특별시 영등포구 도림로 291 , 3층 (신길동)",126.9030887,37.5036367
"더(THE)올림학원","서울특별시 구로구 구일로 110 , 5층 503호 (구로동)",126.872004,37.4950273
"서울버섯기술학원","서울특별시 영등포구 대림로27가길 19 , 2층 (대림동)",126.8981734,37.4966322
"김영버섯학원","서울특별시 구로구 구로중앙로8길 30 , 2층 (구로동)",126.8926745,37.4911583
"정재헌정보처리학원","서울특별시 영등포구 대림로27나길 8 , 4층일부 (대림동)",126.8983809,37.4955222
"엠케이수학학원","서울특별시 구로구 개봉로20길 6 , 302-1호, 308호 (개봉동, 현대아파트 상가1동)",126.8600665,37.4919863
"로드맵수학전문학원","서울특별시 금천구 시흥대로39길 11 , 2층 202호 일부 (시흥동)",126.9025378,37.4468946
"지36학원","서울특별시 구로구 고척로 206 , 3층 (고척동)",126.856096,37.5049741
"고도아카데미학원","서울특별시 구로구 디지털로32길 29 , 906~909호 (구로동, 키콕스벤처센터)",126.8974241,37.4847656
"알롱제간호학원","서울특별시 금천구 벚꽃로 244 , 1506호 (가산동)",126.8857798,37.4767039
"열린학원","서울특별시 금천구 남부순환로 1426 , 2층 (독산동)",126.9091391,37.4804972
"한국제과제빵요리학원","서울특별시 영등포구 대림로 202 , 문화빌딩4층 (대림동, 에이동)",126.898507,37.4986806
"두산동아닷컴학원","서울특별시 영등포구 은행로 30 , 10층 일부 (여의도동, 중소기업중앙회)",126.9225145,37.5281286
"국자감원격학원","서울특별시 영등포구 경인로 711 , 4층일부 (문래동2가,청광빌딩)",126.8928405,37.5117622
"한양동포기술학원","서울특별시 구로구 구로중앙로 17 , 3층 일부 (구로동)",126.8915446,37.4915514
"원민음악학원","서울특별시 금천구 독산로 125-1 3층",126.9048859,37.4585498
"뉴프리미어독서실","서울특별시 금천구 금하로 750  관악우방아파트 상가 4층 시흥동",126.912242,37.449972
"와콩원격학원","서울특별시 금천구 가산디지털1로 137 , 2001호 일부 (가산동, IT캐슬 2차)",126.8809537,37.4770718
