"학원명","학원주소","lon","lat"
"아이은음악학원","서울특별시 관악구 난곡로35길 29 (신림동)",126.9180436,37.4719056
"수림독서실-187","서울특별시 관악구 호암로22길 39 , (2,3,4층) (신림동,수림독서실)",126.934908,37.4688394
"선익음악학원","서울특별시 동작구 상도로62길 5 (상도동)",126.95437,37.4946624
"새서울음악학원","서울특별시 관악구 봉천로 594 301호 (봉천동)",126.9631615,37.476236
"서울법학원","서울특별시 관악구 관악로 132 , 2층일부ㆍ3층ㆍ4층ㆍ5층 (봉천동)",126.9598833,37.4910492
"호림독서실","서울특별시 관악구 호암로22길 32 (신림동)",126.9344313,37.4686603
"올리브나무남정임미술학원","서울특별시 관악구 구암길 25  2층(봉천동)",126.9475595,37.4890506
"연세음악학원","서울특별시 동작구 사당로 136 (사당동)",126.9655561,37.4891167
"송이음악학원","서울특별시 동작구 만양로14가길 32  3,4층(노량진동)",126.9448233,37.5128993
"케이투독서실","서울특별시 관악구 대학6길 25 , 2,3,4,6층 (신림동)",126.9362655,37.468939
"음악사랑음악학원","서울특별시 관악구 호암로 401 4층 (신림동)",126.9259487,37.4610399
"건영음악학원","서울특별시 관악구 신림로3길 40  상가2층(신림동)",126.9426441,37.4669806
"이화음악학원","서울특별시 관악구 관악로14길 105 2층 (봉천동)",126.9582338,37.477829
"대림음악학원","서울특별시 동작구 여의대방로 250 , 상가동,상가 5-8호 (대방동, 대림아파트)",126.9295968,37.5126338
"흑석연세보습학원","서울특별시 동작구 서달로8길 14  (흑석동)",126.9615471,37.5057176
"삼보아카데미독서실","서울특별시 관악구 호암로26가길 48 (신림동)",126.9329532,37.4687767
"이앤아이미술학원","서울특별시 동작구 동작대로11길 89  (사당동)",126.9764728,37.4812276
"성원음악학원","서울특별시 동작구 여의대방로44길 9 성원상가3층(대방동)",126.9254944,37.5093489
"베리타스학원","서울특별시 관악구 신림로58길 13 201,506호 (신림동)",126.9306642,37.4825717
"음사랑음악학원","서울특별시 동작구 흑석로 11 , 3층 (상도1동, 열린우리교회)",126.9519588,37.5050915
"예일음악학원","서울특별시 관악구 문성로 74 4층(신림동)",126.912461,37.4763596
"등용독서실","서울특별시 관악구 신림로 206  (신림동)",126.9374398,37.475584
"대지보습학원","서울특별시 동작구 사당로23나길 30 2-4층 (사당동)",126.9755302,37.487662
"연세아카데미보습학원","서울특별시 관악구 미성길 60 두영상가3층(신림동)",126.9138635,37.4745992
"한국역학교육학원","서울특별시 관악구 남부순환로 1936 (봉천동)",126.9639471,37.4765799
"키스톤보습학원","서울특별시 관악구 조원로6길 1  3층(신림동)",126.9053054,37.4831099
"석포서예학원","서울특별시 관악구 봉천로 411 (봉천동)",126.9456009,37.4831006
"가이던스보습학원","서울특별시 관악구 신림로29길 8 4층 (신림동)",126.9325194,37.4751189
"강남보습학원","서울특별시 관악구 난곡로 210 4층 (신림동)",126.9184995,37.4736875
"유진보습학원","서울특별시 동작구 사당로23나길 22 (사당동)",126.9753003,37.4874401
"제이앤제이보습학원","서울특별시 관악구 쑥고개로 73-1 , 2층 (봉천동,은창빌딩)",126.9447808,37.4795726
"파랑새음악학원","서울특별시 동작구 여의대방로24길 54  2층(신대방동)",126.923312,37.4979705
"서강보습학원","서울특별시 동작구 대방동27길 91 , (2층) (대방동,대호빌딩)",126.9242141,37.5011577
"에이블파트너즈보습학원","서울특별시 동작구 등용로 80 , 2층 (대방동, 한뜻학원)",126.9324003,37.5082735
"최강황샘수학보습학원","서울특별시 관악구 신림로 198 , 5층 (신림동)",126.9368712,37.475022
"새이화음악학원","서울특별시 관악구 법원단지길 49  3층(신림동)",126.920417,37.4741538
"명륜당독서실","서울특별시 관악구 호암로26가길 46  (신림동)",126.9330426,37.468928
"라라음악학원","서울특별시 동작구 사당로16가길 42 (사당동)",126.9712344,37.4835402
"한얼독서실","서울특별시 관악구 관악로11길 17 , 3층 (봉천동, 연빌딩)",126.9511969,37.4776563
"대한리더스학원","서울특별시 동작구 사당로 231 (사당동)",126.9736501,37.4836693
"마이티청탑보습학원","서울특별시 동작구 노량진로 114 , 2층 일부 (노량진동,청탑학원)",126.9386138,37.5129295
"대한보습학원","서울특별시 동작구 사당로 231 2층 함풍빌딩 (사당동)",126.9736501,37.4836693
"버터씨엔씨보습학원","서울특별시 관악구 보라매로 62 , 보라매 삼성아파트 상가동1(301호~305호) (봉천동)",126.9278545,37.4940971
"더관리형독서실","서울특별시 관악구 신림로15길 31 2-5층(신림동)",126.9371225,37.4687701
"원문독서실","서울특별시 관악구 호암로26길 37 (신림동)",126.9357034,37.4704702
"비타에듀학원","서울특별시 동작구 노량진로 186 , 1층 및 3층일부 (노량진동,한샘학원)",126.9461198,37.5127235
"대방삼육외국어학원","서울특별시 동작구 알마타길 21-42  (대방동)",126.9277989,37.5117675
"충현독서실","서울특별시 관악구 호암로22길 73 (신림동)",126.9368256,37.4686584
"경문독서실","서울특별시 관악구 대학4길 21 (신림동)",126.9366695,37.4695455
"웅지보습학원-193","서울특별시 관악구 신림로 198 , (4층) (신림동)",126.9368712,37.475022
"다솔음악학원","서울특별시 관악구 신림로58길 36  (신림동)",126.9318634,37.4822807
"대한간호학원","서울특별시 관악구 시흥대로 578 광안빌딩3층 (신림동)",126.9032353,37.4841828
"비봉독서실","서울특별시 관악구 호암로26길 60 (신림동)",126.9369754,37.4701339
"온누리보습학원","서울특별시 관악구 문성로16가길 43  3층(신림동)",126.9148933,37.4752313
"숭문독서실","서울특별시 관악구 호암로26가길 34 (신림동)",126.9332706,37.4693517
"차이코프스키음악학원","서울특별시 동작구 상도로15길 51  3층(상도동)",126.9343431,37.5028082
"오늘미술학원","서울특별시 동작구 장승배기로30길 1-7 , 2층일부·3층·4층 (노량진동)",126.9404488,37.5130025
"성원독서실","서울특별시 관악구 대학14길 59-21 (신림동)",126.9364193,37.4654227
"디자인가우디미술학원","서울특별시 관악구 남부순환로 1628 , 2층, 3층 (신림동)",126.9314835,37.4841911
"신여명독서실","서울특별시 관악구 호암로22길 41  (신림동)",126.9350734,37.4688193
"청어람독서실","서울특별시 관악구 대학길 115  (신림동)",126.9379158,37.4656704
"한림법학원","서울특별시 관악구 대학길 13 , 나동 2층일부,3층일부,4층 (신림동,밀라트)",126.9382078,37.4700477
"인성보습학원","서울특별시 관악구 난곡로 203 3층 (신림동)",126.91846,37.4730564
"이앤아이음악학원","서울특별시 관악구 당곡길 22  2층일부(봉천동)",126.9291971,37.4902209
"줄리어드음악학원","서울특별시 관악구 행운1길 37  (봉천동)",126.9572456,37.480354
"박문각임용고시학원","서울특별시 동작구 노량진로 171 , 2~10층 (노량진동,노량진행정고시학원)",126.9451927,37.5139758
"뉴예원음악학원","서울특별시 동작구 동작대로29길 91 (사당동,사당우성아파트상가 2단지 402호 일부)",126.977222,37.487794
"신경문독서실","서울특별시 관악구 신림로17길 57-4  1-4층()",126.9365604,37.4679929
"이엠올림보습학원","서울특별시 동작구 흑석로13길 9 , 2층 (흑석동)",126.9606016,37.509062
"솔로몬음악학원","서울특별시 동작구 장승배기로 37 (상도동)",126.9409449,37.5012727
"희음악학원","서울특별시 관악구 호암로 497 , 2층 (신림동)",126.9316736,37.4618586
"세종무용학원","서울특별시 관악구 호암로 530 3층 (신림동)",126.9317114,37.4649261
"서울조형미술학원","서울특별시 동작구 노량진로 123 3층 (노량진동)",126.9397424,37.5136882
"우리컴퓨터전산회계학원","서울특별시 관악구 관악로 113 , 4층 (봉천동)",126.9524914,37.4751615
"삼성금형기계기술학원","서울특별시 동작구 대림로 56 5층 (신대방동)",126.9073562,37.4884099
"양지간호조무사학원","서울특별시 관악구 남부순환로 1731  자애빌딩4층(봉천동)",126.9424598,37.4825437
"골든벨보습학원","서울특별시 동작구 동작대로29길 63-6 , 3층 전체 (사당동)",126.9783424,37.4883234
"학림스카이보습학원","서울특별시 관악구 남부순환로 1698 , 3층일부ㆍ4층 (봉천동)",126.9387222,37.4833139
"일등고시학원","서울특별시 동작구 노량진로 147 4,5층 (노량진동)",126.9422108,37.5138284
"서라벌피아노학원","서울특별시 동작구 서달로14길 32 (흑석동)",126.9645772,37.5073489
"최강수학상아탑학원","서울특별시 동작구 상도로 122 (상도동)",126.933856,37.5012693
"루디아음악학원","서울특별시 관악구 관악로 304 상가4층(봉천동)",126.9583387,37.4921791
"비타러닝센타보습학원","서울특별시 동작구 등용로 92 우석빌딩2,3층 (대방동)",126.9323923,37.5092632
"강남미술학원","서울특별시 동작구 보라매로 94-1 2층 (대방동)",126.9281797,37.4976345
"합격캠프독서실","서울특별시 관악구 호암로24길 42  2-5층(신림동)",126.9354499,37.469375
"청광독서실","서울특별시 관악구 신림로21길 39 , 2~4층 (신림동,청광독서실)",126.935282,37.4686293
"남현보습학원","서울특별시 관악구 남현길 37 2,3층 (남현동)",126.9769138,37.4749268
"진영플러스보습학원","서울특별시 관악구 인헌길 15  3층(봉천동)",126.9670834,37.4748476
"강은숙음악학원","서울특별시 관악구 조원로 171 2층 (신림동)",126.9212097,37.4862476
"예은음악학원","서울특별시 관악구 신림로29길 6 현대아파트A상가401호(신림동)",126.9349897,37.4749555
"티엠비학원","서울특별시 동작구 서달로 153 (흑석동)",126.9615671,37.5071351
"서웅독서실","서울특별시 관악구 대학6길 19  2-5층 (신림동)",126.9365204,37.468899
"예일독서실","서울특별시 동작구 동작대로29길 110  신동아상가 3층(사당동, 신동아아파트)",126.9760224,37.4897954
"메가파워예능미술학원","서울특별시 동작구 신대방11길 13 2층 (신대방동)",126.9088069,37.4884891
"한빛독서실","서울특별시 관악구 보라매로 34 3층 (봉천동)",126.9270455,37.492409
"아이디미술학원","서울특별시 동작구 대방동23길 45 , 3층 (대방동)",126.9227889,37.5039126
"푸른보습학원","서울특별시 동작구 만양로 26 , 상가동 217호 일부, 218호 일부 (상도동,건영아파트)",126.949474,37.5073471
"관악진성보습학원","서울특별시 관악구 호암로 401 4층 (신림동)",126.9259487,37.4610399
"연세보습학원","서울특별시 동작구 상도로 49 3층 (대방동)",126.9339651,37.5058521
"더뮤즈음악학원","서울특별시 관악구 관악로 287 , 성현동아아파트 상가A동 402호 (봉천동)",126.957729,37.488488
"비엔나음악학원","서울특별시 동작구 장승배기로16길 27  2,3층(노량진동)",126.941525,37.5068013
"대은음악학원","서울특별시 동작구 상도로 407-5 , 402호 (상도동)",126.957297,37.4934178
"태인독서실","서울특별시 관악구 호암로24길 23 , 1~7층 (신림동,태인빌딩)",126.9345618,37.4698211
"성문독서실","서울특별시 관악구 신림로14길 29  2-6층(신림동)",126.9383627,37.4721224
"연세피아노음악학원","서울특별시 관악구 당곡길 36 2층 (봉천동)",126.928897,37.4908832
"진달래미술학원","서울특별시 관악구 보라매로2길 10 2-3층 (봉천동)",126.9285865,37.4898991
"성대주산학원","서울특별시 동작구 성대로 69 (상도동)",126.9346565,37.4979481
"키즈빌미술학원","서울특별시 동작구 동작대로29길 119 상가2층 (사당동, 극동아파트)",126.9760224,37.4897954
"율몽음악학원","서울특별시 동작구 동작대로9가길 31 (사당동)",126.9778852,37.4794738
"세진보습학원","서울특별시 관악구 은천로 50  (봉천동)",126.9407995,37.4859428
"아트비미술학원","서울특별시 동작구 상도로 73 , 2층 일부 (대방동,보광빌딩)",126.9289206,37.4998754
"베리타스사법고시학원","서울특별시 관악구 신림로28길 81 , 2층ㆍ3층ㆍ4층ㆍ5층 (신림동,정인빌딩)",126.9419754,37.4830166
"파라오미술학원","서울특별시 동작구 남부순환로 2073 , 3층 (사당동)",126.9792823,37.4769233
"로이즈학원","서울특별시 동작구 노량진로 4 3층 (대방동)",126.9263654,37.5121113
"학구재독서실","서울특별시 관악구 호암로24길 17  1-6층(신림동)",126.9342485,37.4699102
"참배움터학원","서울특별시 관악구 난곡로24길 18 , (2층) (신림동)",126.9208162,37.4694243
"나무와숲보습학원","서울특별시 동작구 상도로15길 103  3,4층(상도동)",126.9363524,37.5045148
"서울스터디라인보습학원","서울특별시 관악구 관악로30길 12 , 봉천 우성아파트 상가동 502호 (봉천동)",126.9596403,37.4855444
"밤비니지니어스상도미술학원","서울특별시 동작구 장승배기로 37  2층(상도동)",126.9409449,37.5012727
"하이탑보습학원","서울특별시 관악구 봉천로 226 , 4층 (신림동,금오빌딩)",126.9265629,37.4893888
"명문보습학원","서울특별시 관악구 난향길 5 , 7층 (신림동)",126.9185189,37.4626859
"미예꼴미술학원","서울특별시 동작구 여의대방로 250 , 상가동,상가 5-4호 (대방동, 대림아파트)",126.9295968,37.5126338
"아프로만영재보습학원","서울특별시 관악구 난향길 5  4층(신림동)",126.9185189,37.4626859
"새실독서실","서울특별시 관악구 관악로 140-7  2,3층",126.9528447,37.477793
"철학교육논술학원","서울특별시 관악구 남부순환로 1947 , 소크라테스빌딩 5~6층 (봉천동)",126.9653907,37.4765925
"상도보습학원","서울특별시 동작구 상도로47길 4 , (4층) (상도동,이화빌딩)",126.9514462,37.4995147
"자마르실용음악학원","서울특별시 관악구 난우길 35 2층 (신림동)",126.9176178,37.475796
"에스오티어학원","서울특별시 관악구 구암길 46 , 3층 (봉천동, 소슬유치원)",126.9484531,37.4897277
"동작시사어학원","서울특별시 동작구 동작대로29길 77 , 2층 (사당동)",126.9778127,37.4886098
"톰미술학원","서울특별시 관악구 남부순환로 1624 , (2,3층) (신림동)",126.9310218,37.4841365
"엘리제음악학원","서울특별시 관악구 조원로 126 3층 (신림동)",126.9163253,37.4851298
"프라임보습학원","서울특별시 동작구 여의대방로 284  2층(대방동)",126.9343755,37.506182
"서강에스엘피관악어학원","서울특별시 관악구 봉천로 466 , 2~3층 (봉천동,해주타워)",126.9516134,37.4820169
"비전희소고시학원","서울특별시 동작구 만양로14바길 10 1,2,4~6층 (노량진동)",126.9466561,37.5119047
"그림마을미술학원","서울특별시 관악구 관악로 264 4층(봉천동)",126.9580668,37.4874155
"에듀웰상도학원","서울특별시 동작구 장승배기로 23 , 2층 (상도동,성모빌딩)",126.9420027,37.5002367
"사당연세음악학원","서울특별시 동작구 동작대로29길 127 , (2층) (사당동,주영교회)",126.9761684,37.4905265
"두손음악학원","서울특별시 동작구 사당로17길 8 , 상가 A동 405-1 (사당동, 대림아파트)",126.9725834,37.4867945
"뮤직플러스음악학원","서울특별시 관악구 인헌12길 42 3층 (봉천동)",126.965027,37.4707442
"더독서관독서실","서울특별시 관악구 신림로23길  22 (신림동)",126.9346303,37.4699317
"일원독서실","서울특별시 관악구 호암로26길  31 (신림동)",126.9353669,37.4705222
"대웅독서실","서울특별시 관악구 서림길 106 2-5층 (신림동)",126.9396479,37.4714978
"집현당독서실","서울특별시 관악구 호암로24길 21 1-8층(신림동)",126.9343972,37.4698692
"월광미술학원","서울특별시 동작구 사당로2가길 103 , 2층 (사당동,월광빌딩)",126.962807,37.4894567
"명륜학원","서울특별시 관악구 남부순환로 1534 , 영흥빌딩 3층 (신림동,영흥빌딩)",126.921033,37.4827107
"빵굼터제과기술학원","서울특별시 관악구 남부순환로 1686  2층(신림동)",126.9375957,37.4838164
"여기는관리형독서실","서울특별시 관악구 호암로26가길43 2~5층 (신림동)",126.9332923,37.4688618
"우리들음악학원","서울특별시 관악구 법원단지9길 3 , 3층 (신림동)",126.920316,37.474334
"백승독서실","서울특별시 관악구 대학4길 14  1-5층(신림동)",126.9370647,37.4696562
"에스이에이어학원","서울특별시 동작구 장승배기로 35 , (2,3층) (상도동,럭키하이퍼마켓)",126.9410647,37.5011152
"아이학원","서울특별시 동작구 상도로 311 , 3층 일부 (상도1동, I학원)",126.9530576,37.498071
"삼성음악학원","서울특별시 관악구 은천로25길 69 5층 (봉천동)",126.9483289,37.4890187
"두산음악학원","서울특별시 관악구 봉천로 391 , 두산아파트 상가1동 (4층) (봉천동)",126.9454472,37.4862663
"엔데버학원","서울특별시 관악구 은천로25길 69  4층 (봉천동)",126.9483289,37.4890187
"박문각남부고시학원","서울특별시 동작구 노량진로 161 (노량진동)",126.9439111,37.5139805
"아지오독서실","서울특별시 동작구 사당로17길 8 , 상가A동 307호 (사당동, 대림아파트)",126.9725834,37.4867945
"봉천세림학원","서울특별시 관악구 관악로30길 12  우성상가4층(봉천동)",126.959439,37.4850876
"신동아음악학원","서울특별시 동작구 만양로 19 신동아리버파크상가동303,304호 (노량진동)",126.9447842,37.5079242
"성진독서실","서울특별시 동작구 만양로14가길 23 3-4층 (노량진동)",126.9448825,37.512553
"뉴스터디학원","서울특별시 관악구 남부순환로 1694 , 1층일부ㆍ2층ㆍ3층 (봉천동)",126.9382851,37.4834397
"율곡독서실","서울특별시 관악구 신림로48가길 19 1-3층 (신림동)",126.9328678,37.4798759
"태인학원","서울특별시 관악구 관천로11길 102  2층(신림동)",126.9192455,37.4834347
"서울크리스챤학원","서울특별시 관악구 은천로 72-5  2,3층(봉천동)",126.9435377,37.4861314
"법화독서실","서울특별시 관악구 호암로20길 46 1-5층 (신림동)",126.93456,37.4672369
"세종독서실","서울특별시 관악구 신림로23길 20-5 2-6층 (신림동)",126.9344777,37.4700105
"엘리트보습학원","서울특별시 관악구 조원로 118 2층 (신림동)",126.9155144,37.4849818
"수에리트보습학원","서울특별시 동작구 사당로2차길 2 2층 (사당동)",126.9648482,37.4877256
"에이블독서실","서울특별시 관악구 호암로26길 7 , 3층 및 4층 (신림동,서경독서실)",126.9341154,37.470879
"성보독서실","서울특별시 관악구 신림로23길 20-11  2-5층(신림동)",126.9341789,37.470115
"영광독서실","서울특별시 동작구 만양로14라길 17 , 1층~4층 (노량진동,영광독서실)",126.9459288,37.5109404
"태성독서실","서울특별시 관악구 대학2길 27 1-6층(신림동)",126.9362877,37.4698403
"장학독서실","서울특별시 관악구 대학10길 36 2-4층 (신림동)",126.9356405,37.4678125
"구평회예음지고시학원","서울특별시 동작구 노량진로 192  1,2층(노량진동)",126.9471902,37.5130214
"에프이에스영어학원","서울특별시 관악구 남부순환로246길 25 3,4층 (봉천동)",126.9644352,37.4752921
"코코잉글리쉬어학원","서울특별시 관악구 은천로25길 33  5층(봉천동)",126.9494777,37.4882126
"합격의터독서실","서울특별시 관악구 복은4길 50  2-7층(신림동)",126.9372982,37.4732085
"청암고시독서실","서울특별시 관악구 호암로26가길 59 , 3-6층 (신림동)",126.9330204,37.4681889
"등명독서실","서울특별시 관악구 신림로19길 46-3  1-5층(신림동)",126.9353763,37.4682624
"제일영광독서실","서울특별시 동작구 만양로14라길 21-9 , 1~6층  (노량진동,영광독서관)",126.9463359,37.5109477
"오투독서실","서울특별시 동작구 노량진로 196  11-12층(노량진동)",126.947502,37.5129701
"신연세음악학원","서울특별시 관악구 난우길 29 3층 (신림동)",126.9178652,37.4754171
"랭콘잉글리쉬동작센트럴어학원","서울특별시 동작구 상도로31길 19 브라운스통상도상가동지1층(105~108호) (상도동)",126.9437801,37.5060138
"종일독서실","서울특별시 동작구 만양로14나길 15 (노량진동)",126.9459981,37.5123701
"엠아이티수학학원","서울특별시 관악구 은천로25길 33 구암프라자402 (봉천동)",126.944725,37.4870162
"라몽트독서실","서울특별시 관악구 관악로30길 12 봉천우성아파트 상가동204-208 (봉천동)",126.9596403,37.4855444
"세광음악학원","서울특별시 관악구 은천로 42  3층(봉천동)",126.9400053,37.4859709
"백산보습학원","서울특별시 동작구 사당로 276 6층 (사당동)",126.9784923,37.4838789
"석률독서실","서울특별시 관악구 호암로24길 48 (신림동)",126.9357593,37.4693183
"유림독서실","서울특별시 관악구 신림로23길 58 1-6층 (신림동)",126.93439,37.4683788
"신화독서실","서울특별시 동작구 만양로18길 19-13 (노량진동)",126.9459483,37.5131725
"드림연세보습학원","서울특별시 관악구 구암길 76 , 201호 (봉천동, 관악드림타운)",126.951836,37.4893411
"롯데피아노학원","서울특별시 동작구 여의대방로10길 38  롯데낙천대아파트 상가 (신대방동)",126.9131888,37.4943
"우성보습학원","서울특별시 동작구 여의대방로10길 38 롯데낙천대상가4층 (신대방동)",126.9131888,37.4943
"노벨학원","서울특별시 관악구 남현길 18  3층(남현동)",126.9771705,37.4757499
"관악베리타스보습학원","서울특별시 관악구 은천로 93 502동 203~205호(봉천동)",126.9447409,37.4892615
"메가드림독서실","서울특별시 관악구 관천로 121  (신림동)",126.9209074,37.488557
"스파르타합격캠프학원","서울특별시 관악구 호암로24길 24 , 2층~5층 (신림동, 태학관)",126.9344613,37.4694895
"뉴디딤돌보습학원","서울특별시 동작구 동작대로11길 103 2,3층 (사당동)",126.9757406,37.4812799
"키스트보습학원","서울특별시 관악구 청림6길 3 , 304호 (봉천동)",126.9598942,37.4875731
"야베스음악학원","서울특별시 관악구 구암길 76 , 2층  (봉천동, 관악드림타운)",126.951836,37.4893411
"엔티피학원","서울특별시 관악구 은천로 64 2층 (봉천동)",126.9425004,37.4860004
"대명독서실","서울특별시 동작구 장승배기로 170 (노량진동)",126.9404871,37.5127785
"비젼21보습학원","서울특별시 동작구 동작대로13길 21  1,2층(사당동)",126.9792097,37.4816802
"튼튼영어마스터클럽은천학원","서울특별시 관악구 은천로 80 , (2층) (봉천동)",126.9442288,37.4865187
"히어로틴텝스영어보습학원","서울특별시 관악구 은천로25길 17 3층 (봉천동)",126.9491069,37.4874839
"멘토스2학원","서울특별시 동작구 사당로23길 164  3,4층(사당동)",126.9715313,37.4895987
"명진사해보습학원","서울특별시 관악구 신림로29길 3-10 3층(신림동)",126.9342677,37.4746859
"남강보습학원","서울특별시 관악구 남부순환로 1713-7 , 2층 (봉천동)",126.9408632,37.4833529
"화인독서실","서울특별시 동작구 만양로14길 50  (노량진동)",126.946923,37.5123135
"이엠아이영어학원","서울특별시 동작구 사당로 160 백경빌딩3층 (사당동)",126.96693,37.4871402
"수학의고수학원","서울특별시 관악구 은천로 123  2층(봉천동)",126.9490534,37.4867824
"시매쓰로커스보습학원","서울특별시 관악구 은천로 114 3층 (봉천동)",126.9479638,37.4865862
"뉴새렘음악학원","서울특별시 관악구 인헌9길 13 2,3층 (봉천동)",126.9674683,37.4728398
"푸르지오음악학원","서울특별시 관악구 남부순환로 1432-7 , 301호 일부 (신림동, 대우빌딩)",126.9101115,37.480417
"하영음악학원","서울특별시 관악구 관악로11길 17 (2층) (봉천동)",126.9511983,37.4776487
"와이즈보습학원","서울특별시 동작구 상도로 303  3층(상도1동)",126.952028,37.4991919
"태경독서실","서울특별시 관악구 서림7길 3 , 1~4층 (신림동)",126.9392676,37.4728063
"미대로가는길미술학원","서울특별시 동작구 상도로 58  3층(대방동)",126.9339651,37.5058521
"최강보습학원","서울특별시 관악구 조원로 160  2층(신림동)",126.9199003,37.4857816
"연세간호학원","서울특별시 관악구 남부순환로 1619  7층(신림동)",126.9304905,37.4846038
"청운고시독서실","서울특별시 관악구 남부순환로226길 40 , 2~3층 (봉천동)",126.9533776,37.4788979
"맨터스미스터정글리쉬보습학원","서울특별시 동작구 서달로 166 덕봉빌딩4층 (흑석동)",126.9628616,37.5077362
"윈독서실","서울특별시 동작구 만양로14가길 22 , (2-5층) (노량진동,휘소항쉬법빌딩)",126.9450921,37.5125251
"차일드유앤클로어학원","서울특별시 동작구 여의대방로 250 , 상가동 상가 5-1호 (대방동, 대림아파트)",126.9295968,37.5126338
"래미안음악학원","서울특별시 동작구 노량진로22길 44 삼성래미안아파트 상가203 (본동)",126.9546477,37.4987708
"수프라임보습학원","서울특별시 관악구 은천로 146  2층(봉천동)",126.951492,37.4862401
"뮤엠영어사당제1보습학원","서울특별시 동작구 사당로16길 44 3,4층 (사당동)",126.9723747,37.4817642
"희망독서실","서울특별시 동작구 만양로14가길 30-8  (사당동)",126.9449436,37.5127094
"공잘보습학원","서울특별시 관악구 남현3길 8  2층(남현동)",126.9771053,37.4746446
"대방정보통신학원","서울특별시 동작구 노량진로 4 , 대방빌딩 3층일부·4층일부 (대방동)",126.9263654,37.5121113
"박문각신남부고시학원","서울특별시 동작구 노량진로 146 , 이데아빌딩 1층일부, 3층, 7층, 8층 (노량진동, 이데아빌딩)",126.9421412,37.5134296
"희소고시학원","서울특별시 동작구 노량진로 146 , 4,5,6층 (노량진동,이데아빌딩)",126.9421572,37.5132179
"오투조은독서실","서울특별시 동작구 여의대방로 210  4,5층(대방동)",126.9262539,37.5080962
"신대성학원","서울특별시 관악구 호암로 534 3층 (신림동)",126.9316446,37.4652463
"프라임수학학원","서울특별시 동작구 상도로 265-40 , 3층 (상도1동,영은빌딩)",126.9503906,37.5026536
"동작한우리국어학원","서울특별시 동작구 사당로23아길 6 3층 (사당동)",126.9703482,37.4909382
"이수보습학원","서울특별시 동작구 동작대로35길  2층36 (사당동)",126.9821484,37.4909197
"와이즈만영재학원","서울특별시 관악구 봉천로 462 , 3층ㆍ5층 (봉천동,은일빌딩)",126.9511873,37.481997
"새지평수림당독서실","서울특별시 동작구 만양로14사길 1  1-5층(노량진동)",126.9471393,37.5123785
"유베스타어학스카이수학학원","서울특별시 동작구 사당로 253-3 4층 (사당동)",126.9757357,37.4836261
"민음악학원","서울특별시 동작구 상도로53길 8  상가503호(상도동, 래미안상도3차아파트)",126.9546477,37.4987708
"깊은생각보습학원","서울특별시 관악구 관악로28길 44 3층 (봉천동)",126.9584654,37.4849331
"베토벤음악학원","서울특별시 동작구 알마타길 37 상가301호(대방동)",126.9289027,37.5120199
"하늘교육상도학원","서울특별시 동작구 상도로38길 3-2 3층(상도1동)",126.9478513,37.5021012
"돌체음악학원","서울특별시 동작구 장승배기로 7  2층(상도동)",126.9433774,37.4992753
"청맥보습학원","서울특별시 관악구 법원단지5길 18 2층 (신림동)",126.9192298,37.4750269
"서울독서실","서울특별시 관악구 관악로5길 30  6층(봉천동)",126.9522319,37.4742312
"수학사랑보습학원","서울특별시 동작구 여의대방로36길 18 , 원아빌딩 3층 (대방동)",126.9237672,37.5048595
"동작에스엘피어학원","서울특별시 동작구 상도로 34 2,3층(대방동)",126.9344718,37.5060053
"한국아파트빌딩전문회계학원","서울특별시 관악구 조원로 24  5층(신림동)",126.9050644,37.483196
"필아트미술관학원","서울특별시 동작구 상도로41가길 6 , 2층 (상도1동)",126.9491255,37.5012864
"해오름어학원","서울특별시 관악구 문성로 93  3,4층(신림동)",126.914005,37.4777154
"신서울학원","서울특별시 동작구 동작대로29길115 우성상가4층(사당동",126.9768607,37.4889332
"제이정의보습학원","서울특별시 동작구 서달로 146  3층(흑석동)",126.9614927,37.5063001
"위더스보습학원","서울특별시 관악구 보라매로 34  4층(봉천동)",126.9270455,37.492409
"이소보습학원","서울특별시 관악구 문성로 93  5층(신림동)",126.914005,37.4777154
"뉴젠학원","서울특별시 관악구 청림3마길 27 , 3층 (봉천동)",126.957324,37.490741
"로젠스터디독서실","서울특별시 관악구 호암로22길 25 2,3층 (신림동)",126.9341706,37.4689436
"은강음악학원","서울특별시 관악구 광신길 154  4층(신림동)",126.9269964,37.4654781
"두영독서실","서울특별시 관악구 미성길 60 상가2층(신림동)",126.9138635,37.4745992
"씨디아이서진보습학원","서울특별시 관악구 호암로26길 57 , (2층) (신림동,아림약국)",126.9368374,37.4703514
"파이브클라스보습학원","서울특별시 관악구 호암로26길 57  3층(신림동)",126.9368468,37.4703562
"은혜음악학원","서울특별시 관악구 쑥고개로 56 2층 (봉천동)",126.9427032,37.4794742
"도형과함수보습학원","서울특별시 관악구 신원로 5 2층(신림동)",126.9278177,37.4797653
"남부한우리학원","서울특별시 관악구 신림로 274 4층 (신림동층)",126.9318104,37.4792582
"파워학원","서울특별시 동작구 성대로1길 8 2층 (상도동)",126.9329608,37.5004413
"4차원속독학원","서울특별시 관악구 낙성대역길 32 , 2층 (봉천동)",126.9613347,37.4761443
"관악청담어학원","서울특별시 관악구 봉천로 462  6층(봉천동)",126.9511873,37.481997
"프라임독서실","서울특별시 동작구 만양로 43  1-3층(노량진동)",126.9472002,37.5080423
"에이튼영어학원","서울특별시 관악구 관악로 287 동아상가3층(봉천동)",126.9557273,37.4896844
"주영광독서실","서울특별시 동작구 만양로14아길 8-6 1-5층",126.9475293,37.5118296
"새지평혜림재독서실","서울특별시 동작구 만양로14바길 24 , (1-3층) (노량진동,새지평독서실)",126.9466274,37.5121009
"창아플러스미술학원","서울특별시 동작구 노량진로 122  1-3층(노량진동)",126.9393298,37.513188
"더샵실용음악학원","서울특별시 관악구 남부순환로247길 3 , 3층 (봉천동)",126.9659224,37.4764819
"위브독서실","서울특별시 관악구 은천로 86 두산아파트 상가1동206-212호 (봉천동)",126.9454472,37.4862663
"더쎈수학보습학원","서울특별시 동작구 여의대방로 22 , 우성쇼핑센타 314 (신대방동,우성아파트)",126.9130405,37.4926776
"글사랑독서실","서울특별시 관악구 은천로 81  2층(봉천동)",126.9442967,37.4869959
"맥스터디학원","서울특별시 관악구 봉천로13길 26 (봉천동)",126.9307004,37.4896318
"금성독서실","서울특별시 관악구 신림로 198  6층(신림동)",126.9368712,37.475022
"하버드독서실","서울특별시 동작구 대방동길 51  3,4층(대방동)",126.9255416,37.5026672
"이찬이대학편입학원","서울특별시 동작구 노량진로 22 2-4층 (대방동)",126.9281307,37.5128454
"임팩트어학원","서울특별시 동작구 동작대로 157  5층(사당동)",126.9822472,37.4907277
"관악폴리어학원","서울특별시 관악구 관악로30길 12 , 봉천 우성아파트 상가동 302호~307호, 309호 (봉천동)",126.9596403,37.4855444
"비전스터디보습학원","서울특별시 관악구 낙성대역4길 3 , 3층 (봉천동)",126.9616304,37.4754404
"이성규수학전문학원","서울특별시 관악구 구암5길 22 , 1~2층 (봉천동)",126.9467646,37.4900977
"조은음악학원","서울특별시 관악구 은천로 78 , 4층 (봉천동)",126.9438763,37.4864173
"아람컴퓨터학원","서울특별시 동작구 동작대로29길 119 우성2단지 상가 404(사당동)",126.977222,37.487794
"관악청명보습학원","서울특별시 관악구 은천로 172-1  (봉천동)",126.954339,37.4857679
"라온음악학원","서울특별시 관악구 구암길 25 , 3층 (봉천동)",126.9475595,37.4890506
"전문가보습학원","서울특별시 관악구 당곡길 70  3층(봉천동)",126.9273515,37.4918062
"노량진메가스터디보습학원","서울특별시 동작구 노량진로 140 , 5층(메가스터디타워) (노량진동, 한국보건산업진흥원)",126.941549,37.5130841
"명성수능영어학원","서울특별시 동작구 상도로 313 (상도1동)",126.9523896,37.5007494
"하늘교육보습학원","서울특별시 동작구 사당로17길 8 , 상가 A동 217호~221호, 228호~232호 (사당동, 대림아파트)",126.9725834,37.4867945
"이레독서실","서울특별시 동작구 노량진로14길 15  1-3층(노량진동)",126.9423122,37.5128165
"에이스타독서실","서울특별시 관악구 신사로 64 2-4층 (신림동)",126.9100017,37.4853293
"대진보습학원","서울특별시 관악구 조원로 56 , 2층 (신림동,진성빌딩)",126.9086803,37.4834321
"영성보습학원","서울특별시 동작구 국사봉1길 146 3층 (상도동)",126.9331754,37.4955343
"디자인티모컴퓨터학원","서울특별시 관악구 남부순환로 1799 , 대영오피스텔 5층, 501호 (봉천동,대영오피스텔)",126.9441141,37.4834888
"텔스영어학원","서울특별시 관악구 인헌길 53  2,3층(봉천동)",126.966843,37.4730966
"관악영재사관학원","서울특별시 관악구 양녕로 74 2층 (봉천동)",126.946662,37.4883794
"위싱웰영어보습학원","서울특별시 관악구 남부순환로 1922 , 별관3층 (봉천동,청동빌딩)",126.962668,37.4770177
"서진스터디독서실","서울특별시 동작구 만양로8길 53 , (2,3,4층) (노량진동,노량진약국)",126.9442523,37.5070693
"샘독서실","서울특별시 동작구 장승배기로 98 , 5,6층 (노량진동,장승빌딩)",126.9398083,37.5061248
"신대방샘독서실","서울특별시 동작구 여의대방로 28 현대상가2층(신대방동)",126.9113669,37.4945424
"신화창조학원","서울특별시 관악구 신림로11길 48  4층(신림동)",126.9386216,37.4682862
"휴먼컴퓨터아트학원","서울특별시 관악구 과천대로 941 지산빌딩6층 (남현동)",126.9814162,37.4746294
"케이투학원","서울특별시 동작구 상도로53길 13 , 래미안3차 단지내 상가 304호, 305호 (상도동, 래미안상도3차아파트)",126.9546477,37.4987708
"중앙음악학원","서울특별시 동작구 상도로 332 3층 (상도동)",126.9512746,37.4984752
"제2노량진메가스터디보습학원","서울특별시 동작구 장승배기로 171 , 7~10층 (노량진동)",126.9399163,37.5129887
"사당예원음악학원","서울특별시 동작구 사당로23아길 1 3층 (사당동)",126.9703798,37.4906952
"정진보습어학원","서울특별시 동작구 상도로 41 2,3층 (대방동)",126.9344718,37.5060053
"본영광독서실","서울특별시 동작구 만양로14라길 21-5 , 1층~5층 (노량진동)",126.9461421,37.5108937
"동작페르마보습학원","서울특별시 동작구 상도로 301 , 3층 (상도1동, 의암빌딩)",126.9491643,37.5016444
"씨엠수학학원","서울특별시 관악구 은천로25길 15  2층(봉천동)",126.9490446,37.4873302
"키움학원","서울특별시 동작구 신대방3길 8 서광빌딩3층 (신대방동)",126.9113667,37.4878072
"남양학원","서울특별시 관악구 남부순환로 1940 남양빌딩3층 (봉천동)",126.9643028,37.4764496
"예당독서실","서울특별시 관악구 은천로 114 4층 (봉천동)",126.9479638,37.4865862
"뉴골든벨독서실","서울특별시 관악구 문성로 102  3,4층(신림동)",126.9148959,37.4774758
"청운독서실","서울특별시 동작구 만양로14가길 10  3,4층(노량진동)",126.9452398,37.5119984
"새하은음악학원","서울특별시 관악구 호암로 528 3층 (신림동)",126.9317212,37.4647145
"잉글리쉬타운에스에스이티어학원","서울특별시 동작구 상도로 366 2-5층 (상도동)",126.9535235,37.49592
"최강어학원","서울특별시 관악구 관악로29길 3  3,6층(봉천동)",126.956418,37.4863675
"버틀러어학원","서울특별시 동작구 상도로39길 37 (상도동)",126.949691,37.5032637
"장선생학원","서울특별시 동작구 여의대방로 182-1 시저스타운2층 (대방동)",126.9219137,37.5031162
"한국커피교육학원","서울특별시 관악구 남부순환로 1905 3,4층 (봉천동)",126.9611264,37.4782815
"하이탑독서실","서울특별시 동작구 상도로45길 31 (상도1동)",126.9448356,37.5049862
"경서독서실","서울특별시 동작구 장승배기로30길 3  (노량진동)",126.9406988,37.5127615
"미선음악학원","서울특별시 관악구 신림로 138 2층 (신림동)",126.9345168,37.4717165
"지앤에스조경학원","서울특별시 동작구 상도로 33 한호빌딩3층 (대방동)",126.9262539,37.5080962
"상도뉴스터디학원","서울특별시 동작구 양녕로 264 , 4층 (상도1동, 노다지사철탕)",126.9485469,37.503313
"재원독서실","서울특별시 동작구 노량진로14가길 16  2-4층(노량진동)",126.9434491,37.512569
"예경오투독서실","서울특별시 동작구 노량진로14길 20  2,3층(노량진동)",126.9423107,37.5125245
"노량진제3한교고시학원","서울특별시 동작구 노량진로 116 , 5~6층 (노량진동)",126.938841,37.5131169
"짱조은독서실","서울특별시 동작구 만양로18길 24  2-3층(노량진동)",126.945545,37.5128977
"참조은독서실-252","서울특별시 동작구 만양로18길 24 4-5층 (노량진동)",126.945545,37.5128977
"점프독서실","서울특별시 동작구 여의대방로44길 9 상가1-5층(대방동)",126.9254944,37.5093489
"줄리스보습학원","서울특별시 관악구 양녕로 74 , 3층 전체 (봉천동)",126.946662,37.4883794
"밤비니지니어스사당학원","서울특별시 동작구 동작대로29길 69 , 303호,307호 일부, 308호 (사당동)",126.9781039,37.4884033
"퀼른음악학원","서울특별시 관악구 난곡로 50 자연빌딩5층일부 (신림동)",127.0209676,37.486462
"주니어랩영어보습학원","서울특별시 관악구 광신길 154 4층(신림동)",126.9269964,37.4654781
"대성독서실","서울특별시 관악구 난우10길 7 3층 (신림동)",126.9181316,37.4762269
"하나방과후보습학원","서울특별시 동작구 동작대로7길 70  2층(사당동)",126.9787992,37.4779472
"슈베르트음악학원","서울특별시 관악구 문성로 222 , 2층 (신림동)",126.9283809,37.4791947
"탑앤탑학원","서울특별시 동작구 만양로 19 신동아리버파크상가301호 (노량진동)",126.9447842,37.5079242
"제3정의학원","서울특별시 동작구 서달로 146  4층(흑석동)",126.9614927,37.5063001
"최강수학보습학원","서울특별시 동작구 여의대방로 210 3층 (대방동)",126.9243798,37.5090684
"더블유실용음악학원","서울특별시 관악구 쑥고개로 139 , 4층(501호ㆍ502호) (봉천동)",126.9520128,37.4788273
"이지독서실","서울특별시 동작구 노량진로 202 남강타워8,9층 (노량진동)",126.9482239,37.5127631
"아이티독서실","서울특별시 동작구 노량진로8길 51  1,2층(노량진동)",126.9381378,37.5123745
"골든벨독서실","서울특별시 동작구 만양로14가길 3  (노량진동)",126.9451231,37.5117712
"해오름독서실","서울특별시 관악구 난향길 24 2,3층(신림동)",126.9176738,37.4628134
"이아이이고려관악2어학원","서울특별시 관악구 난곡로 42 , 파크프라자상가 201~203호 (신림동)",126.9205892,37.460019
"그랜드전문음악학원","서울특별시 관악구 난곡로 42 파크프라자401호 (신림동)",126.9205892,37.460019
"서울보습학원","서울특별시 관악구 난곡로 42 파크프라자501호 (신림동)",126.9205892,37.460019
"선뮤직음악학원","서울특별시 관악구 관악로 244 3층(봉천동)",126.9568625,37.4858731
"강남에듀보습학원","서울특별시 동작구 여의대방로 2 신대방우성스포츠센터201호 (신대방동)",126.90994,37.4922226
"한솔플러스수학학원","서울특별시 관악구 은천로25길 4  2층(봉천동)",126.9490817,37.4869368
"디사이플스보습학원","서울특별시 관악구 문성로16가길 47  3층(신림동)",126.9150715,37.4751068
"강남독서실","서울특별시 관악구 법원단지길 28 5층 (신림동)",126.9192167,37.4741248
"봉천에듀플러스보습학원","서울특별시 관악구 남부순환로 1755 , 3층 (봉천동,한강빌딩)",126.9452832,37.4823004
"피아노피아피아노조율학원","서울특별시 관악구 봉천로 445  2층(봉천동)",126.949505,37.4827083
"동작하이스트보습어학학원","서울특별시 동작구 상도로 34 , 1층 일부, 5층, 6층, 7층 일부 (대방동,산맥빌딩)",126.9262539,37.5080962
"티보습학원","서울특별시 동작구 대방동27길 43 2층 (대방동)",126.9243468,37.5030888
"와이비엠잉글루보습학원","서울특별시 관악구 은천로 81 2층 (봉천동)",126.9442967,37.4869959
"미래학원","서울특별시 관악구 은천로 149 , (1층) (봉천동,행복한감리교회)",126.9520021,37.4865163
"초록음악학원","서울특별시 관악구 관천로11길 90 3층 (신림동)",126.919886,37.4835504
"최일경건축설비기술학원","서울특별시 관악구 남현길 7 한얼프라자401호 (남현동)",126.9776742,37.4760399
"잉글리쉬무무봉천제2학습관보습학원","서울특별시 관악구 인헌길 30  2층(봉천동)",126.9666764,37.4741944
"호크마보습학원","서울특별시 동작구 상도로 71 , (3층) (대방동,성은빌딩)",126.9286448,37.4999859
"동작청담에이프릴어학원","서울특별시 동작구 여의대방로 200  2층(대방동)",126.9343755,37.506182
"연세하늘보습학원","서울특별시 관악구 난곡로 167 , 105동 지하105호,지하106호 (신림동,임광관악파크)",126.9192558,37.469379
"라온트리학원","서울특별시 동작구 상도로 346-2 , 상도엠코타운 애스톤파크 401동 B301 (상도동)",126.9491026,37.496504
"사당간호학원","서울특별시 동작구 동작대로7길 70  3층(사당동)",126.9787992,37.4779472
"쥴리어드음악학원","서울특별시 동작구 장승배기로 142  2층(노량진동)",126.9403991,37.5102791
"포스트모던음악학원","서울특별시 동작구 여의대방로24길 65  5층(대방동)",126.9239051,37.4984841
"합격의법학원","서울특별시 관악구 신림로 77 , 2층ㆍ3층ㆍ4층 (신림동)",126.9407122,37.4703422
"테미스독서실","서울특별시 관악구 신림로 73 2-5층 (신림동)",126.941246,37.4704083
"리더스스터디독서실","서울특별시 관악구 신림로12길 30-4 3,4층 (신림동)",126.9390298,37.4716319
"신한서독서실","서울특별시 동작구 만양로 104  4층(노량진동)",126.9444871,37.5127558
"진수학학원","서울특별시 관악구 난곡로 197 남강빌딩5층 (신림동)",126.9189265,37.47253
"대현보습학원","서울특별시 관악구 남부순환로 1495 , 3층·6층 일부 (신림동, 삼우빌딩)",126.916839,37.4825162
"지앤비(GnB)영어전문학원","서울특별시 관악구 양녕로 58 , 401호 (봉천동)",126.9470838,37.4872542
"예명음악학원","서울특별시 관악구 신림로 264  3층(신림동)",126.9326288,37.4786348
"서일영어인헌학원","서울특별시 관악구 인헌길 40 2층 (봉천동)",126.9665737,37.4736871
"에스디실용음악학원","서울특별시 동작구 양녕로 253-8 (상도1동)  2,3층(상도1동)",126.9471632,37.5032664
"이젠보습학원","서울특별시 동작구 상도로 358  진영빌딩2층(상도동)",126.9280597,37.4968758
"씨엘씨하바드학원","서울특별시 동작구 여의대방로 22 , 우성상가 302호일부·303호",126.9116189,37.4923219
"서문보습학원","서울특별시 관악구 쑥고개로11길 38 , 3층,4층 (봉천동)",126.94268,37.4813617
"대산전기기술학원","서울특별시 동작구 노량진로 226 , 1층일부,2층 (본동)",126.9510418,37.5122861
"유진독서실","서울특별시 관악구 구암길 76 (봉천동)  4층(봉천동)",126.9478914,37.4916693
"김현애보습학원","서울특별시 관악구 난향길 14  2층(신림동)",126.9180505,37.4628745
"수학돼지보습학원","서울특별시 동작구 상도로 219 , 5층 (상도동, 순아타운)",126.9431441,37.5054021
"잉글리쉬스트림보습학원","서울특별시 관악구 당곡길 36  2층(봉천동)",126.928897,37.4908832
"서강프라임어학원","서울특별시 관악구 봉천로 454 , 1층 (봉천동, 미래오피스텔)",126.9477088,37.4824362
"신한림법학원","서울특별시 관악구 신림로23길 16 , 4층 (신림동)",126.9455001,37.4681523
"노량진비타에듀학원","서울특별시 동작구 노량진로 186 , 3층 일부 및 4,5층 (노량진동,한샘학원)",126.9461198,37.5127235
"디엠독서실","서울특별시 동작구 노량진로8길 43  1,2층(노량진동)",126.9378155,37.5124446
"아벨에듀보습학원","서울특별시 관악구 행운1길 50 2층 (봉천동)",126.9570951,37.4809329
"아벨보습학원","서울특별시 관악구 남부순환로 1915 , 4층 일부 (봉천동, 신한빌딩)",126.9621958,37.4778787
"사랑독서실","서울특별시 동작구 성대로39길 2 사랑빌딩4층 (상도동)",126.9413211,37.5005814
"마루사이버독서실","서울특별시 동작구 성대로2길 7 대성빌딩 (상도동)",126.9316928,37.4993477
"베베궁킨더미술학원","서울특별시 관악구 양녕로 50  6층(봉천동)",126.9472347,37.4864085
"연세실용음악학원","서울특별시 관악구 장군봉1길 48 2층 (봉천동)",126.9427008,37.4814934
"수무용학원","서울특별시 동작구 장승배기로 41 문민빌딩 (상도동)",126.9407277,37.5015627
"대한논리논술학원","서울특별시 동작구 여의대방로 250 , 상가동,상가 3-5.3-6호 (대방동, 대림아파트)",126.9295968,37.5126338
"숨실용음악학원","서울특별시 관악구 문성로 82  2층(신림동)",126.9125734,37.4771806
"메인스트림실용음악학원","서울특별시 관악구 남부순환로 1465  3층(신림동)",126.9134763,37.4818968
"미래고시학원","서울특별시 동작구 노량진로 166 , 영빌딩 3층 일부 (노량진동,제일은행노량진지점)",126.944644,37.5134185
"멘토스학원","서울특별시 동작구 사당로23나길 16  2층(사당동)",126.9750009,37.4872555
"세스토킹학원","서울특별시 동작구 장승배기로 4 , 대왕빌딩 2층 (상도동)",126.9438887,37.4992717
"제이비엠수학보습학원","서울특별시 동작구 여의대방로36길 29 상가5층(대방동)",126.9246398,37.5071867
"정인보습학원","서울특별시 동작구 신대방1가길 38 , 2층 213호 (신대방동, 동작상떼빌)",126.9071323,37.4876225
"로고스학원","서울특별시 동작구 국사봉1길 87 2층 (상도동)",126.9318816,37.4976059
"엠에스수학보습학원","서울특별시 관악구 광신길 104  2층(신림동)",126.9259626,37.4637026
"대원교육티처메카고시학원","서울특별시 동작구 노량진로 202 , 2층 (노량진동, 남강타워)",126.9482239,37.5127631
"조선생영어보습학원","서울특별시 동작구 여의대방로 198 남경빌딩2층 (대방동)",126.9224235,37.5043967
"보라매잉글리쉬무무보습학원","서울특별시 관악구 당곡길 11 2층 (봉천동)",126.928782,37.4898315
"봉천에듀플렉스에듀코치학원","서울특별시 관악구 은천로 97 , 3층 일부 (봉천동,공원빌딩)",126.9462732,37.4870794
"웰탑스터디독서실","서울특별시 관악구 신림로23길 21 2~5층 (신림동)",126.9350428,37.4699408
"청명보습학원","서울특별시 동작구 보라매로 59 세종빌딩2층 (신대방동)",126.9733032,37.5717841
"에이엔티영상음악학원","서울특별시 관악구 남부순환로 1492 2층 (신림동)",126.9163917,37.4818596
"서울강남어학원","서울특별시 관악구 난곡로 210 5층 (신림동)",126.9184995,37.4736875
"타임에듀하이스트보습학원","서울특별시 동작구 상도로 39 4층,5층 (대방동)",126.9262539,37.5080962
"더베스트영어보습학원","서울특별시 동작구 상도로 231  2층(상도동)",126.9445057,37.5054097
"멘토수학전문보습학원","서울특별시 동작구 상도로 214 , 5층 (상도동,성은빌딩)",126.9286707,37.5000143
"고설아보습학원","서울특별시 동작구 여의대방로36길 4 2층 (대방동)",126.9224691,37.5038961
"하늘독서실","서울특별시 동작구 여의대방로 284  3,4층(대방동)",126.9254966,37.5119547
"서울예술음악학원","서울특별시 관악구 난향길 5 (신림동)",126.9185189,37.4626859
"토킹월드어학원","서울특별시 동작구 상도로 219 순아타운2층 (상도동)",126.9431441,37.5054021
"동작정이조외국어학원","서울특별시 동작구 상도로 213 , 3~4층 (상도동, 세담빌딩)",126.9425638,37.5054825
"에임하이보습학원","서울특별시 동작구 여의대방로24사길 12 , 2층 (대방동, 백향빌딩)",126.925416,37.4993511
"연세플러스보습학원","서울특별시 관악구 난곡로 53 , 402호ㆍ404호 (신림동,관악산휴먼시아)",126.919867,37.459186
"주니퍼실용음악학원","서울특별시 동작구 국사봉1길 3 남지빌딩4층401호 (대방동)",126.928754,37.4990422
"윌비스임용고시학원","서울특별시 동작구 노량진로 202 남강빌딩5층 (노량진동)",126.9482239,37.5127631
"수학여행보습학원","서울특별시 관악구 쑥고개로 92-1 1,2층(봉천동)",126.9467667,37.479069
"뿌리영어보습학원","서울특별시 관악구 신림로 169  5층(신림동)",126.9337003,37.4741978
"숙명음악학원","서울특별시 동작구 상도로 43-2 , 2,3층 (대방동,덕성빌딩)",126.9254765,37.5001531
"양세희수능영어학원","서울특별시 관악구 관악로30길 12 우성아파트 상가210~212호 (봉천동)",126.959439,37.4850876
"배민효영어수학보습학원","서울특별시 동작구 서달로 158 명수대상가202호 (흑석동)",126.9622783,37.5072918
"일등급수학보습학원","서울특별시 관악구 은천로 80 3층 (봉천동)",126.9442288,37.4865187
"반석음악학원","서울특별시 관악구 쑥고개로 73-1 3층(청룡동)",126.9447482,37.4795763
"탑클래스스터디독서실","서울특별시 관악구 신림로17길 87 1,2층 (신림동)",126.9365496,37.4668358
"캐슬파크독서실","서울특별시 동작구 만양로 19 , 신동아상가 403호 (노량진동,신동아리버파크임대아파트)",126.9513889,37.5094444
"잉글리쉬무무관악신사보습학원","서울특별시 관악구 남부순환로161길 9 2층 (신림동)",126.9212677,37.4836288
"대양독서실","서울특별시 관악구 신림로23길 62  2,3층(신림동)",126.9343423,37.4681612
"사당대성보습학원","서울특별시 동작구 사당로23길 191 1,2층 (사당동)",126.97054,37.4904767
"전미화영수학원","서울특별시 동작구 등용로 127 , 대방동현대아파트103동상가(다동) 301호 일부 (대방동, 대방동현대아파트)",126.931031,37.512652
"관악원더랜드랭콘잉글리쉬어학원","서울특별시 관악구 은천로25길 63 , 한빛프라자 5층 501호 (봉천동,한빛프라자)",126.9486211,37.4888231
"노량진한빛독서실","서울특별시 동작구 노량진로 148-3 3~5층 (노량진동)",126.9423778,37.5133748
"윤선생영어숲동작보습학원","서울특별시 동작구 사당로 264-1 5층 (사당동)",126.9772292,37.4834715
"윤선생영어숲대방어학원","서울특별시 동작구 여의대방로 28 상가112동A501호(신대방동)",126.9121213,37.4946422
"종로엠신림보습학원","서울특별시 관악구 난곡로 50 , 2층 일부ㆍ4층 일부 (신림동, 신림동 1735-8 제2종근린생활시설 (자연기 )",126.9201169,37.4604317
"서울무용학원","서울특별시 관악구 문성로 95 (신림동,3층)",126.9141534,37.4776952
"위너스스터디독서실","서울특별시 관악구 신림로28길 49-8 , 2층~5층 (신림동)",126.9363071,37.4725391
"잉글리쉬무무청룡제1보습학원","서울특별시 관악구 쑥고개로 61-1 3층 (봉천동)",126.9434126,37.4796769
"아이들의창작갤러리미술학원","서울특별시 관악구 관악로 251 , 4층 (봉천동)",126.9567764,37.4868581
"미소인스터디독서실","서울특별시 동작구 장승배기로 169  (노량진동)",126.9399995,37.512703
"윤선생영어숲대방대림어학원","서울특별시 동작구 상도로 63 , 진성마블러스 2층 (대방동)",126.9262539,37.5080962
"케이유유레카보습학원","서울특별시 동작구 국사봉길 18 2층 (신대방동)",126.9289533,37.4983425
"뉴형설학원","서울특별시 동작구 양녕로 281 3층(상도1동)",126.9494402,37.5045356
"율보습학원","서울특별시 동작구 상도로53길 65 1층(상도동)",126.9538133,37.5028687
"아세아음악학원","서울특별시 관악구 시흥대로 540 3층 (신림동)",126.9006283,37.4813013
"윤선생영어숲신림북부보습학원","서울특별시 관악구 난곡로34길 5 , 2층 (신림동)",126.9196425,37.472587
"씨티아이한국경영학원","서울특별시 관악구 남부순환로 1385 3층 (신림동)",126.9046778,37.4802469
"아르꼬망세미술학원","서울특별시 관악구 은천로 78 3층 (봉천동)",126.9438763,37.4864173
"키맨학원","서울특별시 관악구 관악로30길 12 우성아파트 상가405호,406호일부 (봉천동)",126.959439,37.4850876
"점프잉글리쉬어학원","서울특별시 동작구 알마타길 28 1층일부,2층 (대방동)",126.9280729,37.5109572
"하나씨엠에스보습학원","서울특별시 동작구 매봉로 40 1,2층(상도1동)",126.9514008,37.5065182
"뉴명문독서실","서울특별시 동작구 만양로8길 63 , 2~4층 (노량진동)",126.9457891,37.5102589
"스페이스독서실","서울특별시 관악구 복은4길 37 지1층~4층 (신림동)",126.9378415,37.4726862
"예스보습학원","서울특별시 동작구 보라매로7가길 1 3층 (신대방동)",126.9264784,37.4936355
"공학원","서울특별시 동작구 보라매로 77 2층 (신대방동)",126.9273965,37.4962506
"킨더키즈어학원","서울특별시 동작구 양녕로25사길 21 2,3층,4층일부 (상도동)",126.9404936,37.4976699
"튼튼영어마스터클럽사당서린보습학원","서울특별시 동작구 사당로16길 90 1,2층 (사당동)",126.9712727,37.4799273
"케이팝실용음악학원","서울특별시 동작구 양녕로 257 , 4층 (상도1동, 외환은행상도역지점)",126.9472799,37.5031253
"보노컴퓨터학원","서울특별시 관악구 신림로 202 , 4층 (신림동, 신성빌딩)",126.9158945,37.4883766
"예지독서실","서울특별시 동작구 만양로18길 14  (노량진동)",126.9449906,37.5129837
"에스엘에이독서실","서울특별시 관악구 관악로 132 (봉천동)",126.9527058,37.4769682
"유로보습학원","서울특별시 관악구 양녕로 58 2층(봉천동)",126.9470838,37.4872542
"보라매야마하음악학원","서울특별시 동작구 보라매로5가길 16 , 508,509호 (신대방동, 보라매아카데미타워)",126.924422,37.491289
"눈높이러닝센터상도약수학원","서울특별시 동작구 양녕로26길 29 파크빌딩2층 (상도동)",126.9441999,37.4971688
"오향플로리스트학원","서울특별시 관악구 남부순환로 1919 , 3층 (봉천동)",126.9626084,37.4776503
"뉴스카이독서실","서울특별시 관악구 은천로 25 7층 (봉천동)",126.9382515,37.4863705
"옵티머스독서실","서울특별시 동작구 등용로 85 , 2~7층 (대방동)",126.9319353,37.5089928
"관악리더스보습학원","서울특별시 관악구 봉천로 307  2층(봉천동)",126.9349875,37.4866592
"조선생보습학원","서울특별시 동작구 여의대방로 202 3층 (대방동)",126.9243798,37.5090684
"아이비실용음악학원","서울특별시 관악구 남부순환로 1648 5층 (신림동)",126.9338947,37.4844724
"준독서실","서울특별시 동작구 만양로12길 16 2층~4층 (노량진동)",126.9462984,37.5100787
"윤선생영어숲사당학원","서울특별시 동작구 사당로 172 2층 (사당동)",126.9678859,37.4864565
"열공독서실","서울특별시 관악구 남부순환로161길 63  2층~3층 (신림동)",126.9188551,37.4849475
"밤비니지니어스보습학원","서울특별시 동작구 장승배기로 37 4층 (상도동)",126.9409449,37.5012727
"미래지도자보습학원","서울특별시 관악구 낙성대로3길 23-3 , 2층 및 3층 (봉천동)",126.9603499,37.4743515
"이젠수학·과학전문학원","서울특별시 관악구 양녕로 93 블루밍센터빌딩301호 (봉천동)",126.9451461,37.489958
"프라미스보습학원","서울특별시 동작구 동작대로29길 69  두성프라자401호 (사당동)",126.9781039,37.4884033
"메가탑보습학원","서울특별시 관악구 조원로 160-1  2층 (신림동)",126.9200751,37.4858084
"소리여울사당국악학원","서울특별시 동작구 동작대로 71 태농빌딩502호 (사당동)",126.9815359,37.4828122
"눈높이러닝센터신사보습학원","서울특별시 관악구 조원로 128 3층 (신림동)",126.9166326,37.4850668
"윤선생영어교실보라매영어숲보습학원","서울특별시 관악구 보라매로 4 3층 (봉천동)",126.9279646,37.4898962
"관악분원정상어학원","서울특별시 관악구 남부순환로 1761 2층 (봉천동)",126.9459775,37.4822093
"일등공습학원","서울특별시 관악구 보라매로 14 3층 (봉천동)",126.9276035,37.4906381
"동방카스속기학원","서울특별시 동작구 남부순환로271길 17 , 3~4층 (사당동)",126.979924,37.4775362
"씨앤엘보습학원","서울특별시 동작구 상도로 252 3층일부 (상도동)",126.9463069,37.5043986
"이젠수학ㆍ논술학원","서울특별시 관악구 은천로25길 69 , 에이플러스프라자 4층 402호 일부(404호) (봉천동,에이플러스프라자)",126.9483289,37.4890187
"원일보습학원","서울특별시 관악구 중앙1나길 2  (봉천동)",126.9534518,37.4835525
"신상카스컴퓨터속기학원","서울특별시 동작구 노량진로 204 2층 (노량진동)",126.9484209,37.5127782
"숙명무용학원","서울특별시 관악구 은천로25길 63 한빛프라자3층305호 (봉천동)",126.9486211,37.4888231
"티케이보습학원","서울특별시 동작구 시흥대로 676 , 2층일부, 4층일부 (신대방동, 창성빌딩)",126.9091728,37.4916816
"관악소마수학보습학원","서울특별시 관악구 관악로 251 , 3층 (봉천동)",126.9567764,37.4868581
"이엔티프렌즈보습학원","서울특별시 관악구 은천로 97  7층(봉천동)",126.9462732,37.4870794
"에이엠에스인터내셔널어학원","서울특별시 동작구 상도로 213 세담빌딩1층 (상도동)",126.9425638,37.5054825
"윤선생영어숲관악인헌보습학원","서울특별시 관악구 봉천로 594 3층일부(302호) (봉천동)",126.9631615,37.476236
"제1관인앤지보습학원","서울특별시 동작구 상도로 73 4층 (대방동)",126.9340944,37.5134599
"유림실용음악학원","서울특별시 관악구 신림로 300 , 웅산빌딩 301호 (신림동, 웅산빌딩)",126.9303377,37.4811
"영전보습학원","서울특별시 관악구 관악로 203 엔젤빌딩602호 (봉천동)",126.9537798,37.4832668
"로고스음악학원","서울특별시 동작구 국사봉1길 87 1,4층 (상도동)",126.9318816,37.4976059
"넷트레인아이티학원","서울특별시 동작구 동작대로 149 , 2층·3층 (사당동, 대흥빌딩)",126.9822768,37.4899054
"핵심수학보습학원","서울특별시 동작구 상도로 297 , 3층 (상도1동)",126.9503906,37.5026536
"윤선생영어교실흑석보습학원","서울특별시 동작구 서달로14가길 1 303호 (흑석동)",126.9631751,37.5077304
"오르다학원","서울특별시 관악구 남부순환로 1434 5층 (신림동)",126.9100168,37.4806332
"에듀윌고시학원","서울특별시 동작구 노량진로 26 , 4층,5층,10층일부,11층 (대방동, 솔표빌딩)",126.9289136,37.5129129
"나리발레무용학원","서울특별시 동작구 동작대로35길 18 3층 (사당동)",126.9813773,37.4910788
"주신음악학원","서울특별시 관악구 조원로 158 2,3층 (신림동)",126.9196634,37.4857424
"눈높이러닝센터신대방보습학원","서울특별시 동작구 상도로 58 동백빌딩2층 (대방동)",126.9262539,37.5080962
"눈높이러닝센터인헌보습학원","서울특별시 관악구 인헌6길 21 4층 (봉천동)",126.9655085,37.4738661
"제니스숭실베어드어학원","서울특별시 동작구 상도로 346 (상도동,우일빌딩 4층)",126.9491026,37.496504
"진명독서실","서울특별시 관악구 남부순환로 1796 삼호빌딩8층 (봉천동)",126.9495781,37.4812853
"이티영어보습학원","서울특별시 동작구 여의대방로36길 29 , 2층 일부 (대방동,대림아파트)",126.9246398,37.5071867
"감성미술음악학원","서울특별시 관악구 낙성대역16길 13 , 1~2층 (봉천동)",126.9647888,37.4734219
"이화보습학원","서울특별시 관악구 난곡로 197 남강빌딩6층 (신림동)",126.9189265,37.47253
"시대인재보습학원","서울특별시 관악구 남부순환로 1783 , 4층ㆍ7층 (봉천동)",126.9483549,37.4820007
"나래요리학원","서울특별시 관악구 은천로 42 , 2층 (봉천동)",126.9400053,37.4859709
"가람독서실","서울특별시 관악구 호암로 584 , 1층 (신림동, 가림스터디)",126.9330021,37.469316
"눈높이러닝센터신원보습학원","서울특별시 관악구 신원로3가길 1 2,3층 (신림동)",126.9278984,37.4813149
"제일명문독서실","서울특별시 동작구 만양로2길 2 (4~5층) (상도동)",126.9477199,37.5062277
"미술로생각하기관악서울대미술학원","서울특별시 관악구 은천로 114 6층3호 (봉천동)",126.9479638,37.4865862
"정호올림피아드보습학원","서울특별시 관악구 남부순환로 1517 5층 (신림동)",126.91906,37.4829635
"미술로생각하기상도미술학원","서울특별시 동작구 만양로3길 80 3층 (노량진동)",126.9406805,37.5055773
"엠앤이영어수학학원","서울특별시 관악구 신림로 265 202호 (신림동)",126.9318251,37.4782212
"일신영어수학보습학원","서울특별시 관악구 난곡로 255 , 2, 3층 (신림동,일양)",126.9154341,37.4766915
"인헌독서실","서울특별시 관악구 인헌6길 16 3층 (봉천동)",126.9659943,37.4740596
"아이비음악학원","서울특별시 관악구 은천로25길 63 한빛프라자202호 (봉천동)",126.9486211,37.4888231
"브니엘넥서스스터디독서실","서울특별시 관악구 호암로 582 2~4층 (신림동)",126.9329098,37.4692043
"쉬즈네일미용학원","서울특별시 관악구 남부순환로 1903 2층 (봉천동)",126.9609539,37.4783341
"튼튼영어마스터클럽신대방보습학원","서울특별시 동작구 상도로 45 , 미성빌딩 3층 (대방동,미성빌딩)",126.9258296,37.4995324
"박문각남부경찰학원","서울특별시 동작구 노량진로 146 , 중1층,9층,10층 (노량진동)",126.9421572,37.5132179
"에코실용음악학원","서울특별시 동작구 상도로 73 보광빌딩3층일부 (대방동)",126.9289206,37.4998754
"신동성환경기술학원","서울특별시 동작구 노량진로 4 , 4층 일부 (대방동,대방빌딩)",126.9289136,37.5129129
"눈높이러닝센터상도성대보습학원","서울특별시 동작구 성대로 18 2층 (상도동)",126.9324799,37.4995836
"하늘교육동작학원","서울특별시 동작구 동작대로39길 22 , 이수힐스테이트아파트단지내상가 2층 233~237 (동작동)",126.9781509,37.4946969
"셀파수학보습학원","서울특별시 관악구 관악로 244 201호 (봉천동)",126.9568625,37.4858731
"성운보컬알에이치티실용음악학원","서울특별시 관악구 봉천로 298 3층 (신림동)",126.9336616,37.4863922
"온스테이지실용음악학원","서울특별시 관악구 신림로 340 르네상스쇼핑몰1303호,1304호 (신림동)",126.9300144,37.4845963
"수피아보습학원","서울특별시 관악구 구암5길 16 , 2층~3층 (봉천동)",126.9470722,37.490014
"숭실테리앤제니어학원","서울특별시 동작구 상도로41가길 3 1,2층(상도1동)",126.9499799,37.5023391
"희소독서실","서울특별시 동작구 노량진로 206 4층 (노량진동)",126.9486562,37.5126965
"스마트독서실","서울특별시 동작구 노량진로14가길 11 5층(노량진동)",126.9431121,37.5128011
"스마트투독서실","서울특별시 동작구 노량진로14가길 11 6층(노량진동)",126.9431121,37.5128011
"스마트쓰리독서실","서울특별시 동작구 노량진로14가길 11 7층(노량진동)",126.9431121,37.5128011
"튼튼영어마스터클럽상도보습학원","서울특별시 동작구 만양로 16 3층 (상도동)",126.9474354,37.5060333
"아트원스토리게임그래픽학원","서울특별시 관악구 신림로 303 , 3층 (신림동,호림빌딩)",126.9297306,37.481437
"청어람보습학원","서울특별시 관악구 난곡로 244 3층 (신림동)",126.9165314,37.4758645
"해말글창논술학원","서울특별시 관악구 관악로 251 5층 (봉천동)",126.9567764,37.4868581
"예바스무용학원","서울특별시 동작구 상도로 332 , 2층 (상도동)",126.9512746,37.4984752
"필름스테이션영화학원","서울특별시 동작구 여의대방로22길 48 2층(신대방2동)",126.9225735,37.4975727
"노량진대성학원","서울특별시 동작구 노량진로 120 , 2층 일부, 7층 일부 (노량진동)",126.9400363,37.5125771
"맵플러스수학보습학원","서울특별시 동작구 만양로 16 2층 (상도동)",126.9474354,37.5060333
"쥴리스이화음악학원","서울특별시 동작구 상도로 219 순아타운4층일부(좌측) (상도동)",126.9431441,37.5054021
"두드림독서실","서울특별시 동작구 상도로 121 , 3층 (상도동,영진빌딩)",126.9226525,37.5045898
"비츠실용음악학원","서울특별시 관악구 신림로 134 7층 (신림동)",126.934831,37.4716391
"경원오투독서실","서울특별시 동작구 상도로47길 4 이화빌딩2층 (상도동)",126.9514462,37.4995147
"솔잎샘수학영어학원","서울특별시 관악구 난곡로 254 2층,3층 (신림동)",126.9158981,37.4766642
"개념원리수학동작상도제1보습학원","서울특별시 동작구 양녕로27길 23 두영빌딩2층 (상도동)",126.9425047,37.4989305
"고운소리음악학원","서울특별시 관악구 성현로 80 관악드림타운주상가동211호 (봉천동)",126.951836,37.4893411
"윌비스고시학원","서울특별시 동작구 만양로 105 , (2층 일부, 3층, 4층) (노량진동)",126.9439876,37.5128063
"오플러스독서실","서울특별시 관악구 신림로30길 11-13  (신림동)",126.9361019,37.4735419
"와이비엠잉글루난향제1보습학원","서울특별시 관악구 난곡로 42 파크프라자402호 (신림동)",126.9205892,37.460019
"튼튼영어동작지사마스터클럽사당본원보습학원","서울특별시 동작구 사당로13길 6 3층 (사당동)",126.9727828,37.4842493
"문단열의아이스펀지잉글리쉬관악어학원","서울특별시 관악구 보라매로 15 , (3,4층) (봉천동)",126.926988,37.4907406
"창조의아침본원미술학원","서울특별시 관악구 남부순환로 1797 호혜빌딩3층일부 (봉천동)",127.0123019,37.4809348
"케네디영수보습학원","서울특별시 관악구 인헌17길 3 2층 (봉천동)",126.968043,37.470512
"이상화쌤수학보습학원","서울특별시 관악구 호암로 530 4층 (신림동)",126.9317114,37.4649261
"이룸독서실","서울특별시 관악구 인헌6길 9 4층 (봉천동)",126.9662011,37.4738145
"에이치피에스킨더하우스어학원","서울특별시 관악구 관악로30길 12 우성타운상가410호,503호,505호 (봉천동)",126.9582793,37.4861554
"이희영국어보습학원","서울특별시 관악구 호암로 534 2층(신림동)",126.9316446,37.4652463
"노량진비타에듀3.0입시학원","서울특별시 동작구 노량진로 186 , 2층 및 3층 일부 (노량진동,한샘학원)",126.9461198,37.5127235
"눈높이러닝센터사당에이스보습학원","서울특별시 동작구 동작대로29길 69 두성프라자402호일부 (사당동)",126.9781039,37.4884033
"솔로몬플러스독서실","서울특별시 동작구 노량진로16길 14, 3층,4층 (노량진동)",126.9436046,37.5129281
"더큼미술학원","서울특별시 동작구 동작대로29길 69 두성프라자403호 (사당동)",126.9781039,37.4884033
"이룸보습학원","서울특별시 관악구 난곡로 189 명성빌딩5층 (신림동)",126.9192816,37.4718962
"해찬솔보습학원","서울특별시 관악구 봉천로 218 3층 (신림동)",126.9257106,37.4895288
"드림앤피아노음악학원","서울특별시 관악구 남부순환로 1728 4층 (봉천동)",126.9420171,37.4821045
"오엠디예술종합무용학원","서울특별시 관악구 남부순환로 1925 8층 (봉천동)",126.9632709,37.4774876
"탑패스행정학원","서울특별시 관악구 신림로 122  2층(신림동)",126.9358669,37.471298
"그림배우기미술학원","서울특별시 동작구 상도로 252  (상도동)",126.9463069,37.5043986
"디자인창조의아침미술학원","서울특별시 동작구 노량진로 118  (노량진동)",126.9391023,37.513195
"어반플레이댄스학원","서울특별시 관악구 남부순환로 1530 , 4층,5층 (신림동)",126.9206151,37.4826209
"원스톱보습학원","서울특별시 동작구 신대방14길 16 지하1층 (신대방동)",126.9113431,37.4896649
"빌드윈용접학원","서울특별시 관악구 신사로 92 3층 (신림동)",126.9129928,37.4865544
"소올미술학원","서울특별시 관악구 은천로25길 63 , 한빛프라자 205호 (봉천동,한빛프라자)",126.9486211,37.4888231
"에듀킨미용학원","서울특별시 관악구 신림로 353 6층 (신림동)",126.9291752,37.4857317
"백송미술학원","서울특별시 동작구 노량진로 145  (노량진동)",126.9420481,37.5138179
"액팅원연기학원","서울특별시 동작구 동작대로7길 56 , 2층 액팅원연기학원 (사당동)",126.9791656,37.4784388
"파라오쥬니어미술학원","서울특별시 동작구 남부순환로 2053  (사당동)",126.9767743,37.4768656
"따뜻한아이티컴퓨터학원","서울특별시 관악구 문성로 236 평희빌딩4층 (신림동)",126.9297267,37.4787669
"관악예원음악학원","서울특별시 관악구 미성8길 1 2층 (신림동)",126.9134722,37.4742154
"엘티에스행정학원","서울특별시 관악구 신림로 89 A호2층 (신림동)",126.9395117,37.4702513
"노리안서울대점학원","서울특별시 관악구 양녕로 93 블루밍센타빌딩302호,501호,502호 (봉천동)",126.9451461,37.489958
"예원독서실","서울특별시 동작구 노량진로10길 32 (노량진동)",126.9374056,37.5120003
"탑스터디보습학원","서울특별시 관악구 남현7길 2 , 2층 (남현동)",126.9758911,37.4733132
"최강알파보습학원","서울특별시 관악구 장군봉1길 35 , 2층 전체 (봉천동,삼성체육관)",126.9603062,37.473014
"시사와이비엠잉글루보습학원","서울특별시 관악구 성현로 80 401동 2호(봉천동, 관악드림타운)",126.951836,37.4893411
"푸른이엠보습학원","서울특별시 동작구 노량진로 254  (본동)",126.9548075,37.5124403
"하우패스고시학원","서울특별시 관악구 신림로 91 , 3층 2호, 3호 (신림동)",126.9390781,37.4702988
"탄츠플레이무용학원","서울특별시 관악구 남부순환로 1796 , 9층 일부 (봉천동,삼호빌딩)",126.9495781,37.4812853
"요미요미신대방학원","서울특별시 동작구 대림로 22 , 6층 (신대방동, 천보빌딩)",126.9107333,37.4872724
"크리스챤쇼보뷰티미용학원","서울특별시 관악구 남부순환로 1630 4층 (신림동)",126.9317592,37.4841999
"탑경찰고시학원","서울특별시 동작구 노량진로 171-3 (노량진동)",126.9457233,37.5142112
"아이비보습학원","서울특별시 동작구 사당로16길 28 (3층) (사당동)",126.9728498,37.4823333
"생각수학보습학원","서울특별시 관악구 청림6길 19-3  2층 (봉천동)",126.9593025,37.4864506
"윤선생영어숲대방남부보습학원","서울특별시 동작구 여의대방로 250 , 상가동 상가 5-1호 (대방동, 대림아파트)",126.9295968,37.5126338
"김민수과학보습학원","서울특별시 동작구 국사봉1길 3 , 301호 (대방동)",126.9287522,37.4990381
"베르디음악학원","서울특별시 관악구 은천로 153 2층 (봉천동)",126.9524472,37.4864242
"홍수학보습학원","서울특별시 동작구 상도로 217-4 (상도동)",126.942865,37.5053806
"제이제이애견미용학원","서울특별시 관악구 시흥대로 550 , 3층 (신림동)",126.9012398,37.4820026
"싸임수학보습학원","서울특별시 관악구 남부순환로 1769 2층 (봉천동)",126.9469311,37.4820997
"탑클래스보습학원","서울특별시 동작구 여의대방로36길 36 , 2층, 3층 (대방동,호림빌딩)",126.9251825,37.5057797
"더크는킨더어학원","서울특별시 동작구 성대로31길 2 , 2층, 3층 (상도동,화성탕)",126.9406055,37.4998406
"노리안상도점학원","서울특별시 동작구 상도로 218 , 2층 (상도동, 차량정비상가)",126.9428672,37.5049815
"한솔브레인보라매학원","서울특별시 동작구 보라매로5가길 16 , 402호 (신대방동, 보라매아카데미타워)",126.924422,37.491289
"로프트독서실","서울특별시 관악구 서림길 125 (신림동)",126.9406782,37.4711466
"에듀모어교원임용고시학원","서울특별시 동작구 노량진로 202 , 남강빌딩 4층 일부, 6층 (노량진동,남강타워)",126.9482239,37.5127631
"상도씨엠피실용음악학원","서울특별시 동작구 상도로 379 , 우신빌딩 2층 (상도동)",126.9549512,37.4952343
"제이앤제이음악학원","서울특별시 동작구 사당로23나길 34  (4층) (사당동)",126.975726,37.4878123
"키즈킹덤유아놀이학원","서울특별시 동작구 보라매로5가길 16 , 302호 (신대방동, 보라매아카데미타워)",126.920282,37.499929
"행운러닝센터보습학원","서울특별시 관악구 남부순환로 1873 , 2층일부 (봉천동,대주빌딩)",126.9579593,37.4795196
"석세스고시학원","서울특별시 관악구 신림로 376 , 201호,402호 (신림동, 대경빌딩)",126.9289208,37.4878712
"신한솔독서실","서울특별시 동작구 노량진로14나길 22 , 1층~2층 (노량진동)",126.9432778,37.5118799
"윤선생영어교실관악영어숲보습학원","서울특별시 관악구 은천로 64 3층 (봉천동)",126.9425004,37.4860004
"박샘에듀보습학원","서울특별시 관악구 신림로 169 , 701호, 702호 (신림동, 영창빌딩)",126.9337003,37.4741978
"아모르이그잼교원임용학원","서울특별시 동작구 노량진로 104 , 14층 (노량진동)",126.9373735,37.5130659
"세잔느이앤에이키즈클럽미술학원","서울특별시 동작구 상도로 352 , (4층) (상도동)",126.9526044,37.4969534
"눈높이러닝센터대방보습학원","서울특별시 동작구 등용로 122  (대방동)",126.9321667,37.5119647
"아모르이그잼학원","서울특별시 동작구 노량진로 104 , 3~13층 (노량진동)",126.9373735,37.5130659
"디실용음악학원","서울특별시 동작구 동작대로 141 , 3층 (사당동)",126.9820406,37.4891996
"카페말로바리스타학원","서울특별시 동작구 장승배기로 18 , 3층 (상도동)",126.9427568,37.5001383
"미래연미술학원","서울특별시 동작구 사당로16길 80 2층 (사당동)",126.9714849,37.4803626
"이투스입시학원","서울특별시 동작구 노량진로 196 , 7층~9층 (노량진동)",126.947502,37.5129701
"대방유투엠학원","서울특별시 동작구 대방동길 83 , 2층 (대방동,정일학원)",126.9245509,37.5054226
"윤선생영어숲관악성현보습학원","서울특별시 관악구 은천로25길 63 , 한빛프라자 304호 (봉천동,한빛프라자)",126.9486211,37.4888231
"타임국어과학보습학원","서울특별시 관악구 남부순환로 1536 , 은성빌딩 402호 (신림동,은성빌딩)",126.9213108,37.482794
"오투2관독서실","서울특별시 동작구 노량진로 196 , JH빌딩 10층 (노량진동)",126.9812394,37.4815022
"지앤비영어정의학원","서울특별시 동작구 흑석한강로 2 , 506호, 507호 (흑석동, 흑석한강센트레빌 상가)",126.9583513,37.5024381
"라임트리영어수학세상보습학원","서울특별시 동작구 흑석한강로 2 , 504호, 505호 (흑석동, 흑석한강센트레빌 상가)",126.9583513,37.5024381
"프라임법고시학원","서울특별시 관악구 신림로 90 , 3층 일부ㆍ4층 전부 (신림동,국제헬스)",126.9393649,37.4709069
"매쓰온매쓰 청강수학 보습학원","서울특별시 관악구 양녕로 58 , 고운빌딩 402호 (봉천동)",126.9470838,37.4872542
"키위잉글리시보습학원","서울특별시 동작구 등용로 124 , 2층 일부 (대방동,삼하빌딩)",126.9321507,37.5122151
"클라비어음악학원","서울특별시 동작구 상도로 338 , 3층 (상도동,영화빌딩)",126.9359199,37.502653
"이지스터디보습학원","서울특별시 동작구 여의대방로 30 , 401,404,405호 (신대방동,현대아파트)",126.9123113,37.4949035
"아담리즈놀이수학","서울특별시 관악구 양녕로 58 , 고운타워 6층 (봉천동)",126.9535822,37.4794085
"대학의촉학원","서울특별시 동작구 상도로 41 , 4층 (대방동,미진빌딩)",126.9251432,37.4999587
"노량진필독서실","서울특별시 동작구 장승배기로28길 19 , 1,2,3층 (노량진동,가동)",126.941327,37.5124166
"은혜독서실","서울특별시 동작구 사당로 261 , 3층, 4층 (사당동,매직고시원)",126.9761109,37.4836005
"비콘영어전문학원","서울특별시 관악구 난곡로 246 , 3층ㆍ4층 (신림동,해천빌딩)",126.9164163,37.4759283
"씨사이트원격학원","서울특별시 관악구 남부순환로233길 13 , 2층 우측 (봉천동)",126.9580454,37.480079
"스카이멘토원격학원","서울특별시 관악구 신림로36길 15 , 1층 (신림동)",126.9383152,37.4760379
"한성경영금융학원","서울특별시 관악구 조원중앙로 13 , 2층 (신림동)",126.9048432,37.4810819
"바오밥미술창작소학원","서울특별시 관악구 관악로 246 , 4층(실제 구조상 3층) (봉천동)",126.9570048,37.4860474
"와이즈리더영어독서학원","서울특별시 관악구 양녕로 50 , 금강빌딩 3층 (봉천동,금강빌딩)",126.9472347,37.4864085
"비에스에듀보습학원","서울특별시 동작구 사당로 276 , 성보빌딩 4층 일부 (사당동,성보빌딩)",126.9784923,37.4838789
"동작프로기사바둑학원","서울특별시 동작구 상도로 336 , 태영빌딩 3층 (상도동,태영빌딩)",126.9515574,37.4982093
"에비뉴학원","서울특별시 동작구 강남초등길 24 , 4층 (상도1동)",126.9519603,37.5050833
"윤스연기학원","서울특별시 동작구 동작대로 141 , 5층 (사당동)",126.9820406,37.4891996
"에이비알통역학원","서울특별시 관악구 관악로 115 , 캠브리지 빌딩 202호 (봉천동)",127.0293553,37.4980163
"해성독서실","서울특별시 관악구 난곡로 180 , 3층 (신림동,해성빌딩)",126.9200334,37.4710732
"법문스터디독서실","서울특별시 관악구 호암로22길 26 (신림동,신림동 상아탑)",126.9341372,37.4687522
"이용구원격학원","서울특별시 관악구 봉천로41길 8 , 도원빌라 102호 (봉천동,도원빌라)",126.9480063,37.4830743
"닥터정이클래스관악보습학원","서울특별시 관악구 은천로25길 63 , 한빛프라자 302호 (봉천동,한빛프라자)",126.9486211,37.4888231
"타겟실용음악학원","서울특별시 관악구 남부순환로 1933 , 3층 (봉천동)",126.9641448,37.4770817
"미소독서실","서울특별시 동작구 만양로14가길 17 ,  4층 (노량진동,신광대중목욕탕)",126.9448514,37.5122716
"요미요미사당학원","서울특별시 동작구 동작대로29길 69 , 두성상가 206호 (사당동)",126.9781039,37.4884033
"앤플러스학원","서울특별시 관악구 미성3길 13 , 3층 (신림동)",126.9168313,37.4739633
"지안공무원학원","서울특별시 동작구 노량진로 166 , 2층 일부 (노량진동,제일은행노량진지점)",126.944644,37.5134185
"아뜰리에플러스미술학원","서울특별시 동작구 만양로 19 , 신동아리버파크아파트 상가 211호, 212호, 302호 (노량진동,신동아리버파크임대아파트)",126.9447842,37.5079242
"고려영어보습학원","서울특별시 동작구 상도로55길 1 , 4층 (상도동,강현빌딩)",126.9309984,37.5029825
"눈높이러닝센터숭실보습학원","서울특별시 동작구 상도로49길 11 , 3층 (상도동)",126.9521158,37.4992206
"쿨펫애견미용학원","서울특별시 동작구 동작대로 49 , 3~4층 (사당동)",126.9814755,37.4810123
"행복한음악학원","서울특별시 관악구 쑥고개로11길 41 , 3층(우측 2호) (봉천동,보안빌딩)",126.9422532,37.4815446
"아트정미술학원","서울특별시 관악구 은천로 95 , 502동 201호, 202호 (봉천동,벽산블루밍)",126.9444472,37.4883216
"한국외식조리전문학원","서울특별시 관악구 봉천로 227 , 보라매샤르망 301호 (봉천동,보라매 샤르망)",126.9271155,37.4898766
"눈높이러닝센터신림난곡보습학원","서울특별시 관악구 난우길 20 , 3층 (신림동,금창빌딩)",126.918621,37.4747474
"주니보습학원","서울특별시 관악구 문성로 214 , 4층 (신림동,성부빌딩)",126.9026747,37.4475758
"네오진명보습학원","서울특별시 관악구 남부순환로 1796 , (6층, 7층) (봉천동,삼호빌딩)",126.9495781,37.4812853
"이큐브보습학원","서울특별시 관악구 남부순환로 1457 , 2층 (신림동,임포빌딩)",126.9125294,37.4816998
"꿈이크는보습학원","서울특별시 관악구 법원단지9길 3 , 2층 (신림동)",126.920316,37.474334
"동작소마논술학원","서울특별시 동작구 상도로 34 , 4층 (대방동,산맥빌딩)",126.9337729,37.5057666
"금수학학원","서울특별시 동작구 상도로 315 , 2층 (상도1동,상정빌딩)",126.9507265,37.4999832
"여기는관리형2독서실","서울특별시 관악구 신림로 125 (신림동)",126.9354697,37.4706835
"엔탑스터디보습학원","서울특별시 관악구 은천로11길 7 , 1층 (봉천동)",126.9417879,37.4864148
"조이음악학원","서울특별시 관악구 남부순환로 1430 , 신림푸르지오아파트 단지내상가 209호 (신림동,신림푸르지오)",126.9103675,37.4792665
"성진비전학원","서울특별시 동작구 동작대로11길 77 , 성진교회 3층 일부 (사당동)",126.9771348,37.4809289
"세지말스피치학원","서울특별시 동작구 동작대로 71 , 5층 일부 (사당동)",126.9815359,37.4828122
"한국아이씨티학원","서울특별시 동작구 사당로 307 , (4층) (사당동,장덕빌딩)",126.9815401,37.4855055
"퓨처키즈보라매학원","서울특별시 동작구 보라매로5가길 16 , 610호 (신대방동,보라매아카데미타워)",126.924422,37.491289
"민액터스연기학원","서울특별시 동작구 남부순환로 2067 , (6층 일부) (사당동,정석빌딩)",126.9785513,37.4768827
"비타에듀원격학원","서울특별시 동작구 노량진로 186 , (본관 1층 일부, 2층 일부, 신관 6층) (노량진동,한샘학원)",126.9461198,37.5127235
"주라바이올린음악학원","서울특별시 관악구 낙성대로 24-1 , 2층 및 3층 (봉천동)",126.9587763,37.4762128
"오즈독서실","서울특별시 동작구 노량진로 144 , 3,4층 (노량진동,제일고시학원)",126.9418517,37.5133881
"뮤엠영어대방학원","서울특별시 동작구 대방동27길 111 , 3층 (대방동,영진빌딩)",126.9241816,37.5001796
"미래한국인학원","서울특별시 관악구 봉천로 455 , 태영빌딩 4층 (봉천동)",126.9279488,37.4898488
"수리술사보습학원","서울특별시 관악구 양녕로 30 , 청운빌딩 4층 (봉천동,청운빌딩)",126.9469516,37.4845877
"아트채널취미실용미술학원","서울특별시 관악구 남부순환로 2044 , 3층 (남현동,동해빌딩)",126.9759723,37.4762125
"대림간호학원","서울특별시 관악구 남부순환로 1668 , 연안빌딩 5층 (신림동,연안빌딩)",126.9357815,37.4845163
"뮤엠영어관악제1보습학원","서울특별시 관악구 호암로 511 , 벽산블루밍상가 301호 (신림동,벽산블루밍아파트)",126.9313103,37.4639354
"에이블2독서실","서울특별시 관악구 호암로26길 7 , 2층 (신림동,서경독서실)",126.9341154,37.470879
"지앤비남성보습학원","서울특별시 동작구 사당로13길 31 , 두산위브아파트 상가 3층 1호 (사당동)",126.970839,37.484917
"뮤지큐유리드믹스음악학원","서울특별시 관악구 남현1길 10 , 1층ㆍ2층 (남현동)",126.978018,37.4756987
"고운소리예원음악학원","서울특별시 동작구 만양로 84 , 201호 (노량진동,삼익주상복합아파트)",126.9450577,37.5108466
"찬영어학원","서울특별시 동작구 상도로 399 , 상가 305호 (상도동,삼호아파트)",126.9575014,37.4933767
"우리인재베이커리카페학원","서울특별시 관악구 남부순환로 1708 , 3층 (봉천동)",126.9397268,37.4828778
"로드맵보습학원","서울특별시 동작구 여의대방로 28 , 707 현대상가B동 205,206,223,224,226,227,228호 (신대방동,현대아파트)",126.9123113,37.4949035
"원탑학원","서울특별시 동작구 여의대방로22길 88 , 3층 (신대방동, 경원빌딩)",126.9248378,37.4977089
"타임영어학원","서울특별시 동작구 상도로 336 , 2층 (상도동,태영빌딩)",126.9515574,37.4982093
"아이에스엘보습학원","서울특별시 관악구 신림로 136 , 2~3층 (신림동)",126.9346665,37.4716809
"이에스엘영어학원","서울특별시 관악구 청림6길 3 , 관악푸르지오상가동 206호 일부, 213호 (봉천동)",126.9598942,37.4875731
"최이진실용음악학원","서울특별시 관악구 남부순환로 1845-7 , 3층 (봉천동)",126.9548931,37.4808144
"프라임간호학원","서울특별시 관악구 남부순환로 1597 , 4층 (신림동,대영빌딩)",126.9001184,37.480655
"아모르이그잼경찰학원","서울특별시 동작구 노량진로 156 , 6층 (노량진동,노량진센타빌딩)",126.9432469,37.5133529
"메가씨에스티경찰공무원학원","서울특별시 동작구 노량진로 140 , 6층 (노량진동, 한국보건산업진흥원)",126.9415705,37.5129522
"제이앤제이미술학원","서울특별시 동작구 사당로23나길 34 , (3층) (사당동,초롱미술학원)",126.975726,37.4878123
"동광에스티학원","서울특별시 동작구 성대로1길 26 , 1층 일부, 3층 일부 (상도동,동광교회)",126.9348644,37.5018753
"에듀윌원격학원","서울특별시 동작구 노량진로 26 , 4층 일부 (대방동,솔표빌딩)",126.9289136,37.5129129
"웅진하이잉글리시보습학원","서울특별시 관악구 신원로 15 , 2층 (신림동,박소아과의원)",126.9276331,37.4807296
"윌비스경찰학원","서울특별시 동작구 만양로 105 , 5층 (노량진동)",126.9439876,37.5128063
"씨엠에스융합사고력수학학원","서울특별시 동작구 상도로31길 19 , 브라운스톤상도 상가동 B101호, B102호, B103호 (상도동,브라운스톤 상도)",126.9437801,37.5060138
"즐겨찾는음악학원","서울특별시 관악구 은천로 97 ,  외 3필지 (봉천동,공원빌딩)",126.9462732,37.4870794
"서울대분원합격의법학원","서울특별시 관악구 관악로17길 3 , 서진빌딩2~4층 (봉천동,서진빌딩)",126.9515086,37.480606
"엘리스영어학원","서울특별시 동작구 흑석한강로 27 , 흑석한강푸르지오 상가D동 B101호 (흑석동)",126.9658614,37.5035423
"킨더메르헨어학원","서울특별시 동작구 흑석한강로 27 , 흑석한강푸르지오 상가D동 B201호, B202호 (흑석동)",126.9658614,37.5035423
"관악요미요미학원","서울특별시 동작구 보라매로5가길 16 , 610호 일부 (신대방동,보라매아카데미타워)",126.9240603,37.491293
"키즈놀이학원","서울특별시 동작구 동작대로13길 29 , 1층 (사당동)",126.9784675,37.4816278
"빅터스연기학원","서울특별시 동작구 사당로 4 , 3층, 4층 (상도동)",126.9548386,37.4953631
"창조의아침입시미술학원","서울특별시 관악구 남부순환로 1783 , 외 1필지(2층) (봉천동)",126.9483549,37.4820007
"액터게이트연기학원","서울특별시 동작구 사당로 254 , 4층 (사당동,서림빌딩)",126.9759768,37.4831056
"서울대분원합격의법학원독서실","서울특별시 관악구 관악로17길 3 , 서진빌딩 5층 (봉천동,서진빌딩)",126.9515086,37.480606
"윈플스공무원학원","서울특별시 동작구 노량진로 188 , 1층일부,4층,8층,9층 (노량진동)",126.9467592,37.5131842
"에이엠에스어학원","서울특별시 동작구 상도로 233 , 4층 (상도동,농협)",126.9447826,37.5054239
"리만수학학원","서울특별시 동작구 상도로 37 , 2층 (대방동)",126.9343755,37.506182
"플랜듀보습학원","서울특별시 관악구 관악로 246 , 5층 (봉천동)",126.9570048,37.4860474
"이수정해법영어학원","서울특별시 관악구 신림로 113 , 장안빌딩 3층 (신림동)",126.9366491,37.4705896
"프라임에듀보습학원","서울특별시 동작구 사당로17길 75 , (2층, 4층) (사당동)",126.9723222,37.4862609
"숲나리딩스터디보습학원","서울특별시 동작구 상도로53길 13 , 래미안상도3차아파트 상가동 5층 502호 (상도동,래미안상도3차아파트)",126.9546477,37.4987708
"에이스독서실","서울특별시 동작구 노량진로 114 , 2층 일부 (노량진동,청탑학원)",126.9386138,37.5129295
"김창수실용음악학원","서울특별시 관악구 난곡로 303 , 2층  (신림동)",126.914399,37.4809565
"올퍼스트보습학원","서울특별시 동작구 성대로1길 6 , 2층 (상도동)",126.9328147,37.5002985
"트리니티음악학원","서울특별시 동작구 흑석한강로 2 , 상가동 304호 일부, 503호 (흑석동,흑석한강센트레빌 상가)",126.9583513,37.5024381
"씽크빅학습센터대림학원","서울특별시 동작구 상도로 45 , 3층 (대방동,미성빌딩)",126.9499464,37.4990981
"에이치에스독서실","서울특별시 동작구 사당로13길 36 , 2층~5층 (사당동)",126.9720899,37.4856336
"책보미책먹는보습미술학원","서울특별시 관악구 난우길 39 , 2층 및 3층 (신림동)",126.9173827,37.4761038
"엠지아이메가법학원","서울특별시 관악구 신림로 127 , 201호ㆍ302호 (신림동)",126.9352458,37.4707698
"한국자전거정비기술학원","서울특별시 관악구 봉천로 456-6 , 3층 (봉천동)",126.9504444,37.4820814
"이젠수학학원","서울특별시 동작구 동작대로29길 110 , 신동아아파트상가 303호, 308호 (사당동,신동아아파트)",126.9760224,37.4897954
"에이펙스영어학원","서울특별시 동작구 동작대로29길 110 , 신동아아파트상가 301호, 302호 (사당동,신동아아파트)",126.9760224,37.4897954
"대방탑클래스학원","서울특별시 동작구 여의대방로36길 32 , 2,3층 (대방동,신우빌딩)",126.9248931,37.5056246
"에스이엠(SEM)영어학원","서울특별시 동작구 상도로 21 (대방동)",126.9261969,37.4999493
"코어잉글리시보습학원","서울특별시 관악구 봉천로 445 , 봉천빌딩 4층 (봉천동,봉천외과)",126.949505,37.4827083
"티티카카음악학원","서울특별시 동작구 매봉로 42 ,   (상도1동)",126.951492,37.5066289
"제로인테리어필름학원","서울특별시 관악구 봉천로 289 , 3층 (봉천동,평화빌딩)",126.9334206,37.4872937
"아트원댄스학원","서울특별시 관악구 남부순환로 1686 , 4층 (신림동,S&G빌딩)",126.9375957,37.4838164
"공감국어학원","서울특별시 동작구 상도로 21 (대방동)",126.9261969,37.4999493
"보라매영어수학학원","서울특별시 관악구 당곡길 22 , 3층 일부 (봉천동,천일약국)",126.9291971,37.4902209
"은천해법영어학원","서울특별시 관악구 인헌12길 46-1 , 은천A상가301~305호 (봉천동,은천아파트)",126.9645291,37.4698797
"프리메라미용학원","서울특별시 동작구 사당로30길 142 , 3층 (사당동)",126.9805335,37.4785281
"오름보습학원","서울특별시 관악구 난곡로 209 , 3층 (신림동)",126.9181141,37.4734452
"글로벌경영경제학원","서울특별시 관악구 호암로24길 64 , 3층 (신림동,소산고시원)",126.9365948,37.469233
"건반이야기음악학원","서울특별시 동작구 알마타길 20 (대방동)",126.9272974,37.5109241
"메티스수학학원","서울특별시 관악구 남부순환로 1783 , 1층일부,3층 (봉천동)",126.9483549,37.4820007
"서울커피교육학원","서울특별시 관악구 봉천로 474 , 5층 (봉천동)",126.9525322,37.4818756
"더존독서실","서울특별시 동작구 장승배기로 164 , 2층 (노량진동,원남빌딩)",126.9404323,37.5121743
"흑석이화음악학원","서울특별시 동작구 서달로 91 , 흑석한강센트레빌2차 상가동 B101호 (흑석동)",126.9583513,37.5024381
"원리영어학원","서울특별시 관악구 신림로 135 , 육일빌딩 302호 (신림동,육일빌딩)",126.9340598,37.471129
"이레학원","서울특별시 동작구 사당로 215 (사당동,서림빌딩)",126.9699845,37.4853062
"어썸팩토리독서실","서울특별시 관악구 남부순환로 1487 , 2층 (신림동,성환빌딩)",126.9159493,37.4823556
"금호발레학원","서울특별시 동작구 상도로 265-40 (상도1동,영은빌딩)",126.9509745,37.499962
"에이엠수학학원","서울특별시 관악구 호암로 531 , 3층 (신림동)",126.9312846,37.4649655
"이룸에스씨영어수학학원","서울특별시 동작구 상도로 48 , 덕원빌딩 301호, 302호 (대방동, 덕원빌딩)",126.9258734,37.4996092
"피앤에스음악학원","서울특별시 동작구 상도로 346-1 , 상도엠코타운센트럴파크 상가1동 207호, 208호일부 (상도동,상도 엠코타운 센트럴파크)",126.9509774,37.4954415
"에스지에스영재보습·놀이학원","서울특별시 관악구 봉천로27길 62 , 청용빌딩 4층 전부 (봉천동,쌍용빌딩)",126.9418642,37.4858496
"봉천한솔플러스보습학원","서울특별시 관악구 관악로30길 12 , 봉천 우성아파트 상가동 409호 (봉천동)",126.9596403,37.4855444
"아샘학원","서울특별시 동작구 상도로31길 19 , B104호 (상도동, 브라운스톤 상도)",126.9437801,37.5060138
"알고리즘서울학원","서울특별시 관악구 남부순환로 1502 , 3층 (신림동)",126.9174731,37.4819849
"성훈학원","서울특별시 동작구 장승배기로 34 , 3층, 5층 (상도동,대한카센타)",126.94155,37.5011078
"벨라음악학원","서울특별시 동작구 장승배기로 4 , 3층 (상도동)",126.9438887,37.4992717
"콕영어학원","서울특별시 동작구 대방동23길 4 , 2층 (대방동)",126.925287,37.5040903
"뮤직스테이션실용음악학원","서울특별시 관악구 은천로 78 , 2층 (봉천동)",126.9438763,37.4864173
"홍선생미술학원","서울특별시 관악구 성현로 80 , 관악드림타운 주상가 401-1 (봉천동,관악드림타운)",126.951836,37.4893411
"빨강크레용아트미술학원","서울특별시 동작구 등용로 119 , 유진빌딩 3층 2호 (대방동,유진빌딩)",126.9317811,37.5117073
"넥스처영어학원","서울특별시 동작구 사당로14길 13 , 2층 (사당동,골든빌딩)",126.9719626,37.4833744
"수학의비밀로고스학원","서울특별시 동작구 사당로23나길 24 , 2층·3층 (사당동)",126.9753783,37.4875237
"아모르이그잼공무원경찰학원","서울특별시 동작구 노량진로 156 , 2~3층 (노량진동,노량진센타빌딩)",126.9432469,37.5133529
"어린음악대음악학원","서울특별시 관악구 난곡로 53 , 관악산휴먼시아 상가 208호 (신림동,관악산휴먼시아)",126.919867,37.459186
"국제댄스학원","서울특별시 관악구 시흥대로 552-1 , 5층 (신림동)",126.9014422,37.4822343
"한국건축토목학원","서울특별시 동작구 노량진로 169 , 7층 일부, 9층 (노량진동, 순만빌딩)",126.9448309,37.5140464
"동작하이스트논술학원","서울특별시 동작구 상도로 39 , 2층 전체 (대방동,혜성빌딩)",126.9249256,37.5000314
"여기는관리형3독서실","서울특별시 관악구 신림로14길 36 (신림동)",126.9387938,37.4720127
"새영광독서실","서울특별시 동작구 만양로14라길 21-5 , 지하1층 (노량진동,영광고시원)",126.9467107,37.5090714
"위너메디학원","서울특별시 관악구 승방1길 6 , 1층 (남현동)",126.981209,37.4734952
"메리실용음악학원","서울특별시 동작구 신대방길 81 , 2층전체 (신대방동)",126.9095108,37.4893822
"미댄스스포츠학원","서울특별시 관악구 난곡로 288 , 4층(402호) (신림동,남진빌딩)",126.915164,37.4795768
"황선생수학국어학원","서울특별시 동작구 대방동길 86 , 2층전체 (대방동,곡성빌딩)",126.9245598,37.5054024
"남부댄스학원","서울특별시 관악구 남부순환로 1490 , 2층 (신림동)",126.9160984,37.4818128
"목동수학원","서울특별시 동작구 상도로 325 , 3층 (상도동,원조마포소금구이)",126.9514342,37.4991921
"난곡크림미술학원","서울특별시 관악구 난곡로 259 , 2ㆍ3층 (신림동,태진빌딩)",126.9152282,37.4771279
"동그라미어학원","서울특별시 동작구 사당로30길 64 , 2층,3층일부 (사당동)",126.9807641,37.4819495
"빈뮤직음악학원","서울특별시 동작구 사당로30길 64 , 4층,5층 (사당동)",126.9807641,37.4819495
"띠아모댄스스포츠학원","서울특별시 관악구 남부순환로 1620 , 2층 (신림동)",126.9307004,37.4840768
"이지댄스학원","서울특별시 관악구 신림로 322 , 5층 일부",126.930123,37.482939
"전홍태안시은댄스스포츠학원","서울특별시 관악구 조원로 56 , 3층 (신림동,진성빌딩)",126.9086803,37.4834321
"배우지오연기학원","서울특별시 동작구 사당로 216 , 4층 (사당동)",126.972017,37.4840264
"덕승마스터학원","서울특별시 관악구 인헌길 68 , 낙성현대아파트 B상가 201호 (봉천동)",126.9655289,37.4727683
"영재지앤비영어학원","서울특별시 관악구 남부순환로260길 5 , 2층 (남현동,두원빌딩)",126.9737411,37.475612
"소리풍경음악학원","서울특별시 동작구 양녕로28길 8 , 3층 (상도동,태성빌딩)",126.9444648,37.4989146
"신림우리경찰학원","서울특별시 관악구 신림로 119 , 2층ㆍ3층 (신림동,일천고시연구원)",126.9360512,37.4706545
"위즈영어학원","서울특별시 관악구 양녕로 74 , 4층 일부(4층 101호) (봉천동)",126.946662,37.4883794
"놀이로자라는아이창의학원","서울특별시 동작구 상도로 329 , 3층 일부 (상도동)",126.9516629,37.4989337
"크림미술학원","서울특별시 관악구 남부순환로 1648 , 2층·3층 (신림동, 두림빌딩)",126.9339206,37.4844607
"딸기수학과학학원","서울특별시 동작구 상도로 93 , 5층 (상도동)",126.9308044,37.5000992
"성적올리는수학학원","서울특별시 관악구 문성로 94-1 , 2층 (신림동)",126.9141804,37.4773873
"윈수학학원","서울특별시 관악구 난곡로 235 , 2층ㆍ3층 (신림동)",126.9164905,37.4752568
"오선생국어학원","서울특별시 동작구 여의대방로 198 , 3층 (대방동,남경빌딩)",126.9224235,37.5043967
"에스엔이학원","서울특별시 동작구 상도로 45 , 4층 (대방동,미성빌딩)",126.9258296,37.4995324
"올림피아드유투엠학원","서울특별시 관악구 난곡로 42 , 파크프라자상가 302호 (신림동)",126.9205892,37.460019
"오렌지음악학원","서울특별시 관악구 관악로40길 47 , 209호ㆍ303호 (봉천동,현대아파트)",126.9655289,37.4727683
"무한돌파수학학원","서울특별시 동작구 등용로 122 , 2층일부 (대방동,우리은행대방북지점)",126.93217,37.5119573
"신은혜음악학원","서울특별시 동작구 매봉로 72 , 1층일부, 2층 (상도1동,은혜피아노)",126.9516068,37.5079571
"영재음악학원","서울특별시 관악구 남부순환로260길 5 , 3층 (남현동,두원빌딩)",126.9737411,37.475612
"한국소방사관학원","서울특별시 동작구 노량진로 4 , 5층 (대방동, 대방빌딩)",126.926226,37.5123668
"에듀웰상도미술학원","서울특별시 동작구 장승배기로 23 , 4층 (상도동,성모빌딩)",126.9420027,37.5002367
"이티엑스영어학원","서울특별시 동작구 성대로 205 , 2층 (상도동)",126.9409312,37.5000805
"뮤엠영어인헌보습학원","서울특별시 관악구 낙성대역4길 3 , 3층 (봉천동)",126.9616304,37.4754404
"제이앤제이댄스스포츠학원","서울특별시 동작구 대림로 57 , 6층일부 (신대방동,거성타워)",126.9071041,37.4881706
"꿈있는독서실","서울특별시 관악구 남부순환로 1837 , 6·7층 전부 (봉천동,샤론빌딩)",126.9544607,37.4808538
"해피에듀학원","서울특별시 관악구 관악로 287 , 401호 (봉천동,성현동아아파트)",126.957729,37.488488
"경단기수석관고시학원","서울특별시 관악구 신림로23길 16 , 301호ㆍ302호ㆍ304호 (신림동)",126.9344648,37.470442
"김샘학원","서울특별시 동작구 사당로 234 , 4층 일부 (사당동,호림빌딩)",126.9733016,37.4831049
"맥스학원","서울특별시 동작구 대방동23길 45 , 4층 (대방동)",126.9321507,37.5122151
"한우리독서실","서울특별시 동작구 노량진로8길 39 , 4층, 5층일부 (노량진동,한우리고시원)",126.9374938,37.5125597
"플래뮤미술학원","서울특별시 관악구 성현로 80 , 관악드림타운주상가 501호 일부(좌측) (봉천동,관악드림타운)",126.951836,37.4893411
"맑은소리음악학원","서울특별시 관악구 관악로37길 15 , 201호ㆍ202호ㆍ203호 (봉천동,동아타운21)",126.9571126,37.4889328
"레몬아이학원","서울특별시 동작구 사당로16가길 103 , 2층 (사당동)",126.9683758,37.4851182
"플레이아트예모듬창작소미술학원","서울특별시 동작구 상도로 329 , 2층 일부 (상도동)",126.9516629,37.4989337
"러브락뮤직아트학원","서울특별시 동작구 사당로23나길 16 , 4층 (사당동, 대흥장로교회)",126.9750009,37.4872555
"하브루타학원","서울특별시 관악구 남부순환로 1500 , 7층 (신림동, 매원빌딩)",126.9172556,37.4820163
"서울대입구씨앤씨미술학원","서울특별시 관악구 남부순환로 1789 , 3층 (봉천동)",126.9490471,37.4819005
"봉천동어썸팩토리독서실","서울특별시 관악구 은천로 143 , 201, 202, 203호 (봉천동, 관악동부센트레빌)",126.9509189,37.4870996
"케이엘씨(KLC)학원","서울특별시 동작구 상도로 134 , 3층 일부 (상도동, 할머니보쌈)",126.934753,37.5019757
"제우스보습학원","서울특별시 관악구 봉천로 245 , 3층 (봉천동)",126.9290254,37.4892526
"열매독서실","서울특별시 관악구 남부순환로 1777 , 3층 (봉천동, 금영빌딩)",126.9476415,37.4820168
"광일독서실","서울특별시 동작구 만양로14아길 11 , 지하2층 (노량진동)",126.9480949,37.5120689
"키즈아이블럭학원","서울특별시 관악구 관악로30길 12 , 215호ㆍ216호(봉천우성아파트상가동) (봉천동, 봉천 우성아파트)",126.9596403,37.4855444
"에스티통기타노래학원","서울특별시 관악구 신림로58길 13 , 504호ㆍ505호 (신림동, S-빌딩)",126.9288968,37.4851976
"노량진한국법학원","서울특별시 동작구 만양로 100 , 302호, 402호 (노량진동)",126.9443888,37.5123476
"눈높이러닝센터남현러닝보습학원","서울특별시 관악구 남현4길 1 , 302호 (남현동)",126.976692,37.4750258
"이제마독서실","서울특별시 관악구 관악로24길 14 , 4층 (봉천동, 호삼빌딩)",126.9555399,37.4838945
"신렉스법학원","서울특별시 관악구 호암로 597 , 2층ㆍ3층 (신림동, 동천장여관)",126.9514812,37.480385
"해오름학원","서울특별시 관악구 은천로25길 27 , 202호ㆍ203호 (봉천동, 하우젠-빌)",126.9493042,37.4879227
"신세계컴퓨터학원","서울특별시 관악구 남부순환로 1777 , 4층 (봉천동, 금영빌딩)",126.9476415,37.4820168
"김기범수학과학학원","서울특별시 관악구 호암로 518 , 2층 (신림동)",126.9318039,37.4639025
"렉스스터디독서실","서울특별시 관악구 호암로 597 , 4-5층 (신림동, 동천장여관)",126.9332475,37.47074
"뮤엠관악학원","서울특별시 관악구 청룡4길 46 , 1층 (봉천동)",126.9435813,37.4811102
"유베스타영어학원","서울특별시 관악구 난곡로 50 , 2층 일부 (신림동)",126.9201169,37.4604317
"위너스편입학원","서울특별시 동작구 등용로 119 , 유진빌딩 4층 일부 (대방동, 유진빌딩)",126.9317811,37.5117073
"한상준적성시험전문학원","서울특별시 관악구 호암로24길 64 , 4층ㆍ5층 (신림동)",126.9365948,37.469233
"솔베이과학학원","서울특별시 동작구 여의대방로36길 18 , 4층 (대방동)",126.9237672,37.5048595
"현민수학전문학원","서울특별시 동작구 상도로 346 , 5층 (상도동, 우일빌딩)",126.9520484,37.4975711
"이룸학원","서울특별시 동작구 상도로 48 , 201호, 202호 (대방동, 덕원빌딩)",126.9258734,37.4996092
"극예술연기학원","서울특별시 동작구 사당로 261 , 2층 (사당동)",126.9765856,37.4837335
"액티브리더십스피치교육학원","서울특별시 관악구 봉천로 450 , 2층 (봉천동)",126.9498111,37.4821668
"쎈수학러닝센터관악드림학원","서울특별시 관악구 성현로 80 , 관악드림타운 주상가동 304호 (봉천동)",126.951836,37.4893411
"창의톡톡학원","서울특별시 관악구 청림6길 3 , 관악푸르지오상가동 307호ㆍ308호 (봉천동)",126.9598942,37.4875731
"전문가학원","서울특별시 동작구 대방동15가길 23 , 한성빌딩 303호 (대방동, 한성빌딩)",126.9234807,37.5038657
"분석에듀학원","서울특별시 동작구 상도로 45 , 6층 (대방동, 미성빌딩)",126.9258296,37.4995324
"개선문독서실","서울특별시 동작구 장승배기로28길 26 , 1~5층 (노량진동, 정진고시원)",126.9417623,37.5122664
"라스학원","서울특별시 동작구 동작대로29길 69 , 402호 일부 (사당동)",126.9781039,37.4884033
"노무사단기고시학원","서울특별시 관악구 호암로26길 9 , 6층일부, 7층, 8층 (신림동)",126.9342569,37.4708284
"배우훈련소연기학원","서울특별시 동작구 사당로13길 86 , 현대상가 3층 (사당동, 현대아파트)",126.9703763,37.4879821
"엠코해법영어학원","서울특별시 동작구 상도로56길 4 , 2층 (상도동)",126.9527168,37.4961877
"두형호스파르타독서실","서울특별시 동작구 장승배기로27길18 , 2층",126.9390259,37.5116454
"형학원","서울특별시 동작구 대방동길 86 , 4~5층 (대방동)",126.9245509,37.5054226
"종로페르마보습어학원","서울특별시 관악구 남부순환로 1495 , 2층·5층·6층일부 (신림동, 삼우빌딩)",126.9168628,37.4825145
"매직행정법자물쇠학원","서울특별시 관악구 신림로 128 , 3층 (신림동)",126.9352486,37.4714501
"동작정이조주니어영어학원","서울특별시 동작구 상도로 213 , 2층 (상도동, 세담빌딩)",126.9425638,37.5054825
"서울대입구민병철어학원","서울특별시 관악구 남부순환로 1832 , 3층, 4층 (봉천동)",126.9534873,37.480683
"눈높이러닝센터보라매보습학원","서울특별시 동작구 신대방길 88 , 3층 좌측 (신대방동, 신대방어린이집)",126.9096286,37.4896797
"예인무용학원","서울특별시 관악구 은천로 42 , 5층 (봉천동)",126.9400053,37.4859709
"비욘드어드밴스트어학원","서울특별시 관악구 은천로25길 69 , 501호 (봉천동, 에이플러스프라자)",126.9483289,37.4890187
"민병철주니어어학원","서울특별시 관악구 관악로30길 12 , 상가동 401호·402호 (봉천동, 봉천 우성아파트)",126.9596403,37.4855444
"수탐대세수학학원","서울특별시 동작구 대방동23길 45 , 2층 (대방동)",126.9227889,37.5039126
"에스앤티보습학원","서울특별시 동작구 사당로23나길 32 , 3층 (사당동)",126.9756323,37.4877196
"최강수학2관보습학원","서울특별시 동작구 여의대방로 216 , 지101 (대방동)",126.9285309,37.5137348
"이해법수학학원","서울특별시 동작구 사당로23아길 6 , 2층 (사당동)",126.9703482,37.4909382
"도트임용전문미술학원","서울특별시 동작구 장승배기로 125 , 2층·3층 (노량진동, SK텔레콤)",126.9399153,37.5087412
"대치개념의힘학원","서울특별시 관악구 난곡로 50 , 5층 일부 (신림동, 신림동 1735-8 제2종근린생활시설 (자연기 )",126.9201169,37.4604317
"다마스쿠스학원","서울특별시 관악구 난곡로 270 , 3층 일부 (신림동, 승지빌딩)",126.9155337,37.4781556
"아트원라인음악연기학원","서울특별시 관악구 남부순환로 1686 , 3층 (신림동, S&G빌딩)",126.9375957,37.4838164
"제이케이벤즈꽃플로리스트학원","서울특별시 동작구 동작대로 71 , 4층 일부 (사당동)",126.9815359,37.4828122
"어썸스터디타워독서실","서울특별시 관악구 남부순환로 1487 , 3~4층 (신림동, 성환빌딩)",126.9159493,37.4823556
"이지아이티컴퓨터학원","서울특별시 동작구 사당로 300 , 이수자이 404호·405호·406호 (사당동)",126.9804085,37.4839828
"배우생각연기학원","서울특별시 동작구 동작대로7길 97 , 2층 (사당동)",126.9778602,37.4770759
"시크릿발레에스학원","서울특별시 관악구 신림동길 13 , 3층 (신림동)",126.9272826,37.4871355
"마중물제1관보습학원","서울특별시 관악구 당곡길 36 , 4층 일부 (봉천동)",126.928897,37.4908832
"더블유열린보습학원","서울특별시 동작구 여의대방로 2 , 신대방동우성스포츠센타 203호, 205호 (신대방동)",126.9109226,37.4935981
"노량진트렌디독서실","서울특별시 동작구 노량진로 206 , 6층 (노량진동, 백명트렌디타워)",126.9486562,37.5126965
"다옴학원","서울특별시 동작구 여의대방로 90 , 2층·4층 (신대방동)",126.9218725,37.4917447
"핀스피치학원","서울특별시 동작구 노량진로 124 , 3층 (노량진동)",126.9396243,37.5132357
"가온플러스수학학원","서울특별시 동작구 장승배기로 98 , 4층 (노량진동, 장승빌딩)",126.9398083,37.5061248
"탑플래너학원","서울특별시 관악구 남부순환로 1474 , 3층 일부 (신림동)",126.9141956,37.4814196
"제이와이학원","서울특별시 동작구 대방동길 86 , 3층 (대방동, 곡성빌딩)",126.9245598,37.5054024
"예종발레하우스학원","서울특별시 동작구 상도로53길 13 , 래미안상도3차아파트 상가동 604호 (상도동)",126.9546477,37.4987708
"슈어학원","서울특별시 동작구 여의대방로36길 30 , 3층 (대방동)",126.924714,37.5055601
"혜윰고등수학학원","서울특별시 관악구 신림로 271 , 2층·3층 (신림동, 진흥빌딩)",126.9315321,37.4787947
"포도나무영어학원","서울특별시 동작구 서달로13길 11-22 , 1층 일부 (흑석동)",126.9617739,37.5081262
"에듀웰상도음악학원","서울특별시 동작구 장승배기로 23 , 3층 (상도동, 성모빌딩)",126.9420027,37.5002367
"유씨수학학원","서울특별시 관악구 은천로 105 , 5층 (봉천동)",126.9471178,37.4870842
"사당위드피아노학원","서울특별시 동작구 남부순환로 2073 , 1층 (사당동)",126.9815405,37.4923048
"눈높이러닝센터구암보습학원","서울특별시 관악구 은천로25길 69 , 401호 일부 (봉천동, 에이플러스프라자)",126.9483289,37.4890187
"관악청담에이프릴어학원","서울특별시 관악구 양녕로 93 , 블루밍센터빌딩 401호 (봉천동)",126.9451461,37.489958
"무한도전국어영어학원","서울특별시 동작구 여의대방로36길 20-1 , 1층·2층 (대방동, 베이비스튜디오)",126.9239448,37.5050179
"세종역량평가학원","서울특별시 관악구 쑥고개로 75 , 6층 (봉천동, 광장빌딩)",126.9449248,37.4796391
"권우주지엠이티고시학원","서울특별시 관악구 남부순환로 1533 , 3층 (신림동, 반석빌딩)",126.9208941,37.483294
"국제무용학원","서울특별시 동작구 남부순환로 2007 , 2층~4층 (사당동, 예찬빌딩)",126.9717242,37.475854
"밈(mi:m)영어학원","서울특별시 동작구 상도로26길 18 , 창조빌딩4층 (상도동, 남원추어탕)",126.9388114,37.5037837
"씨엠에스관악영재학원","서울특별시 관악구 남부순환로 1761 , 5층 (봉천동, 서원빌딩)",126.9462246,37.4825165
"샤갈의꿈미술학원","서울특별시 관악구 호암로 537 3층 (신림동)",126.9312518,37.4655239
"대치프라임학원","서울특별시 관악구 난곡로 193 , 5층 (신림동, K&J)",126.917945,37.4712962
"열린음악학원","서울특별시 동작구 서달로 114 (흑석동)",126.961062,37.5035868
"메카독서실","서울특별시 관악구 양녕로 46 , 6층 601,602,603-1호 (봉천동, 메카플러스)",126.9472808,37.4861035
"스텝스학원","서울특별시 관악구 구암길 10 , 3층 (봉천동)",126.9469043,37.4886014
"폴러스폴댄스학원","서울특별시 관악구 남부순환로 1921 , 3층 (봉천동, 금강빌딩)",126.9627817,37.477623
"에이티씨네트웍스아카데미학원","서울특별시 관악구 봉천로 281 , 2층 (봉천동)",126.9324762,37.487688
"파스칼수학2관학원","서울특별시 관악구 난곡로 193 , 3층 (신림동, K&J)",126.917945,37.4712962
"앨리스실용음악학원","서울특별시 관악구 호암로 605 , 3층 (신림동)",126.9335972,37.4713496
"영가스파르타센터학원","서울특별시 동작구 노량진로8길 3 , 3층일부,4층 (노량진동, 경성빌딩)",126.9364655,37.5128829
"파로스잉글리쉬거꾸로수학상도학원","서울특별시 동작구 성대로37길 82 , 2층 (상도동)",126.9373212,37.5018331
"이수메트로간호종합학원","서울특별시 동작구 동작대로 109 , 2층 (사당동, 하나은행)",126.9816629,37.4862583
"리학원","서울특별시 관악구 당곡길 6 , 2층(좌측) (봉천동)",126.9289338,37.4894139
"박문각어학원","서울특별시 동작구 노량진로 159 , 2~4층 (노량진동, 대방고시학원)",126.9248217,37.5124623
"관악헬로우실용음악학원","서울특별시 관악구 남부순환로 1755 , 2층 (봉천동, 한강빌딩)",126.9452832,37.4823004
"이고아트컴퓨터학원","서울특별시 관악구 봉천로 303 , 2층 (봉천동)",126.9345561,37.4867796
"국제컴퓨터학원","서울특별시 동작구 동작대로7길 97 , 4층 (사당동, 사당동근린생활시설)",126.9778602,37.4770759
"일등해법학원","서울특별시 관악구 은천로 150 , 2층 (봉천동)",126.9518726,37.4861966
"에이블수학학원","서울특별시 관악구 관악로30길 11 , 2층 (봉천동)",126.9582614,37.4865099
"우리경찰학원","서울특별시 동작구 노량진로 202 , 6층일부(601호,603호) (노량진동, 남강타워)",126.9482239,37.5127631
"조은독서실","서울특별시 동작구 장승배기로30길 6-1 , 2~4층 (노량진동)",126.9408865,37.5126064
"씨지파이브학원","서울특별시 관악구 남부순환로 1953 , 2층 (봉천동)",126.9662101,37.4762825
"1230깊은생각학원","서울특별시 동작구 상도로 26-1 , 3층 (대방동)",126.9546477,37.4987708
"마이티처고시학원","서울특별시 동작구 등용로 128 , 3층 (대방동, 유정빌딩)",126.9322533,37.5125684
"시대인재엠보습학원","서울특별시 관악구 양녕로 46 , 501호 (봉천동, 메카플러스)",126.9470582,37.4861552
"청출어람보습학원","서울특별시 동작구 상도로 54 , 2층 (대방동)",126.9309402,37.5131791
"써니사이드학원","서울특별시 동작구 상도로 325 , 2층 (상도동)",126.9514342,37.4991921
"한솔플러스학원","서울특별시 동작구 사당로12길 2 , 3층 (사당동)",126.9708693,37.484439
"메타매스학원","서울특별시 동작구 상도로53길 65 , 2층,1호 (상도동)",126.9538133,37.5028687
"윌비스독서실","서울특별시 관악구 신림로23길 16 , 2층일부(2001~2011,2082~2094호) (신림동)",126.9344648,37.470442
"에스이글로벌노량진독서실","서울특별시 동작구 노량진로 140 , 7층일부 (노량진동)",126.941549,37.5130841
"윌비스두로경찰간부학원","서울특별시 관악구 신림로23길 16 , 2층일부 (신림동)",126.9344648,37.470442
"예지학원","서울특별시 관악구 양녕로 46 , 2층 207호 (봉천동)",126.9472808,37.4861035
"아모르이그잼경찰공무원학원(신관)","서울특별시 동작구 노량진로 140 , 3층 (노량진동)",126.9415705,37.5129522
"아모르이그잼공무원교원임용학원(신관)","서울특별시 동작구 노량진로 140 , 4층 (노량진동)",126.9415705,37.5129522
"메가트랜디독서실","서울특별시 동작구 장승배기로30길 6-5 , 2~4층 (노량진동)",126.9408865,37.5126064
"이투수학학원","서울특별시 동작구 상도로 40 , 3층 (대방동)",126.9244992,37.4993301
"참좋은음악학원","서울특별시 관악구 은천로25길 63 , 402호 (봉천동)",126.9486211,37.4888231
"창의보습학원","서울특별시 동작구 사당로30길 64 , 1층일부,3층일부 (사당동)",126.9807641,37.4819495
"이투스투포세븐학원","서울특별시 관악구 남부순환로 1730 , 401호,402호 (봉천동)",126.9422444,37.4820227
"꼬레아트미술학원","서울특별시 동작구 장승배기로 142-1 , 3층,5층 (노량진동)",126.9403991,37.5102791
"장성영어학원","서울특별시 동작구 장승배기로 113 , 3층 (노량진동)",126.9394705,37.5078029
"앰플스터디학원","서울특별시 동작구 여의대방로 82 , 2~3층 (신대방동)",126.915772,37.4965761
"공단기8관고시학원","서울특별시 동작구 노량진로 146 , 11층 (노량진동)",126.9421572,37.5132179
"다이나믹연기학원","서울특별시 관악구 봉천로 407 , 3층 (봉천동)",126.9451638,37.4831526
"하이니티보습학원","서울특별시 관악구 남부순환로 1702 , 3층 (봉천동)",126.9391521,37.4831348
"관악모아수학학원","서울특별시 관악구 양녕로 70 , 2층 (봉천동)",126.9465774,37.4881246
"토즈스터디센터서울대입구역독서실","서울특별시 관악구 관악로 223 , 5~6층일부 (봉천동)",126.9551282,37.4848027
"공단기9관고시학원","서울특별시 동작구 노량진로 188 , 5~7층 (노량진동)",126.9467592,37.5131842
"대치프라임성균관독서실","서울특별시 관악구 난곡로 193 , 4층 (신림동)",126.917945,37.4712962
"임용단기고시학원","서울특별시 동작구 노량진로 188 , 1층일부,10~11층 (노량진동)",126.9467592,37.5131842
"수도건축토목공예학원","서울특별시 동작구 노량진로 166  4층(노량진동)",126.944644,37.5134185
"대승컴퓨터학원","서울특별시 관악구 남부순환로 1850 (봉천동)",126.9552682,37.479941
"예지음악학원","서울특별시 관악구 봉천로23나길 66  (봉천동)",126.9390298,37.4866703
"에스디에이삼육신림외국어학원","서울특별시 관악구 신림로 350  (신림동)",126.9299512,37.4854721
"뉴에이스독서실","서울특별시 동작구 만양로18길 39  (노량진동)",126.9462059,37.512954
"진선미피아노학원","서울특별시 동작구 서달로 82-6 (흑석동)",126.960682,37.5008966
"봉천한샘외국어학원","서울특별시 관악구 은천로39길 6 1,2,4층 (봉천동)",126.9552335,37.4861678
"한솔독서실","서울특별시 동작구 만양로14바길 4 1-5층 (노량진동)",126.9466274,37.5121009
"노량진제일고시학원","서울특별시 동작구 노량진로14길 33 (노량진동)",126.9427026,37.5121667
"참독서실","서울특별시 동작구 현충로 151  상가3층(흑석동, 한강현대아파트)",126.9695517,37.50693
"고운독서실","서울특별시 동작구 만양로14마길 24 (노량진동)",126.9462609,37.5111344
"서울지고시학원","서울특별시 동작구 노량진로 158 , 3~6층 (노량진동,정진학원)",126.9467592,37.5131842
"대방열림고시학원","서울특별시 동작구 여의대방로 286 , 2층 일부, 4층 (대방동,대방고시학원)",126.9248217,37.5124623
"청암독서실","서울특별시 동작구 노량진로16길 16 4,5층 (노량진동)",126.9434743,37.5127891
"하나컴퓨터학원","서울특별시 관악구 난곡로 347  (신림동)",126.9136243,37.4848725
"한강주산부기학원","서울특별시 동작구 현충로 2 (본동)",126.9585113,37.5124847
"한서독서실","서울특별시 동작구 만양로 104 (노량진동)",126.9444871,37.5127558
"웅진독서실","서울특별시 동작구 만양로18길 19  2-4층(노량진동)",126.945344,37.5131148
"뉴베스틴음악학원","서울특별시 관악구 난곡로30가길 17  2층(신림동)",126.920705,37.4706351
"동성아카데미보습학원","서울특별시 관악구 남부순환로248길 68 , 302호,303호,304호 (봉천동)",126.9661712,37.4727023
"열린이화음악학원","서울특별시 동작구 동작대로11길 104  3층(사당동)",126.9757501,37.4815746
"노량진종로학원","서울특별시 동작구 노량진로 167  2-5층(노량진동)",126.9445055,37.5140165
"코스모스음악학원","서울특별시 관악구 낙성대역길 91 2층 (봉천동)",126.9638357,37.4744137
"북토피아독서실","서울특별시 관악구 남현길 79  (남현동)",126.9757904,37.4732411
"일등속셈학원","서울특별시 동작구 장승배기로 136 2층 (노량진동)",126.9403373,37.5096091
"대지독서실","서울특별시 관악구 호암로26길 35 (신림동)",126.9355369,37.4704895
"신림독서실","서울특별시 관악구 신림로11길 48 3층 (신림동)",126.9386216,37.4682862
"가야컴퓨터학원","서울특별시 관악구 남부순환로 1843 (봉천동)",126.9549144,37.4806632
"문성컴퓨터학원","서울특별시 동작구 상도로 83 , (2층) (대방동,대방빌딩)",126.9297088,37.4998762
"대호보습학원","서울특별시 동작구 동작대로 43  (사당동)",126.9812192,37.4967987
"윤경음악학원","서울특별시 관악구 당곡길 6 (봉천동)",126.9292274,37.492147
"해낸독서실","서울특별시 관악구 쑥고개로 80  4층(봉천동)",126.9452559,37.4791717
"금탑스터디독서실","서울특별시 관악구 신림로 129-1 (신림동)",126.9347796,37.4708791
"버니스독서실","서울특별시 관악구 호암로24길 74  (신림동)",126.9372123,37.4691368
"재희독서실","서울특별시 관악구 관악로 304 상가3층(봉천동)",126.9583387,37.4921791
"석학독서실","서울특별시 관악구 보라매로 4  (봉천동)",126.9279646,37.4898962
"해성속셈학원","서울특별시 동작구 성대로29길 63 2층 (상도동)",126.9374536,37.5008701
"제일미용학원","서울특별시 관악구 시흥대로 574 , 4층일부,5층 (신림동)",126.9029208,37.4839618
"명문독서실","서울특별시 관악구 인헌길 77 (봉천동)",126.9669775,37.4721129
"모스트학원","서울특별시 동작구 사당로 188 , 201,302호 (사당동)",126.9692017,37.4853318
"모짜르트음악학원","서울특별시 동작구 여의대방로 22 우성상가304호 (신대방동)",126.9116189,37.4923219
"참음악학원","서울특별시 동작구 성대로 69 (상도동)",126.9346565,37.4979481
"윤목독서실","서울특별시 관악구 호암로26길 63 , 2층~4층 (신림동)",126.9372136,37.4703162
"장원독서실","서울특별시 동작구 신대방길 88  (신대방동)",126.9096286,37.4896797
"청탑보습학원","서울특별시 관악구 관악로 136  2층(봉천동)",126.9527308,37.4773676
"에듀맥학원","서울특별시 관악구 인헌길 14 3층 (봉천동)",126.9666044,37.4749903
"문창예그린학원","서울특별시 동작구 신대방2길 13 1층 (신대방동)",126.9130857,37.4881771
"백합음악학원","서울특별시 관악구 문성로 218 2층 (신림동)",126.9279833,37.4791694
"봉천한샘보습학원","서울특별시 관악구 은천로39길 6 (봉천동)",126.9552335,37.4861678
"동아음악학원","서울특별시 동작구 신대방2길 13 3층 (신대방동)",126.9130857,37.4881771
"신고려보습학원","서울특별시 관악구 난곡로24나길 2  (신림동)",126.921217,37.4693072
"연세에듀플러스학원","서울특별시 관악구 신림로 272 , 302호, 402호 (신림동,대원빌딩)",126.932032,37.4790725
"춤아리무용학원","서울특별시 동작구 현충로 119 4층(흑석동,명수대현대아파트)",126.9664285,37.5070399
"수수속셈학원","서울특별시 동작구 노량진로18길 30 (본동)",126.9515139,37.5120173
"대명보습학원","서울특별시 관악구 호암로 528 2층(신림동)",126.9317212,37.4647145
"필탑보습학원","서울특별시 관악구 남부순환로161가길 34 2,3층 (신림동)",126.9168606,37.4849365
"형설보습학원","서울특별시 관악구 관악로 226 (봉천동)",126.9557693,37.4846389
"일심보습학원","서울특별시 관악구 은천로 48  3,4층(봉천동)",126.9404966,37.4859347
"동작대방시매쓰보습학원","서울특별시 동작구 상도로 71 2층 (대방동)",126.9343755,37.506182
"에듀탑보습학원","서울특별시 동작구 상도로15길 87 1-3층 (상도동)",126.9356068,37.5042162
"동서보습학원","서울특별시 관악구 인헌길 80 (봉천동)",126.9667142,37.4719376
"강남예일보습어학원","서울특별시 관악구 난곡로 210 , 4층 (신림동)",126.9184995,37.4736875
"뮤즈음악학원","서울특별시 관악구 난우길 39  3층(신림동)",126.9173827,37.4761038
"비상보습학원","서울특별시 관악구 쑥고개로11길 41 (봉천동)",126.9422185,37.4815386
"꿈이찬보습학원","서울특별시 동작구 성대로 59 2층(상도동)",126.9342742,37.4982681
"신영수속셈학원","서울특별시 관악구 남부순환로161길 15 (신림동)",126.9211187,37.4837698
"현대이화음악학원","서울특별시 동작구 현충로 153 한강현대상가3층(흑성동)",126.9695517,37.50693
"초록미술학원","서울특별시 관악구 관천로11길 90 2층 (신림동)",126.919886,37.4835504
"새현대속셈학원","서울특별시 동작구 현충로 151 한강현대상가3층(흑석동)",126.9695517,37.50693
"김용균보습학원","서울특별시 동작구 동작대로29나길 9  (사당동)",126.9804249,37.4884396
"서울탑학원","서울특별시 관악구 쑥고개로 78 (봉천동)",126.9450515,37.4792348
"관서음악학원","서울특별시 관악구 관악로 139  (봉천동)",126.951885,37.4776178
"서울대보습학원-143","서울특별시 관악구 관악로 306 , 현대종합상가 1동 4층 ,406호 (봉천동,현대아파트)",126.9583387,37.4921791
"문창학원","서울특별시 관악구 조원로 161  (신림동)",126.9201451,37.486055
"서강참보습학원","서울특별시 관악구 은천로 61 110호일부,111,112호 (봉천동)",126.942236,37.4863864
"교신학원","서울특별시 관악구 은천로 66 , 에이동 3층 (봉천동)",126.9427874,37.486094
